~Version
 VERS              .         3.0                           : CWLS LOG ASCII STANDARD - VERSION 3.0
 WRAP              .         NO                            : ONE LINE PER DEPTH STEP
 DLM               .         SPACE                         : DELIMITING CHARACTER(SPACE TAB OR COMMA)
~Well Information
#_______________________________________________________________________________
#
#PARAMETER_NAME    .UNIT     VALUE                         : DESCRIPTION
#_______________________________________________________________________________
STRT               .ft       3360                          : First reference value
STOP               .ft       6444                          : Last reference value
STEP               .ft       0.4                           : Step increment
NULL               .         -9999                         : Missing value
COMP               .                                       : Company
WELL               .         EGBM-009                      : Well name
FLD                .         WILDCAT                       : Field
LOC                .                                       : Location
SRVC               .                                       : Service Company
CTRY               .                                       : Country
DATE               .                                       : Service Date
X                  .                                       : X or East-West coordinate
Y                  .                                       : Y or North South coordinate
GDAT               .                                       : Geodetic Datum
HZCS               .                                       : Horizontal Co-ordinate System
CREATION-TIME      .         2000/8/8 0_0                  : 
FIELD-NAME         .         WILDCAT                       : 
FILE-ID            .         SHELL.001                     : 
FILE-NUMBER        .         1                             : 
FILE-SET-NAME      .                                       : 
FILE-SET-NUMBER    .         0                             : 
FILE-TYPE          .         SHELL                         : 
NAME-SPACE-NAME    .         LIS                           : 
NAME-SPACE-VERSION .         0                             : 
PRODUCER-CODE      .         440                           : 
PRODUCER-NAME      .         Schlumberger                  : 
PRODUCT            .                                       : 
PROGRAMS           .                                       : 
VERSION            .         REV 2.00                      : 
WELL-NAME          .                                       : 
~Parameter Information Block
#_______________________________________________________________________________
#
#PARAMETER_NAME    .UNIT     VALUE                         : DESCRIPTION
#_______________________________________________________________________________
SET                .         SHELL_001_1                   : 
ACQUISITION-PRODUCT .         DLIS/U                        : 
CREATION-TIME      .         2026/5/15 11_27               : 
DLIS_FRAME_DIRECTION .         INCREASING                    : 
DLIS_FRAME_NAME    .         1                             : 
DLIS_FRAME_SPACING .0.1_in   48                            : 
FIELD-NAME         .         WILDCAT                       : 
FILE-ID            .         SHELL.001                     : 
FILE-NUMBER        .         1                             : 
FILE-SET-NAME      .         LIS-TO-DLIS-CONVERSION        : 
FILE-SET-NUMBER    .         15217                         : 
FILE-TYPE          .         SHELL                         : 
INDEX-TYPE         .         BOREHOLE-DEPTH                : 
NAME-SPACE-NAME    .                                       : 
NAME-SPACE-VERSION .         0                             : 
OriginalDatasetName .         1                             : 
PRODUCER-CODE      .         440                           : 
PRODUCER-NAME      .         Schlumberger                  : 
PRODUCT            .         DLIS/U                        : 
PROGRAMS           .         LIS-TO-DLIS                   : 
TLFamily_CALM      .         Caliper                       : 
TLFamily_DEPT      .         Measured Depth                : 
TLFamily_GR        .         Gamma Ray                     : 
TLFamily_SON3      .         Compressional Slowness        : 
VERSION            .         0.1                           : 
WELL-NAME          .                                       : 
~Curve Information
#_______________________________________________________________________________
#
#LOGNAME           .UNIT     LOG_ID                        : DESCRIPTION
#_______________________________________________________________________________
DEPT               .ft                                     :  {F}
CALM               .in                                     :  {F}
GR                 .gAPI                                   :  {F}
SON3               .                                       :  {F}
~Ascii
# ...
3942.4     11.57358   23.56441   115.9787  
3942.8     11.61358   23.37326   116.0826  
3943.2     11.65358   23.37346   117.3458  
3943.6     11.72218   23.16824   118.6059  
3944       11.87344   22.63381   119.7088  
3944.4     11.83468   21.79848   119.752   
3944.8     11.7187    20.3775    118.7787  
3945.2     11.70321   18.96412   117.0857  
3945.6     11.62745   17.78464   115.181   
3946       11.63391   16.94892   113.7346  
3946.4     11.63396   17.08169   112.2668  
3946.8     11.634     17.38151   112.4019  
3947.2     11.63405   18.49802   113.0664  
3947.6     11.67738   20.37864   114.1912  
3948       11.65411   21.93774   114.9005  
3948.4     11.70007   22.7765    115.8224  
3948.8     11.66448   22.47699   115.5011  
3949.2     11.62889   22.32417   114.9472  
3949.6     11.57438   21.66655   113.9456  
3950       11.51753   20.9544    113.2949  
3950.4     11.51453   20.11868   112.9975  
3950.8     11.53455   20.75787   113.357   
3951.2     11.55759   22.69629   114.3564  
3951.6     11.74901   24.57621   115.2367  
3952       11.91432   24.83509   115.4792  
3952.4     11.97315   25.28808   115.1134  
3952.8     11.87445   23.5474    113.6877  
3953.2     11.85452   21.87952   111.0896  
3953.6     11.83459   22.77678   111.2898  
3954       11.88371   23.90094   112.4913  
3954.4     11.97455   24.57759   114.0291  
3954.8     12.13445   23.80584   116.0155  
3955.2     12.67402   21.8196    117.8214  
3955.6     12.80988   19.80847   118.8202  
3956       13.01383   19.18312   118.9993  
3956.4     13.01388   18.5838    118.6986  
3956.8     13.07403   18.58395   118.3462  
3957.2     13.45363   18.29405   118.2975  
3957.6     13.61352   19.78323   118.9058  
3958       13.73829   21.5874    119.6581  
3958.4     13.84067   23.68031   120.1994  
3958.8     13.8935    25.17369   120.3994  
3959.2     13.99668   25.99963   120.2791  
3959.6     13.97355   26.67845   119.8017  
3960       14.14216   28.47722   118.8533  
3960.4     14.47394   29.07489   118.2953  
3960.8     14.51332   29.90088   118.3201  
3961.2     14.53338   30.4236    119.6237  
3961.6     14.53345   29.58784   122.3     
3962       14.51353   27.51242   127.5625  
3962.4     14.5136    24.61688   130.7112  
3962.8     14.52659   22.85817   134.6161  
3963.2     14.71359   22.93904   137.9569  
3963.6     14.91349   24.36092   140.407   
3964       15.41322   26.37893   142.8261  
3964.4     15.45327   28.69535   144.7283  
3964.8     14.79383   30.39052   147.4318  
3965.2     13.81484   33.13346   149.6996  
3965.6     13.5479    36.503     152.0027  
3966       13.29111   39.15283   156.3084  
3966.4     13.21515   40.77261   159.2123  
3966.8     12.99707   40.73986   159.4125  
3967.2     12.03603   39.9034    157.2096  
3967.6     11.31656   38.37514   151.7347  
3968       11.1567    37.02596   142.422   
3968.4     11.16602   36.27708   136.6139  
3968.8     11.22114   35.67774   133.9446  
3969.2     11.25676   35.92937   131.5825  
3969.6     11.47046   37.65004   130.549   
3970       11.52555   41.37516   130.2715  
3970.4     11.63666   42.87948   130.0037  
3970.8     11.61752   44.52642   129.4315  
3971.2     11.49683   47.33713   127.5899  
3971.6     11.33696   52.09389   126.2651  
3972       10.69736   58.34429   119.3887  
3972.4     10.05775   69.8614    115.784   
3972.8     9.986988   82.45515   114.0759  
3973.2     9.900043   86.65334   113.0481  
3973.6     10.01788   98.34807   115.2824  
3974       10.01791   98.64873   119.5876  
3974.4     9.977964   93.50165   124.4638  
3974.8     9.898046   89.25739   129.4995  
3975.2     9.838377   86.95686   134.0049  
3975.6     9.618235   87.69756   135.2059  
3976       9.452494   91.62009   132.7025  
3976.4     9.438377   99.80379   127.9625  
3976.8     9.374161   104.7688   121.5881  
3977.2     9.298496   107.5585   119.7841  
3977.6     9.258541   106.8627   116.8625  
3978       9.349268   100.7461   114.4724  
3978.4     9.278584   96.03278   111.8157  
3978.8     9.258619   90.3961    110.0346  
3979.2     9.278635   85.98094   109.053   
3979.6     9.258671   84.56549   109.2826  
3980       9.230022   84.86595   110.6908  
3980.4     9.218739   86.96585   111.9699  
3980.8     9.198772   91.30705   113.5158  
3981.2     9.163448   97.41721   115.123   
3981.6     9.11659    103.4917   116.5642  
3982       9.038906   111.3351   116.7394  
3982.4     9.018938   117.8674   116.8786  
3982.8     8.99897    120.1378   116.7782  
3983.2     8.979      117.7263   117.0316  
3983.6     9.019011   111.4174   118.0455  
3984       9.014717   106.7874   119.4235  
3984.4     8.979073   103.521    120.2812  
3984.8     9.019083   103.8223   120.4812  
3985.2     8.979118   107.3312   119.2961  
3985.6     9.019131   111.2536   117.5027  
3986       9.017654   114.8836   115.6118  
3986.4     8.979191   118.9924   114.1452  
3986.8     9.019203   121.4964   113.411   
3987.2     8.979239   122.0687   113.3881  
3987.6     8.999258   119.1456   113.7717  
3988       9.037884   116.9718   114.4722  
3988.4     9.079287   104.123    115.1728  
3988.8     9.187878   98.47673   118.0457  
3989.2     9.259296   94.2338    121.4027  
3989.6     9.456125   91.14871   124.3822  
3990       10.23916   90.28194   132.2905  
3990.4     12.29879   77.38515   138.6973  
3990.8     13.35867   65.85806   148.4983  
3991.2     14.60721   53.49791   149.1991  
3991.6     15.43843   44.57514   152.2964  
3992       16.97985   37.78535   150.7087  
3992.4     17.27981   33.29355   139.9968  
3992.8     17.25982   31.3515    140.8976  
3993.2     17.31015   31.56953   137.702   
3993.6     17.19985   33.58947   137.8647  
3994       16.111     37.79619   140.2203  
3994.4     14.69903   42.20544   141.9498  
3994.8     12.59932   45.33118   140.5107  
3995.2     12.67938   47.8641    139.1935  
3995.6     13.17937   49.19569   134.288   
3996       13.37939   48.10514   131.8853  
3996.4     12.94544   46.11624   126.0788  
3996.8     12.46433   44.41615   122.575   
3997.2     12.45964   44.13919   115.5674  
3997.6     12.78634   44.24338   111.4629  
3998       13.73969   45.36852   112.8688  
3998.4     15.36385   45.89856   114.966   
3998.8     16.09918   45.89893   118.3692  
3999.2     16.99505   45.73598   124.0746  
3999.6     17.39999   46.49966   126.3766  
4000       16.18212   46.79994   124.9497  
4000.4     15.26      58.2       122.9911  
4000.8     12.08      68.39999   119.9955  
4001.2     10.38      86.10001   119.0682  
4001.6     10.14      90.73003   119.5192  
4002       10.18      95.7       120.8695  
4002.4     10.38      91.05429   124.8732  
4002.8     10.58092   83.85764   128.0562  
4003.2     10.66      74.14653   130.9897  
4003.6     10.9       69.14783   134.1063  
4004       11.04      63.33445   136.7614  
4004.4     10.99967   59.7       137.884   
4004.8     10.77135   59.7       137.9709  
4005.2     10.48568   62.47039   136.0168  
4005.6     10.44      63.6       130.2758  
4006       10.48      61.95895   127.186   
4006.4     10.52      57.3222    125.0407  
4006.8     10.75466   50.49087   122.7012  
4007.2     10.74988   44.67654   120.8671  
4007.6     10.6       40.57342   120.0906  
4008       10.58616   38.19085   121.3755  
4008.4     10.78      36.3       122.716   
4008.8     10.88      36.68195   125.4928  
4009.2     10.91343   39.29724   127.7876  
4009.6     10.92784   42.33784   129.3719  
4010       10.92      44.53225   128.971   
4010.4     10.9       46.5       127.5007  
4010.8     10.81089   46.51546   126.6955  
4011.2     10.78      44.24152   125.9674  
4011.6     10.74      42.12605   125.7669  
4012       10.64352   41.10001   126.1672  
4012.4     10.63597   49.5       126.5835  
4012.8     10.58      51.3       126.6668  
4013.2     9.940001   63.44047   125.9904  
4013.6     9.917471   87.59999   125.5653  
4014       9.641277   92.62912   125.0443  
4014.4     9.52       96.60001   124.9642  
4014.8     9.542212   94.10095   124.8638  
