~Version
 VERS              .         3.0                           : CWLS LOG ASCII STANDARD - VERSION 3.0
 WRAP              .         NO                            : ONE LINE PER DEPTH STEP
 DLM               .         SPACE                         : DELIMITING CHARACTER(SPACE TAB OR COMMA)
~Well Information
#_______________________________________________________________________________
#
#PARAMETER_NAME    .UNIT     VALUE                         : DESCRIPTION
#_______________________________________________________________________________
STRT               .ft       3360                          : First reference value
STOP               .ft       6444                          : Last reference value
STEP               .ft       0.4                           : Step increment
NULL               .         -9999                         : Missing value
COMP               .                                       : Company
WELL               .         EGBM-009                      : Well name
FLD                .         WILDCAT                       : Field
LOC                .                                       : Location
SRVC               .                                       : Service Company
CTRY               .                                       : Country
DATE               .                                       : Service Date
X                  .                                       : X or East-West coordinate
Y                  .                                       : Y or North South coordinate
GDAT               .                                       : Geodetic Datum
HZCS               .                                       : Horizontal Co-ordinate System
CREATION-TIME      .         2000/8/8 0_0                  : 
FIELD-NAME         .         WILDCAT                       : 
FILE-ID            .         SHELL.001                     : 
FILE-NUMBER        .         1                             : 
FILE-SET-NAME      .                                       : 
FILE-SET-NUMBER    .         0                             : 
FILE-TYPE          .         SHELL                         : 
NAME-SPACE-NAME    .         LIS                           : 
NAME-SPACE-VERSION .         0                             : 
PRODUCER-CODE      .         440                           : 
PRODUCER-NAME      .         Schlumberger                  : 
PRODUCT            .                                       : 
PROGRAMS           .                                       : 
VERSION            .         REV 2.00                      : 
WELL-NAME          .                                       : 
~Parameter Information Block
#_______________________________________________________________________________
#
#PARAMETER_NAME    .UNIT     VALUE                         : DESCRIPTION
#_______________________________________________________________________________
SET                .         SHELL_001_1                   : 
ACQUISITION-PRODUCT .         DLIS/U                        : 
CREATION-TIME      .         2026/5/15 11_27               : 
DLIS_FRAME_DIRECTION .         INCREASING                    : 
DLIS_FRAME_NAME    .         1                             : 
DLIS_FRAME_SPACING .0.1_in   48                            : 
FIELD-NAME         .         WILDCAT                       : 
FILE-ID            .         SHELL.001                     : 
FILE-NUMBER        .         1                             : 
FILE-SET-NAME      .         LIS-TO-DLIS-CONVERSION        : 
FILE-SET-NUMBER    .         15217                         : 
FILE-TYPE          .         SHELL                         : 
INDEX-TYPE         .         BOREHOLE-DEPTH                : 
NAME-SPACE-NAME    .                                       : 
NAME-SPACE-VERSION .         0                             : 
OriginalDatasetName .         1                             : 
PRODUCER-CODE      .         440                           : 
PRODUCER-NAME      .         Schlumberger                  : 
PRODUCT            .         DLIS/U                        : 
PROGRAMS           .         LIS-TO-DLIS                   : 
TLFamily_CALM      .         Caliper                       : 
TLFamily_DEPT      .         Measured Depth                : 
TLFamily_GR        .         Gamma Ray                     : 
TLFamily_SON3      .         Compressional Slowness        : 
VERSION            .         0.1                           : 
WELL-NAME          .                                       : 
~Curve Information
#_______________________________________________________________________________
#
#LOGNAME           .UNIT     LOG_ID                        : DESCRIPTION
#_______________________________________________________________________________
DEPT               .ft                                     :  {F}
CALM               .in                                     :  {F}
GR                 .gAPI                                   :  {F}
SON3               .                                       :  {F}
~Ascii
# ...
4743.2     11.60276   72.57159   104.7971  
4743.6     11.74147   74.17509   106.1112  
4744       11.64297   76.32086   105.4974  
4744.4     11.56125   77.74742   104.5007  
4744.8     11.20106   79.21648   103.2898  
4745.2     11.14099   77.11481   102.9271  
4745.6     10.94492   77.88612   102.7477  
4746       10.7088    76.14513   102.7761  
4746.4     10.62066   75.30733   102.5981  
4746.8     10.52287   74.40952   102.0265  
4747.2     10.4605    74.28203   101.8932  
4747.6     10.44043   75.4077    101.8266  
4748       10.41558   76.50612   102.3275  
4748.4     10.38028   77.40494   102.9651  
4748.8     10.28391   77.1037    103.1449  
4749.2     10.20803   76.80244   104.0603  
4749.6     10.18007   77.70103   105.1325  
4750       10.1165    79.16528   105.9355  
4750.4     10.07996   81.50516   106.5474  
4750.8     10.01987   82.19737   106.6444  
4751.2     10.01981   80.99611   105.5343  
4751.6     10.01974   79.48155   104.2051  
4752       10.01968   79.14134   103.2308  
4752.4     10.07961   79.67024   100.3267  
4752.8     10.09954   80.79768   97.85719  
4753.2     10.15325   80.65031   96.02075  
4753.6     10.19939   78.32542   93.90182  
4754       10.21932   75.28015   92.34837  
4754.4     10.21926   69.64139   91.14639  
4754.8     10.21919   64.23885   90.65904  
4755.2     10.22396   58.41533   91.68846  
4755.6     10.29915   53.50602   93.23584  
4756       10.45891   50.96281   95.31749  
4756.4     10.83878   47.38786   97.72517  
4756.8     11.46049   44.20671   98.9268   
4757.2     11.65512   41.31274   99.9285   
4757.6     11.92936   38.3188    100.129   
4758       11.95809   37.1881    100.6935  
4758.4     11.99798   36.53051   102.5198  
4758.8     11.99789   37.35847   104.6081  
4759.2     12.11775   38.7841    106.5097  
4759.6     12.15159   39.58479   107.7439  
4760       12.17753   39.32142   108.0225  
4760.4     12.17627   38.48563   108.2417  
4760.8     12.19732   38.08355   108.58    
4761.2     12.15724   39.99847   109.1917  
4761.6     11.97106   44.56699   110.1448  
4762       11.95716   49.61591   110.6192  
4762.4     11.73902   55.36376   111.1465  
4762.8     11.68923   58.48602   111.4471  
4763.2     11.54707   59.6685    111.4473  
4763.6     11.51143   59.18934   111.147   
4764       11.45694   58.95483   110.3218  
4764.4     11.47361   58.41869   109.268   
4764.8     11.47676   57.88465   107.8146  
4765.2     11.47667   56.74597   106.6606  
4765.6     11.47658   53.93882   105.9408  
4766       11.45758   51.35537   106.5253  
4766.4     11.47641   49.4217    107.5173  
4766.8     11.45633   47.98117   109.1652  
4767.2     11.50548   47.96701   110.8016  
4767.6     11.45616   48.26595   112.5446  
4768       11.43608   53.72203   113.7854  
4768.4     11.39603   57.47495   114.2301  
4768.8     11.17611   64.93935   113.4548  
4769.2     11.01618   71.69252   112.1244  
4769.6     10.9761    75.22197   110.7469  
4770       11.38458   71.7386    109.6654  
4770.4     11.61183   66.83134   109.0469  
4770.8     11.89506   60.82557   109.23    
4771.2     11.97493   55.5214    109.8094  
4771.6     12.27453   53.65366   110.249   
4772       12.13457   57.41934   110.0489  
4772.4     11.95466   62.56076   109.56    
4772.8     11.8147    69.60173   108.6064  
4773.2     11.8146    72.56598   107.5527  
4773.6     11.81451   72.14749   106.9456  
4774       11.88672   70.35834   106.7455  
4774.4     11.81432   68.3333    107.0257  
4774.8     11.8517    68.63219   107.605   
4775.2     12.03387   77.92166   108.2845  
4775.6     12.14241   97.70004   108.8488  
4776       12.19751   114.3573   108.9491  
4776.4     12.27258   116.1782   108.5078  
4776.8     12.37317   116.1429   107.5074  
4777.2     12.3431    108.4039   105.6678  
4777.6     12.37295   98.33044   103.348   
4778       12.0732    88.05437   100.7398  
4778.4     12.05312   82.10672   98.9903   
4778.8     12.03305   78.01176   99.53885  
4779.2     12.01298   74.42822   101.2962  
4779.6     11.9929    71.51175   104.1448  
4780       12.05277   70.0369    109.2511  
4780.4     11.97717   67.09383   110.8061  
4780.8     11.73293   68.51976   110.5968  
4781.2     11.27785   73.65309   109.0338  
4781.6     10.85387   78.44246   107.2312  
4782       10.79386   87.30807   105.7804  
4782.4     10.79379   93.24716   105.6478  
4782.8     10.75376   98.25853   105.6257  
4783.2     10.64525   100.7064   104.983   
4783.6     10.52834   102.4079   103.0976  
4784       10.21424   103.3592   101.2434  
4784.4     9.843493   103.3577   92.53368  
4784.8     9.614971   102.3241   90.13104  
4785.2     9.36293    98.89035   86.98439  
4785.6     9.267162   95.08597   88.87503  
4786       9.235344   92.68593   91.63341  
4786.4     9.235292   91.18704   99.24231  
4786.8     9.135387   92.35889   107.2516  
4787.2     9.115368   95.46274   115.9616  
4787.6     9.115318   99.70239   123.37    
4788       9.115269   104.6326   126.3188  
4788.4     9.115217   109.958    125.2506  
4788.8     9.155107   113.0831   120.267   
4789.2     9.106594   114.121    118.7441  
4789.6     9.075132   113.427    116.5721  
4790       9.015181   113.544    117.4362  
4790.4     9.015133   114.6692   118.6748  
4790.8     9.015083   118.3512   120.6839  
4791.2     9.015036   123.3531   122.6216  
4791.6     9.014988   128.1861   124.5293  
4792       9.014938   126.0879   125.8388  
4792.4     9.014891   118.8961   126.8765  
4792.8     9.014845   113.9452   127.3757  
4793.2     9.014795   111.4074   125.8547  
4793.6     8.974817   112.0316   123.5585  
4794       8.97477    112.6017   121.4756  
4794.4     8.974722   112.4089   115.4635  
4794.8     8.994638   109.7987   108.9568  
4795.2     9.034519   106.7471   104.5524  
4795.6     9.114325   104.7884   104.1521  
4796       9.114275   104.3926   106.5549  
4796.4     9.154152   103.0087   108.4082  
4796.8     9.134138   102.1088   111.7203  
4797.2     9.134089   102.1691   114.1235  
4797.6     9.134039   103.8895   115.1601  
4798       9.114027   106.415    116.2989  
4798.4     9.113977   108.8217   117.4363  
4798.8     9.113928   110.5441   118.717   
4799.2     9.113878   112.5617   119.9413  
4799.6     9.113829   113.9844   120.0622  
4800       9.113779   114.0719   120.1702  
4800.4     9.173653   114.2976   120.1706  
4800.8     9.153692   111.9599   120.0709  
4801.2     9.153692   109.9698   120.2736  
4801.6     9.133732   109.2814   120.853   
4802       9.193613   111.6018   121.749   
4802.4     9.173653   113.8091   122.9498  
4802.8     9.173653   115.2319   123.8921  
4803.2     9.157999   113.9739   124.4716  
4803.6     9.153692   111.0926   124.5783  
4804       9.153692   108.5135   124.4303  
4804.4     9.153692   107.1856   123.9035  
4804.8     9.133732   107.7366   123.8761  
4805.2     9.133732   108.5636   123.8589  
4805.6     9.133732   109.5808   124.0797  
4806       9.133732   111.976    124.7808  
4806.4     9.133732   113.6832   124.9949  
4806.8     9.133732   117.1581   125.0819  
4807.2     9.173653   119.6501   124.7141  
4807.6     9.173653   120.6587   124.1371  
4808       9.173653   120.6587   123.6602  
4808.4     9.173653   119.571    123.2833  
4808.8     9.173653   117.7055   123.0061  
4809.2     9.173653   115.1229   122.6765  
4809.6     9.173653   113.1617   122.1528  
4810       9.153692   112.2754   121.8819  
4810.4     9.153692   113.9903   121.9824  
4810.8     9.153692   117.7239   122.6453  
4811.2     9.153692   121.8591   123.6069  
4811.6     9.153692   123.9521   124.6054  
4812       9.153692   121.3878   124.884   
4812.4     9.153692   118.5211   123.8215  
4812.8     9.153692   113.5074   122.5854  
4813.2     9.153692   108.6263   113.8772  
4813.6     9.153692   105.4246   108.372   
4814       9.204119   104.5908   94.7588   
4814.4     9.133732   104.7904   89.05347  
4814.8     9.063347   106.2874   87.10277  
4815.2     9.033932   107.485    89.3644   
4815.6     9.013971   107.5694   93.1145   
