~Version
 VERS              .         3.0                           : CWLS LOG ASCII STANDARD - VERSION 3.0
 WRAP              .         NO                            : ONE LINE PER DEPTH STEP
 DLM               .         SPACE                         : DELIMITING CHARACTER(SPACE TAB OR COMMA)
~Well Information
#_______________________________________________________________________________
#
#PARAMETER_NAME    .UNIT     VALUE                         : DESCRIPTION
#_______________________________________________________________________________
STRT               .ft       3360                          : First reference value
STOP               .ft       6444                          : Last reference value
STEP               .ft       0.4                           : Step increment
NULL               .         -9999                         : Missing value
COMP               .                                       : Company
WELL               .         EGBM-009                      : Well name
FLD                .         WILDCAT                       : Field
LOC                .                                       : Location
SRVC               .                                       : Service Company
CTRY               .                                       : Country
DATE               .                                       : Service Date
X                  .                                       : X or East-West coordinate
Y                  .                                       : Y or North South coordinate
GDAT               .                                       : Geodetic Datum
HZCS               .                                       : Horizontal Co-ordinate System
CREATION-TIME      .         2000/8/8 0_0                  : 
FIELD-NAME         .         WILDCAT                       : 
FILE-ID            .         SHELL.001                     : 
FILE-NUMBER        .         1                             : 
FILE-SET-NAME      .                                       : 
FILE-SET-NUMBER    .         0                             : 
FILE-TYPE          .         SHELL                         : 
NAME-SPACE-NAME    .         LIS                           : 
NAME-SPACE-VERSION .         0                             : 
PRODUCER-CODE      .         440                           : 
PRODUCER-NAME      .         Schlumberger                  : 
PRODUCT            .                                       : 
PROGRAMS           .                                       : 
VERSION            .         REV 2.00                      : 
WELL-NAME          .                                       : 
~Parameter Information Block
#_______________________________________________________________________________
#
#PARAMETER_NAME    .UNIT     VALUE                         : DESCRIPTION
#_______________________________________________________________________________
SET                .         SHELL_001_1                   : 
ACQUISITION-PRODUCT .         DLIS/U                        : 
CREATION-TIME      .         2026/5/15 11_27               : 
DLIS_FRAME_DIRECTION .         INCREASING                    : 
DLIS_FRAME_NAME    .         1                             : 
DLIS_FRAME_SPACING .0.1_in   48                            : 
FIELD-NAME         .         WILDCAT                       : 
FILE-ID            .         SHELL.001                     : 
FILE-NUMBER        .         1                             : 
FILE-SET-NAME      .         LIS-TO-DLIS-CONVERSION        : 
FILE-SET-NUMBER    .         15217                         : 
FILE-TYPE          .         SHELL                         : 
INDEX-TYPE         .         BOREHOLE-DEPTH                : 
NAME-SPACE-NAME    .                                       : 
NAME-SPACE-VERSION .         0                             : 
OriginalDatasetName .         1                             : 
PRODUCER-CODE      .         440                           : 
PRODUCER-NAME      .         Schlumberger                  : 
PRODUCT            .         DLIS/U                        : 
PROGRAMS           .         LIS-TO-DLIS                   : 
TLFamily_CALM      .         Caliper                       : 
TLFamily_DEPT      .         Measured Depth                : 
TLFamily_GR        .         Gamma Ray                     : 
TLFamily_SON3      .         Compressional Slowness        : 
VERSION            .         0.1                           : 
WELL-NAME          .                                       : 
~Curve Information
#_______________________________________________________________________________
#
#LOGNAME           .UNIT     LOG_ID                        : DESCRIPTION
#_______________________________________________________________________________
DEPT               .ft                                     :  {F}
CALM               .in                                     :  {F}
GR                 .gAPI                                   :  {F}
SON3               .                                       :  {F}
~Ascii
# ...
5980.8     11.35546   41.48009   100.5857  
5981.2     11.38922   35.83868   100.0261  
5981.6     11.38922   33.1656    98.42195  
5982       11.42914   30.54937   97.39243  
5982.4     11.46906   31.20041   96.30666  
5982.8     11.45612   30.66954   95.51248  
5983.2     11.28942   30.53893   95.63959  
5983.6     10.99002   31.1689    96.14613  
5984       10.83034   32.59621   96.89778  
5984.4     10.74367   35.51421   97.80534  
5984.8     10.6507    38.35831   99.37288  
5985.2     10.6507    42.64987   101.101   
5985.6     10.4511    50.57609   103.4885  
5986       10.19162   54.79042   105.1552  
5986.4     9.712574   80.83832   108.9007  
5986.8     9.510374   98.50298   111.4122  
5987.2     9.294968   104.3665   113.2633  
5987.6     9.259434   110.1012   113.398   
5988       9.153692   117.0659   111.8746  
5988.4     9.033932   119.5941   109.428   
5988.8     9.033932   123.2955   105.6557  
5989.2     9.093813   127.0762   100.951   
5989.6     9.033932   129.6317   98.49126  
5990       9.033932   132.9341   96.40248  
5990.4     9.013971   134.2783   94.77144  
5990.8     9.033932   134.4311   93.05746  
5991.2     9.053892   132.2677   90.75587  
5991.6     9.053892   128.228    88.98828  
5992       9.093813   122.8425   87.92688  
5992.4     9.073853   118.1286   90.34651  
5992.8     9.053892   112.3353   93.24042  
5993.2     9.244101   100.5988   96.73901  
5993.6     9.299389   87.12575   99.2805   
5994       9.412006   70.65868   99.86096  
5994.4     9.350067   64.97005   99.48366  
5994.8     9.281065   61.9066    98.17151  
5995.2     9.193613   61.49245   96.6122   
5995.6     9.168976   58.59386   95.95189  
5996       9.133732   56.52068   96.01753  
5996.4     9.153692   52.99402   96.49573  
5996.8     9.213318   54.46107   97.10222  
5997.2     9.293413   57.2476    97.65323  
5997.6     9.672655   57.48503   97.94795  
5998       9.876844   58.38323   98.14815  
5998.4     10.22123   48.503     98.30981  
5998.8     10.2515    42.45826   98.0322   
5999.2     10.2515    38.86367   97.46304  
5999.6     10.23154   37.72456   96.77771  
6000       10.14345   38.09919   96.04617  
6000.4     10.17158   37.42393   94.89828  
6000.8     10.05173   38.41445   93.94194  
6001.2     10.01174   40.11617   93.18555  
6001.6     9.73679    40.9743    92.84444  
6002       9.765209   41.61077   93.04485  
6002.4     10.05142   41.60957   93.88043  
6002.8     10.43056   41.24174   94.44337  
6003.2     11.36862   40.10107   95.29979  
6003.6     11.88751   37.82367   95.24884  
6004       12.2857    35.24691   94.81607  
6004.4     12.58549   32.97103   94.23741  
6004.8     12.54595   31.3604    93.86926  
6005.2     12.49444   31.12215   93.74895  
6005.6     12.28631   31.12096   93.50243  
6006       12.04671   30.94992   93.52379  
6006.4     11.44779   29.62155   93.44986  
6006.8     11.30804   27.77625   93.35016  
6007.2     10.86882   26.03938   93.28874  
6007.6     10.64918   25.20433   93.05064  
6008       10.61432   24.52694   92.95096  
6008.4     10.52734   24.52574   93.1499   
6008.8     10.48926   24.82395   94.00766  
6009.2     10.48918   25.38604   94.9541   
6009.6     10.46914   26.51606   95.65526  
6010       10.44112   28.45842   96.28903  
6010.4     10.26938   30.56905   96.85269  
6010.8     10.23354   32.29668   97.23312  
6011.2     10.1295    34.02439   96.80502  
6011.6     10.04958   34.6958    96.42656  
6012       10.05925   34.1921    95.42     
6012.4     9.949602   33.7952    94.39482  
6012.8     9.934669   33.79401   92.96207  
6013.2     9.80974    34.09221   91.67046  
6013.6     9.763109   33.79161   90.63446  
6014       9.687353   32.81693   90.3526   
6014.4     9.989155   31.37965   90.43214  
6014.8     10.24855   30.24353   91.15591  
6015.2     11.12671   30.97837   92.194    
6015.6     11.96495   32.10793   92.84227  
6016       12.28423   33.18562   93.05899  
6016.4     12.33455   33.48383   92.65909  
6016.8     12.10445   33.25957   92.40723  
6017.2     11.58033   32.88263   91.95915  
6017.6     11.34579   32.58203   91.3503   
6018       11.14607   32.7366    90.40025  
6018.4     11.06619   32.84612   89.42894  
6018.8     11.02619   32.87784   88.71516  
6019.2     10.98619   32.87664   88.45766  
6019.6     10.8458    32.57604   88.55815  
6020       10.80639   32.27544   88.95898  
6020.4     10.77843   31.97485   89.77737  
6020.8     10.86611   32.27305   90.29875  
6021.2     11.04876   32.38671   90.77928  
6021.6     11.18531   32.57005   91.15913  
6022       11.31911   32.28346   91.33878  
6022.4     11.32487   31.74614   91.36375  
6022.8     11.32479   31.52714   91.69806  
6023.2     11.30475   31.96646   92.29091  
6023.6     11.28471   32.29233   93.05894  
6024       11.29179   31.69968   93.81168  
6024.4     11.16148   31.16294   94.4689   
6024.8     11.06495   30.62855   94.66946  
6025.2     10.62571   30.16407   94.24384  
6025.6     10.44599   30.77003   93.01082  
6026       10.3733    32.73722   91.51402  
6026.4     10.34604   34.99336   90.92569  
6026.8     10.04655   38.55151   91.40985  
6027.2     9.986586   42.82537   93.07945  
6027.6     9.894032   46.51259   95.65302  
6028       9.774687   48.21027   98.17628  
6028.4     9.738865   49.91496   98.21942  
6028.8     9.646946   49.25085   98.35529  
6029.2     9.626905   47.51456   97.97682  
6029.6     9.642004   46.07904   97.49826  
6030       9.677574   46.31736   96.57661  
6030.4     9.713066   46.31617   96.2066   
6030.8     9.810497   46.61436   95.25102  
6031.2     9.905945   46.03092   94.27541  
6031.6     10.04559   43.69534   93.17488  
6032       10.06547   40.13667   92.27441  
6032.4     10.06997   36.82493   91.97437  
6032.8     10.04535   35.19191   91.67447  
6033.2     10.02921   34.63113   91.47467  
6033.6     10.04519   34.62994   91.47508  
6034       10.04511   32.83408   91.47548  
6034.4     9.965189   30.7349    91.47588  
6034.8     9.984018   29.48932   91.77388  
6035.2     10.24202   28.33772   92.35406  
6035.6     10.54379   29.02742   93.03491  
6036       10.80366   29.96289   93.7511   
6036.4     10.9428    31.09212   94.38078  
6036.8     11.02259   31.02755   94.18097  
6037.2     10.84287   30.66321   93.50885  
6037.6     10.76685   31.49403   92.58099  
6038       10.66307   33.61641   91.9241   
6038.4     10.66299   33.71736   91.57397  
6038.8     10.68287   34.28765   91.48029  
6039.2     10.68279   33.80496   91.64493  
6039.6     10.70267   33.41437   91.78139  
6040       10.70259   34.01197   91.90413  
6040.4     10.70251   34.62385   91.883    
6040.8     10.70243   35.75446   92.06262  
6041.2     10.71188   36.40359   91.92488  
6041.6     10.72223   36.10299   91.68327  
6042       10.72215   35.20358   91.26807  
6042.4     10.72207   34.60359   91.08347  
6042.8     10.72199   33.47588   90.98378  
6043.2     10.72191   33.40359   91.03546  
6043.6     10.72184   33.7018    91.08469  
6044       10.72176   34         91.08508  
6044.4     11.02108   33.69939   91.0733   
6044.8     10.98108   33.9976    91.18597  
6045.2     11.20056   33.3976    91.5327   
6045.6     11.24224   32.41976   92.01263  
6046       11.35753   32.1976    92.39307  
6046.4     11.30012   33.0946    92.68909  
6046.8     11.1803    34.35507   92.85223  
6047.2     10.85575   35.90275   92.99019  
6047.6     10.62124   37.93011   93.11105  
6048       10.45062   39.06217   92.99332  
6048.4     10.44144   39.62187   92.33612  
6048.8     10.46132   39.37485   91.32547  
6049.2     10.48524   38.38457   90.19183  
6049.6     10.52104   36.65018   89.39948  
6050       10.52096   35.77841   89.18918  
6050.4     10.48969   35.7774    89.42653  
6050.8     10.30124   34.57844   90.23863  
6051.2     10.30116   33.3068    91.32034  
6051.6     10.32104   32.47009   91.79338  
6052       10.32096   31.63512   91.79373  
6052.4     10.33082   31.28024   91.8943   
6052.8     10.36072   31.57844   91.75104  
6053.2     10.48411   33.07425   91.55103  
