~Version
 VERS              .         3.0                           : CWLS LOG ASCII STANDARD - VERSION 3.0
 WRAP              .         NO                            : ONE LINE PER DEPTH STEP
 DLM               .         SPACE                         : DELIMITING CHARACTER(SPACE TAB OR COMMA)
~Well Information
#_______________________________________________________________________________
#
#PARAMETER_NAME    .UNIT     VALUE                         : DESCRIPTION
#_______________________________________________________________________________
STRT               .ft       3360                          : First reference value
STOP               .ft       6444                          : Last reference value
STEP               .ft       0.4                           : Step increment
NULL               .         -9999                         : Missing value
COMP               .                                       : Company
WELL               .         EGBM-009                      : Well name
FLD                .         WILDCAT                       : Field
LOC                .                                       : Location
SRVC               .                                       : Service Company
CTRY               .                                       : Country
DATE               .                                       : Service Date
X                  .                                       : X or East-West coordinate
Y                  .                                       : Y or North South coordinate
GDAT               .                                       : Geodetic Datum
HZCS               .                                       : Horizontal Co-ordinate System
CREATION-TIME      .         2000/8/8 0_0                  : 
FIELD-NAME         .         WILDCAT                       : 
FILE-ID            .         SHELL.001                     : 
FILE-NUMBER        .         1                             : 
FILE-SET-NAME      .                                       : 
FILE-SET-NUMBER    .         0                             : 
FILE-TYPE          .         SHELL                         : 
NAME-SPACE-NAME    .         LIS                           : 
NAME-SPACE-VERSION .         0                             : 
PRODUCER-CODE      .         440                           : 
PRODUCER-NAME      .         Schlumberger                  : 
PRODUCT            .                                       : 
PROGRAMS           .                                       : 
VERSION            .         REV 2.00                      : 
WELL-NAME          .                                       : 
~Parameter Information Block
#_______________________________________________________________________________
#
#PARAMETER_NAME    .UNIT     VALUE                         : DESCRIPTION
#_______________________________________________________________________________
SET                .         SHELL_001_1                   : 
ACQUISITION-PRODUCT .         DLIS/U                        : 
CREATION-TIME      .         2026/5/15 11_27               : 
DLIS_FRAME_DIRECTION .         INCREASING                    : 
DLIS_FRAME_NAME    .         1                             : 
DLIS_FRAME_SPACING .0.1_in   48                            : 
FIELD-NAME         .         WILDCAT                       : 
FILE-ID            .         SHELL.001                     : 
FILE-NUMBER        .         1                             : 
FILE-SET-NAME      .         LIS-TO-DLIS-CONVERSION        : 
FILE-SET-NUMBER    .         15217                         : 
FILE-TYPE          .         SHELL                         : 
INDEX-TYPE         .         BOREHOLE-DEPTH                : 
NAME-SPACE-NAME    .                                       : 
NAME-SPACE-VERSION .         0                             : 
OriginalDatasetName .         1                             : 
PRODUCER-CODE      .         440                           : 
PRODUCER-NAME      .         Schlumberger                  : 
PRODUCT            .         DLIS/U                        : 
PROGRAMS           .         LIS-TO-DLIS                   : 
TLFamily_CALM      .         Caliper                       : 
TLFamily_DEPT      .         Measured Depth                : 
TLFamily_GR        .         Gamma Ray                     : 
TLFamily_SON3      .         Compressional Slowness        : 
VERSION            .         0.1                           : 
WELL-NAME          .                                       : 
~Curve Information
#_______________________________________________________________________________
#
#LOGNAME           .UNIT     LOG_ID                        : DESCRIPTION
#_______________________________________________________________________________
DEPT               .ft                                     :  {F}
CALM               .in                                     :  {F}
GR                 .gAPI                                   :  {F}
SON3               .                                       :  {F}
~Ascii
3360.0     12.30738   42.51444   107.6696  
3360.4     12.32715   49.03312   110.7846  
3360.8     12.33939   53.69757   113.2018  
3361.2     12.41387   55.97853   119.703   
3361.6     12.46627   57.14877   129.2039  
3362       12.55966   59.86441   136.2045  
3362.4     12.66547   62.16733   144.5063  
3362.8     12.9307    67.06123   146.7073  
3363.2     12.92463   73.02174   145.2747  
3363.6     13.04411   79.31456   144.2304  
3364       13.03301   81.42751   138.6099  
3364.4     12.96387   83.5011    130.0112  
3364.8     12.74145   84.24101   128.8568  
3365.2     12.60419   85.42532   128.3401  
3365.6     12.46933   89.10155   129.3319  
3366       12.26447   95.46442   130.4818  
3366.4     12.20439   98.8949    131.4897  
3366.8     12.16427   101.7083   132.017   
3367.2     12.14411   102.0419   132.218   
3367.6     12.14391   101.2981   132.119   
3368       12.14371   99.77911   131.92    
3368.4     12.14351   99.32573   131.721   
3368.8     12.14331   95.88577   131.822   
3369.2     12.10851   92.09479   132.3696  
3369.6     12.06307   90.6467    133.0483  
3370       12.01119   88.5475    134.6014  
3370.4     12.04455   90.66824   134.7929  
3370.8     12.03586   93.40871   135.127   
3371.2     12.0024    96.16086   135.2533  
3371.6     12.0022    96.25514   134.1322  
3372       12.00204   91.22635   134.5862  
3372.4     11.96611   89.4917    135.4908  
3372.8     11.72741   85.99155   137.3582  
3373.2     11.65157   85.67752   140.206   
3373.6     11.602     85.98531   141.05    
3374       11.58184   87.91092   147.6349  
3374.4     11.58164   89.92346   152.2695  
3374.8     11.58144   90.60779   153.137   
3375.2     11.5093    88.57213   153.938   
3375.6     11.64322   85.48259   152.9389  
3376       11.787     84.7569    150.5402  
3376.4     12.14895   81.61377   148.7553  
3376.8     12.22751   82.48489   147.5438  
3377.2     12.31876   85.00122   146.0666  
3377.6     12.29863   86.96005   145.0952  
3378       12.36283   87.88924   143.7899  
3378.4     12.398     88.59775   142.3314  
3378.8     12.3978    89.38023   141.3157  
3379.2     12.38285   89.37724   140.9401  
3379.6     12.2976    89.65182   140.7639  
3380       12.31737   87.73854   140.787   
3380.4     12.2972    86.22313   140.9094  
3380.8     12.29701   84.55869   140.3345  
3381.2     12.27685   83.11842   140.3292  
3381.6     12.26392   81.78386   140.154   
3382       12.21657   80.71037   140.507   
3382.4     12.19814   78.95177   141.2216  
3382.8     12.11635   76.4119    142.303   
3383.2     11.97647   73.53552   143.3554  
3383.6     11.8965    72.78438   144.9407  
3384       11.68748   76.16663   145.7755  
3384.4     11.04159   78.85869   147.2078  
3384.8     10.31889   78.25803   146.9146  
3385.2     10.01936   74.53781   145.7713  
3385.6     9.639919   70.59637   144.8924  
3386       9.535126   66.91786   145.3163  
3386.4     9.559681   65.67079   145.766   
3386.8     9.446657   68.29083   146.3905  
3387.2     9.337097   71.41785   146.868   
3387.6     9.182405   72.14168   146.7001  
3388       9.01996    72.96596   145.2873  
3388.4     9.039721   64.15999   144.0987  
3388.8     9.03952    60.5818    142.6253  
3389.2     9.039322   59.7439    140.4491  
3389.6     9.039122   62.72771   138.4959  
3390       9.031252   72.52864   135.3752  
3390.4     9.038721   74.60982   134.8411  
3390.8     9.078444   77.41808   135.0157  
3391.2     9.040058   80.30539   136.222   
3391.6     8.843466   82.25021   138.511   
3392       8.798403   86.88689   140.1857  
3392.4     8.818163   92.58823   142.3307  
3392.8     8.957644   96.77      144.6546  
3393.2     9.057285   97.83139   146.8913  
3393.6     9.296606   94.0311    148.8315  
3394       9.416174   80.58345   150.0851  
3394.4     9.575649   73.18176   150.5862  
3394.8     9.575449   63.69247   150.887   
3395.2     9.335728   58.11976   150.788   
3395.6     9.075977   57.52972   150.4448  
3396       9.033527   60.80884   148.065   
3396.4     8.995808   69.13214   141.5911  
3396.8     8.975649   74.74208   136.6921  
3397.2     8.955488   78.16467   130.693   
3397.6     8.955288   81.23018   125.7939  
3398       8.995008   83.23608   123.5677  
3398.4     8.97485    84.44312   121.9673  
3398.8     8.969515   84.14072   120.4012  
3399.2     8.954491   80.45546   118.8198  
3399.6     8.943714   77.4966    116.899   
3400       8.93413    74.22264   114.6001  
3400.4     8.933916   71.85326   113.668   
3400.8     8.933701   72.9335    113.4122  
3401.2     8.933485   74.64767   114.3791  
3401.6     8.933268   75.79697   116.0349  
3402       8.933052   76.41203   119.6057  
3402.4     8.932835   84.71266   122.537   
3402.8     8.932619   93.06358   125.402   
3403.2     8.932404   100.2299   126.8741  
3403.6     8.952148   101.1725   126.591   
3404       8.991856   97.13155   125.1028  
3404.4     9.031565   95.47783   123.199   
3404.8     9.196091   89.202     121.5654  
3405.2     9.390451   85.41208   120.8152  
3405.6     9.410202   85.66989   121.0494  
3406       9.436481   91.65092   122.8318  
3406.4     9.449701   93.946     125.6176  
3406.8     9.44949    97.55147   127.5569  
3407.2     9.449278   100.8657   129.4672  
3407.6     9.449066   104.1653   131.0214  
3408       9.448854   109.0688   132.295   
3408.4     9.448643   113.9221   132.393   
3408.8     9.468393   116.7225   132.1783  
3409.2     9.488144   117.3605   131.0059  
3409.6     9.487934   115.4172   130.1375  
3410       9.487722   112.6582   129.5864  
3410.4     9.487509   110.6079   129.377   
3410.8     9.487299   109.8069   130.2891  
3411.2     9.487085   108.6232   131.3432  
3411.6     9.482319   106.0321   132.1181  
3412       9.486664   104.148    131.4654  
3412.4     9.486452   100.6624   130.309   
3412.8     9.486238   99.01208   127.9807  
3413.2     9.486027   99.30878   125.5382  
3413.6     9.485817   99.04243   124.1118  
3414       9.485603   97.25656   123.0645  
3414.4     9.525324   93.19371   123.3448  
3414.8     9.664427   88.82266   123.6405  
3415.2     9.789883   81.69081   123.2419  
3415.6     9.983915   75.44119   120.2421  
3416       9.903782   70.66167   116.0426  
3416.4     9.883684   65.44296   108.5423  
3416.8     9.723724   65.14799   103.1425  
3417.2     9.723515   68.31071   101.7647  
3417.6     9.723303   73.14398   100.399   
3418       9.723093   77.45439   101.2452  
3418.4     9.702917   82.21935   104.4029  
3418.8     9.702707   86.80519   107.682   
3419.2     9.682529   92.34433   110.82    
3419.6     9.68232    99.26396   114.2516  
3420       9.682108   106.7498   116.1245  
3420.4     9.688      109.9505   117.8227  
3420.8     9.76156    111.7105   119.336   
3421.2     9.781321   111.8329   120.3231  
3421.6     9.872429   110.5807   121.0611  
3422       9.940622   110.6294   122.4909  
3422.4     9.966143   110.2495   122.5611  
3422.8     10.02307   110.9235   121.2864  
3423.2     10.05226   109.5305   118.8692  
3423.6     10.10041   105.6414   114.5625  
3424       10.23915   102.8283   111.4622  
3424.4     10.27629   92.15855   106.3508  
3424.8     10.31862   86.92041   105.0632  
3425.2     10.31842   85.1458    103.9226  
3425.6     10.27409   86.22781   103.6016  
3426       10.2581    89.70329   104.4655  
3426.4     10.23792   94.68201   105.4307  
3426.8     10.23771   98.69084   107.133   
3427.2     10.23751   100.1094   109.0247  
3427.6     10.2373    97.13333   110.7798  
3428       10.2371    91.367     112.2732  
3428.4     10.51652   74.93794   116.9762  
3428.8     11.72939   67.14668   119.9778  
3429.2     13.27226   61.47885   126.6808  
3429.6     16.66138   59.6496    131.3831  
3430       17.87931   56.6535    141.2869  
3430.4     17.99897   55.32378   147.6905  
3430.8     18.2185    53.76036   145.7105  
3431.2     16.16735   54.06466   139.9906  
3431.6     13.95022   57.96858   133.19    
3432       11.014     61.19849   125.8884  
3432.4     10.87406   72.80884   125.4066  
