~Version
 VERS              .         3.0                           : CWLS LOG ASCII STANDARD - VERSION 3.0
 WRAP              .         NO                            : ONE LINE PER DEPTH STEP
 DLM               .         SPACE                         : DELIMITING CHARACTER(SPACE TAB OR COMMA)
~Well Information
#_______________________________________________________________________________
#
#PARAMETER_NAME    .UNIT     VALUE                         : DESCRIPTION
#_______________________________________________________________________________
STRT               .ft       3360                          : First reference value
STOP               .ft       6444                          : Last reference value
STEP               .ft       0.4                           : Step increment
NULL               .         -9999                         : Missing value
COMP               .                                       : Company
WELL               .         EGBM-009                      : Well name
FLD                .         WILDCAT                       : Field
LOC                .                                       : Location
SRVC               .                                       : Service Company
CTRY               .                                       : Country
DATE               .                                       : Service Date
X                  .                                       : X or East-West coordinate
Y                  .                                       : Y or North South coordinate
GDAT               .                                       : Geodetic Datum
HZCS               .                                       : Horizontal Co-ordinate System
CREATION-TIME      .         2000/8/8 0_0                  : 
FIELD-NAME         .         WILDCAT                       : 
FILE-ID            .         SHELL.001                     : 
FILE-NUMBER        .         1                             : 
FILE-SET-NAME      .                                       : 
FILE-SET-NUMBER    .         0                             : 
FILE-TYPE          .         SHELL                         : 
NAME-SPACE-NAME    .         LIS                           : 
NAME-SPACE-VERSION .         0                             : 
PRODUCER-CODE      .         440                           : 
PRODUCER-NAME      .         Schlumberger                  : 
PRODUCT            .                                       : 
PROGRAMS           .                                       : 
VERSION            .         REV 2.00                      : 
WELL-NAME          .                                       : 
~Parameter Information Block
#_______________________________________________________________________________
#
#PARAMETER_NAME    .UNIT     VALUE                         : DESCRIPTION
#_______________________________________________________________________________
SET                .         SHELL_001_1                   : 
ACQUISITION-PRODUCT .         DLIS/U                        : 
CREATION-TIME      .         2026/5/15 11_27               : 
DLIS_FRAME_DIRECTION .         INCREASING                    : 
DLIS_FRAME_NAME    .         1                             : 
DLIS_FRAME_SPACING .0.1_in   48                            : 
FIELD-NAME         .         WILDCAT                       : 
FILE-ID            .         SHELL.001                     : 
FILE-NUMBER        .         1                             : 
FILE-SET-NAME      .         LIS-TO-DLIS-CONVERSION        : 
FILE-SET-NUMBER    .         15217                         : 
FILE-TYPE          .         SHELL                         : 
INDEX-TYPE         .         BOREHOLE-DEPTH                : 
NAME-SPACE-NAME    .                                       : 
NAME-SPACE-VERSION .         0                             : 
OriginalDatasetName .         1                             : 
PRODUCER-CODE      .         440                           : 
PRODUCER-NAME      .         Schlumberger                  : 
PRODUCT            .         DLIS/U                        : 
PROGRAMS           .         LIS-TO-DLIS                   : 
TLFamily_CALM      .         Caliper                       : 
TLFamily_DEPT      .         Measured Depth                : 
TLFamily_GR        .         Gamma Ray                     : 
TLFamily_SON3      .         Compressional Slowness        : 
VERSION            .         0.1                           : 
WELL-NAME          .                                       : 
~Curve Information
#_______________________________________________________________________________
#
#LOGNAME           .UNIT     LOG_ID                        : DESCRIPTION
#_______________________________________________________________________________
DEPT               .ft                                     :  {F}
CALM               .in                                     :  {F}
GR                 .gAPI                                   :  {F}
SON3               .                                       :  {F}
~Ascii
# ...
4524.8     16.38014   25.16216   108.3152  
4525.2     16.79881   24.26372   108.9318  
4525.6     17.23491   23.36525   109.1895  
4526       17.31805   22.13391   108.9905  
4526.4     17.29809   22.46693   109.0124  
4526.8     17.35801   22.1302    108.8341  
4527.2     17.41644   21.5686    108.6888  
4527.6     17.47786   21.86834   108.3885  
4528       17.6213    21.86851   108.5884  
4528.4     17.75748   21.48748   109.1922  
4528.8     17.91727   21.26971   110.0836  
4529.2     17.92307   21.0151    110.9886  
4529.6     18.03713   20.97047   110.375   
4530       18.11703   20.97064   108.1875  
4530.4     18.89597   20.73393   107.7741  
4530.8     19.09321   21.56388   107.0868  
4531.2     19.28901   22.39523   107.8868  
4531.6     19.45546   23.82021   109.3609  
4532       19.87474   24.86625   110.9876  
4532.4     20.37408   24.86639   117.1893  
4532.8     20.41407   25.1181    120.8189  
4533.2     20.39413   25.64992   124.0834  
4533.6     20.41413   25.88353   124.3642  
4534       20.35597   26.3652    123.2909  
4534.4     19.97478   26.0658    117.7889  
4534.8     19.2158    25.7664    111.5866  
4535.2     18.75642   26.38167   110.588   
4535.6     17.97772   28.98361   108.3459  
4536       17.27837   29.67249   108.2438  
4536.4     16.41946   31.09975   109.5853  
4536.8     16.0473    31.46024   110.508   
4537.2     16.04738   31.46049   110.5956  
4537.6     16.00749   31.71877   110.0506  
4538       16.00759   31.16136   109.5402  
4538.4     15.97465   30.26271   108.9843  
4538.8     15.92785   29.36406   109.0846  
4539.2     15.888     29.45906   109.8427  
4539.6     15.78819   30.29049   110.6611  
4540       15.68837   31.16261   111.4608  
4540.4     15.07257   31.16285   111.4844  
4540.8     14.67778   31.16311   111.0954  
4541.2     13.57521   32.18078   111.1562  
4541.6     12.73215   36.15342   112.241   
4542       11.86854   41.94453   115.5047  
4542.4     11.56018   47.81535   119.6483  
4542.8     11.13411   53.00847   123.8135  
4543.2     10.55483   58.14223   126.4636  
4543.6     10.53488   64.94492   127.6573  
4544       10.53492   76.11488   126.6158  
4544.4     10.53496   82.39153   125.3907  
4544.8     10.55497   88.28596   123.0314  
4545.2     10.56356   90.4498    120.1112  
4545.6     10.65494   86.99706   117.138   
4546       10.75487   77.01697   115.0708  
4546.4     11.03461   71.17972   113.6906  
4546.8     11.15451   60.33239   112.9135  
4547.2     11.71396   49.63679   112.4753  
4547.6     11.93376   44.81489   111.144   
4548       11.75401   45.05082   108.7982  
4548.4     11.01481   46.50063   107.5576  
4548.8     10.67522   48.50011   106.879   
4549.2     11.39453   48.17552   107.6696  
4549.6     12.11383   46.18662   108.6991  
4550       12.56775   42.59721   111.323   
4550.4     12.6534    39.52338   113.2462  
4550.8     12.67343   37.17883   113.7816  
4551.2     12.65351   35.73801   112.9945  
4551.6     12.27392   34.29598   111.8752  
4552       12.03421   35.06634   111.7801  
4552.4     12.11418   35.96576   112.7958  
4552.8     12.65851   36.86519   114.6694  
4553.2     12.74582   36.66521   116.5815  
4553.6     12.78602   35.82694   117.6871  
4554       12.5967    35.36745   116.4819  
4554.4     12.07187   35.08195   114.4611  
4554.8     11.43508   38.39954   112.0483  
4555.2     11.13539   44.02622   110.5647  
4555.6     11.03553   50.19818   110.1779  
4556       11.11551   53.58587   111.4069  
4556.4     11.1555    55.15191   112.6116  
4556.8     10.9957    53.51541   113.7518  
4557.2     10.97574   50.60848   114.457   
4557.6     10.73598   47.95934   114.2171  
4558       10.53295   46.76081   112.7645  
4558.4     10.27644   49.94748   111.7765  
4558.8     10.21653   57.82917   110.877   
4559.2     10.21656   67.33179   111.4669  
4559.6     10.23256   76.83859   112.6165  
4560       10.23661   87.52994   115.3792  
4560.4     10.28372   89.31531   116.7799  
4560.8     10.32892   89.48482   117.4017  
4561.2     10.75631   86.36607   117.4915  
4561.6     11.0561    82.65723   116.417   
4562       11.03618   82.13757   113.6775  
4562.4     10.71644   83.03755   112.3955  
4562.8     10.39757   89.34444   110.0112  
4563.2     10.21944   98.97331   108.1075  
4563.6     10.03708   107.8473   106.1451  
4564       9.875305   113.0191   105.1141  
4564.4     9.730429   111.68     104.3746  
4564.8     9.67741    107.8441   102.8248  
4565.2     9.658819   102.717    101.2738  
4565.6     9.751326   100.7293   100.493   
4566       9.837391   100.1935   101.1678  
4566.4     10.01729   96.19167   103.956   
4566.8     10.55696   85.14352   106.8712  
4567.2     12.17595   72.55246   114.5762  
4567.6     12.91552   56.66313   117.8783  
4568       12.90913   33.57864   119.7794  
4568.4     12.9556    33.08335   118.3854  
4568.8     12.11617   31.99255   116.8425  
4569.2     11.65652   33.31507   115.0275  
4569.6     11.71988   33.00677   114.7015  
4570       12.55609   31.56578   116.502   
4570.4     13.69543   30.28208   118.1375  
4570.8     13.77546   30.07524   118.5431  
4571.2     13.55565   33.61376   118.1343  
4571.6     12.11653   40.86135   117.0983  
4572       11.07717   44.97482   115.8859  
4572.4     9.877859   65.96349   114.4743  
4572.8     9.560511   78.70895   114.1234  
4573.2     9.518114   90.55128   113.046   
4573.6     9.498154   106.4438   112.568   
4574       9.49818    125.3352   111.39    
4574.4     9.498209   134.3315   110.6121  
4574.8     9.498238   135.5313   109.7988  
4575.2     9.498266   140.5021   109.0562  
4575.6     9.498293   141.212    108.5783  
4576       9.49832    139.7329   108.1682  
4576.4     9.498348   136.1786   108.068   
4576.8     9.498377   130.2107   108.0919  
4577.2     9.498405   122.6592   108.6714  
4577.6     9.498432   118.147    109.4686  
4578       9.498461   112.559    110.269   
4578.4     9.498487   109.7272   110.469   
4578.8     9.498516   108.2545   109.5341  
4579.2     9.498545   107.8268   108.5733  
4579.6     9.498573   107.7853   108.038   
4580       9.4986     108.6193   108.417   
4580.4     9.498629   109.4522   110.4291  
4580.8     9.498657   111.1052   113.1422  
4581.2     9.470882   114.3914   116.3298  
4581.6     9.35058    118.4564   117.6736  
4582       9.298813   122.3212   118.1739  
4582.4     9.278847   125.4655   117.1857  
4582.8     9.238888   129.2552   115.3553  
4583.2     9.238913   131.4075   114.1249  
4583.6     9.25592    132.8564   114.6705  
4584       9.238964   133.3267   116.3535  
4584.4     9.258984   133.3105   117.9602  
4584.8     9.239016   133.1595   119.9787  
4585.2     9.259035   132.8878   120.0947  
4585.6     9.259062   133.7614   118.7044  
4586       9.239094   135.6424   116.9776  
4586.4     9.23912    135.5631   115.5614  
4586.8     9.25045    136.464    115.1831  
4587.2     9.243635   136.1714   115.4347  
4587.6     9.259193   131.3679   116.3591  
4588       9.239223   127.1691   117.4655  
4588.4     9.270638   120.1921   118.5722  
4588.8     9.319258   114.8278   119.2821  
4589.2     9.560814   109.7764   120.0947  
4589.6     11.25889   101.3199   121.5745  
4590       13.27346   72.58568   124.0338  
4590.4     16.09806   62.98799   125.7852  
4590.8     16.47992   53.69003   129.0624  
4591.2     17.57972   43.88058   132.0705  
4591.6     18.33961   39.29343   134.1752  
4592       18.48745   36.76477   134.4624  
4592.4     18.29965   35.99456   133.1844  
4592.8     17.4598    36.70847   131.2794  
4593.2     15.91371   39.66946   130.5221  
4593.6     13.95897   43.66319   129.1204  
4594       12.39924   51.06344   127.5789  
4594.4     11.4194    60.39893   120.6723  
4594.8     11.03946   74.39217   119.371   
4595.2     10.73954   80.5302    105.958   
4595.6     10.61959   87.40254   100.7529  
4596       10.61963   90.29277   99.51431  
4596.4     10.59967   90.07761   98.20587  
4596.8     10.61971   87.38011   98.27234  
4597.2     10.61974   82.31595   98.54904  
