~Version
 VERS              .         3.0                           : CWLS LOG ASCII STANDARD - VERSION 3.0
 WRAP              .         NO                            : ONE LINE PER DEPTH STEP
 DLM               .         SPACE                         : DELIMITING CHARACTER(SPACE TAB OR COMMA)
~Well Information
#_______________________________________________________________________________
#
#PARAMETER_NAME    .UNIT     VALUE                         : DESCRIPTION
#_______________________________________________________________________________
STRT               .ft       3360                          : First reference value
STOP               .ft       6444                          : Last reference value
STEP               .ft       0.4                           : Step increment
NULL               .         -9999                         : Missing value
COMP               .                                       : Company
WELL               .         EGBM-009                      : Well name
FLD                .         WILDCAT                       : Field
LOC                .                                       : Location
SRVC               .                                       : Service Company
CTRY               .                                       : Country
DATE               .                                       : Service Date
X                  .                                       : X or East-West coordinate
Y                  .                                       : Y or North South coordinate
GDAT               .                                       : Geodetic Datum
HZCS               .                                       : Horizontal Co-ordinate System
CREATION-TIME      .         2000/8/8 0_0                  : 
FIELD-NAME         .         WILDCAT                       : 
FILE-ID            .         SHELL.001                     : 
FILE-NUMBER        .         1                             : 
FILE-SET-NAME      .                                       : 
FILE-SET-NUMBER    .         0                             : 
FILE-TYPE          .         SHELL                         : 
NAME-SPACE-NAME    .         LIS                           : 
NAME-SPACE-VERSION .         0                             : 
PRODUCER-CODE      .         440                           : 
PRODUCER-NAME      .         Schlumberger                  : 
PRODUCT            .                                       : 
PROGRAMS           .                                       : 
VERSION            .         REV 2.00                      : 
WELL-NAME          .                                       : 
~Parameter Information Block
#_______________________________________________________________________________
#
#PARAMETER_NAME    .UNIT     VALUE                         : DESCRIPTION
#_______________________________________________________________________________
SET                .         SHELL_001_1                   : 
ACQUISITION-PRODUCT .         DLIS/U                        : 
CREATION-TIME      .         2026/5/15 11_27               : 
DLIS_FRAME_DIRECTION .         INCREASING                    : 
DLIS_FRAME_NAME    .         1                             : 
DLIS_FRAME_SPACING .0.1_in   48                            : 
FIELD-NAME         .         WILDCAT                       : 
FILE-ID            .         SHELL.001                     : 
FILE-NUMBER        .         1                             : 
FILE-SET-NAME      .         LIS-TO-DLIS-CONVERSION        : 
FILE-SET-NUMBER    .         15217                         : 
FILE-TYPE          .         SHELL                         : 
INDEX-TYPE         .         BOREHOLE-DEPTH                : 
NAME-SPACE-NAME    .                                       : 
NAME-SPACE-VERSION .         0                             : 
OriginalDatasetName .         1                             : 
PRODUCER-CODE      .         440                           : 
PRODUCER-NAME      .         Schlumberger                  : 
PRODUCT            .         DLIS/U                        : 
PROGRAMS           .         LIS-TO-DLIS                   : 
TLFamily_CALM      .         Caliper                       : 
TLFamily_DEPT      .         Measured Depth                : 
TLFamily_GR        .         Gamma Ray                     : 
TLFamily_SON3      .         Compressional Slowness        : 
VERSION            .         0.1                           : 
WELL-NAME          .                                       : 
~Curve Information
#_______________________________________________________________________________
#
#LOGNAME           .UNIT     LOG_ID                        : DESCRIPTION
#_______________________________________________________________________________
DEPT               .ft                                     :  {F}
CALM               .in                                     :  {F}
GR                 .gAPI                                   :  {F}
SON3               .                                       :  {F}
~Ascii
# ...
6344.8     9.380268   110.0891   93.40312  
6345.2     9.594742   110.664    93.40759  
6345.6     9.650076   112.914    92.99498  
6346       9.725279   115.6474   92.19537  
6346.4     9.735994   117.4107   91.7794   
6346.8     9.736025   118.4235   91.40298  
6347.2     9.699903   118.375    91.29671  
6347.6     9.496336   118.8083   91.29718  
6348       9.300852   120.0217   91.27249  
6348.4     9.23666    121.2282   91.29813  
6348.8     9.196726   124.3671   91.5593   
6349.2     9.232624   127.5095   92.05731  
6349.6     9.248148   129.3176   92.49953  
6350       9.256742   131.0453   93.01453  
6350.4     9.251581   131.8692   93.00046  
6350.8     9.078211   131.2708   92.63208  
6351.2     9.057016   130.1884   92.60138  
6351.6     8.957144   129.0509   92.72569  
6352       8.757357   130.9743   93.20401  
6352.4     8.626188   131.275    93.58247  
6352.8     8.398392   132.1752   93.90314  
6353.2     8.07806    132.0254   94.00359  
6353.6     8.257902   131.3667   94.09135  
6354       8.657558   132.535    94.00447  
6354.4     8.977285   135.0659   93.90494  
6354.8     9.177141   136.8487   93.36192  
6355.2     9.11721    137.4723   92.76572  
6355.6     9.048807   135.3846   92.0065   
6356       9.076124   133.9817   91.13496  
6356.4     9.037352   129.0621   90.75864  
6356.8     9.037376   127.6897   90.70805  
6357.2     9.037401   126.3708   90.81238  
6357.6     9.183533   124.2683   91.17244  
6358       9.197315   120.4565   91.46901  
6358.4     9.183092   118.1452   91.6098   
6358.8     9.137415   115.8045   91.71027  
6359.2     9.037521   116.3051   91.91069  
6359.6     8.977594   118.1652   92.3817   
6360       9.197454   121.4029   93.20959  
6360.4     9.209459   123.6214   93.96686  
6360.8     9.257446   126.336    94.52414  
6361.2     9.277456   127.7664   94.62892  
6361.6     9.295935   128.901    94.25258  
6362       9.303455   128.6706   94.03828  
6362.4     9.237566   126.7601   93.61398  
6362.8     9.151995   125.7952   94.00638  
6363.2     9.097721   125.3078   94.95676  
6363.6     9.097746   125.6086   96.26514  
6364       9.097771   126.9307   97.57513  
6364.4     9.097795   127.5535   98.74335  
6364.8     9.09782    127.7101   99.66878  
6365.2     9.097845   126.8118   100.0152  
6365.6     9.057873   126.8128   100.3598  
6366       9.037935   126.2142   101.1156  
6366.4     9.03796    125.9154   101.5159  
6366.8     9.037983   126.6283   101.8162  
6367.2     9.038008   128.3012   102.0165  
6367.6     9.038033   129.9452   102.0169  
6368       8.969446   131.0161   102.2172  
6368.4     8.938143   130.0332   102.3175  
6368.8     8.91818    127.363    102.118   
6369.2     8.898214   125.9224   101.9883  
6369.6     8.898239   126.1253   101.619   
6370       8.898262   127.4236   101.7193  
6370.4     8.898285   128.687    101.6197  
6370.8     8.878319   129.8242   101.0137  
6371.2     8.86483    130.4249   99.81354  
6371.6     8.838388   130.4259   97.91833  
6372       8.798433   129.0243   95.851    
6372.4     8.798456   128.9288   94.37544  
6372.8     8.798479   128.9299   92.72807  
6373.2     8.7985     128.9309   90.22783  
6373.6     8.771309   127.742    88.42888  
6374       8.778557   122.6364   78.63432  
6374.4     8.758589   116.7471   73.83577  
6374.8     8.664459   110.332    71.13902  
6375.2     8.618702   105.0929   72.03947  
6375.6     8.618723   102.9571   74.03886  
6376       8.618744   104.4727   81.07803  
6376.4     8.618765   107.7435   92.03078  
6376.8     8.618786   114.1042   94.9435   
6377.2     8.618807   119.5896   97.85071  
6377.6     8.618828   121.4456   99.59262  
6378       8.598858   121.3992   100.66    
6378.4     8.61887    120.5651   101.1277  
6378.8     8.618891   120.767    100.6312  
6379.2     8.618912   122.3442   100.1781  
6379.6     8.618933   123.629    99.67758  
6380       8.618954   126.2703   98.77492  
6380.4     8.618975   128.5185   98.22729  
6380.8     8.618996   129.5502   97.75114  
6381.2     8.599024   127.0442   97.53273  
6381.6     8.560755   123.036    97.96881  
6382       8.409018   115.4267   98.94788  
6382.4     8.368446   111.606    99.42592  
6382.8     8.405384   110.0621   99.8329   
6383.2     8.440773   116.0265   99.14278  
6383.6     8.679123   133.7561   97.78996  
6384       8.859087   152.3511   96.83963  
6384.4     8.779142   158.6974   96.26244  
6384.8     8.679188   180.2909   95.4375   
6385.2     8.679209   195.2866   94.01407  
6385.6     8.693529   203.6847   92.2439   
6386       8.589102   197.2552   89.98195  
6386.4     8.473341   192.5883   88.55086  
6386.8     8.399368   153.2595   88.36957  
6387.2     8.399387   132.5484   89.65654  
6387.6     8.386526   129.0066   91.38243  
6388       8.379431   121.125    92.20708  
6388.4     8.487101   119.6722   94.23195  
6388.8     8.559429   121.2577   94.8428   
6389.2     8.594046   122.9734   95.04402  
6389.6     8.619457   122.424    95.34328  
6390       8.639475   122.0756   95.74326  
6390.4     8.659492   122.3765   97.01599  
6390.8     8.639517   122.9774   97.65807  
6391.2     8.639538   122.3879   97.84964  
6391.6     8.599566   121.7157   97.2058   
6392       8.595984   122.5207   95.8147   
6392.4     8.460751   123.374    94.31094  
6392.8     8.424519   124.4821   93.16713  
6393.2     8.368851   122.1549   92.74947  
6393.6     8.319706   114.8851   93.29845  
6394       8.319725   102.5876   94.66322  
6394.4     8.319744   92.0304    94.85551  
6394.8     8.319761   83.15456   95.33351  
6395.2     8.299784   77.99252   95.71201  
6395.6     8.319799   77.39319   95.84938  
6396       8.319818   83.53297   95.77821  
6396.4     8.319836   87.05058   95.25705  
6396.8     8.319855   95.8611    94.78111  
6397.2     8.319874   103.3508   94.159    
6397.6     8.319893   110.9064   93.83034  
6398       8.319912   119.7021   93.65408  
6398.4     8.319929   127.2126   93.75444  
6398.8     8.319948   131.7896   93.9547   
6399.2     8.324223   133.9354   94.25485  
6399.6     8.35973    132.2989   94.75481  
6400       8.339998   129.5187   95.24487  
6400.4     8.359959   128.6976   95.65475  
6400.8     8.359915   128.1875   95.35545  
6401.2     8.359873   126.7499   94.93094  
6401.6     8.379827   125.3908   94.05313  
6402       8.379784   123.8882   92.84514  
6402.4     8.419737   123.2869   91.95027  
6402.8     8.439692   123.5842   91.76089  
6403.2     8.439646   125.9818   92.60037  
6403.6     8.475039   127.4791   93.84897  
6404       8.459553   138.2757   95.08665  
6404.4     8.412827   151.7693   95.81468  
6404.8     8.377096   153.6205   95.45949  
6405.2     8.32136    159.9748   95.14821  
6405.6     8.245533   157.2945   94.77158  
6406       8.219395   152.6144   94.22885  
6406.4     8.239349   141.7306   93.91759  
6406.8     8.279297   133.507    93.44093  
6407.2     8.25926    125.8123   93.06398  
6407.6     8.25922    116.9587   92.96445  
6408       8.25918    112.758    93.26447  
6408.4     8.239145   110.4964   93.70181  
6408.8     8.239105   108.2564   94.19902  
6409.2     8.239063   108.8549   94.76144  
6409.6     8.239023   110.9523   95.06496  
6410       8.238983   121.1443   95.66484  
6410.4     8.238943   128.0391   96.00008  
6410.8     8.238901   150.6954   94.96606  
6411.2     8.238859   156.9953   94.96646  
6411.6     8.238819   167.6906   94.96687  
6412       8.238779   173.687    95.06721  
6412.4     8.238737   177.5846   94.9677   
6412.8     8.238697   165.2569   94.96809  
6413.2     8.238657   133.7206   94.96851  
6413.6     8.238617   110.631    94.96892  
6414       8.238575   91.778     95.06926  
6414.4     8.238535   86.97325   94.96974  
6414.8     8.238493   82.38599   -9999     
6415.2     8.238453   79.74559   -9999     
6415.6     8.238413   76.92651   -9999     
6416       8.238956   77.04398   -9999     
6416.4     8.258316   77.7453    -9999     
6416.8     8.278259   80.39581   -9999     
6417.2     8.278219   82.99081   -9999     
