~Version
 VERS              .         3.0                           : CWLS LOG ASCII STANDARD - VERSION 3.0
 WRAP              .         NO                            : ONE LINE PER DEPTH STEP
 DLM               .         SPACE                         : DELIMITING CHARACTER(SPACE TAB OR COMMA)
~Well Information
#_______________________________________________________________________________
#
#PARAMETER_NAME    .UNIT     VALUE                         : DESCRIPTION
#_______________________________________________________________________________
STRT               .ft       3360                          : First reference value
STOP               .ft       6444                          : Last reference value
STEP               .ft       0.4                           : Step increment
NULL               .         -9999                         : Missing value
COMP               .                                       : Company
WELL               .         EGBM-009                      : Well name
FLD                .         WILDCAT                       : Field
LOC                .                                       : Location
SRVC               .                                       : Service Company
CTRY               .                                       : Country
DATE               .                                       : Service Date
X                  .                                       : X or East-West coordinate
Y                  .                                       : Y or North South coordinate
GDAT               .                                       : Geodetic Datum
HZCS               .                                       : Horizontal Co-ordinate System
CREATION-TIME      .         2000/8/8 0_0                  : 
FIELD-NAME         .         WILDCAT                       : 
FILE-ID            .         SHELL.001                     : 
FILE-NUMBER        .         1                             : 
FILE-SET-NAME      .                                       : 
FILE-SET-NUMBER    .         0                             : 
FILE-TYPE          .         SHELL                         : 
NAME-SPACE-NAME    .         LIS                           : 
NAME-SPACE-VERSION .         0                             : 
PRODUCER-CODE      .         440                           : 
PRODUCER-NAME      .         Schlumberger                  : 
PRODUCT            .                                       : 
PROGRAMS           .                                       : 
VERSION            .         REV 2.00                      : 
WELL-NAME          .                                       : 
~Parameter Information Block
#_______________________________________________________________________________
#
#PARAMETER_NAME    .UNIT     VALUE                         : DESCRIPTION
#_______________________________________________________________________________
SET                .         SHELL_001_1                   : 
ACQUISITION-PRODUCT .         DLIS/U                        : 
CREATION-TIME      .         2026/5/15 11_27               : 
DLIS_FRAME_DIRECTION .         INCREASING                    : 
DLIS_FRAME_NAME    .         1                             : 
DLIS_FRAME_SPACING .0.1_in   48                            : 
FIELD-NAME         .         WILDCAT                       : 
FILE-ID            .         SHELL.001                     : 
FILE-NUMBER        .         1                             : 
FILE-SET-NAME      .         LIS-TO-DLIS-CONVERSION        : 
FILE-SET-NUMBER    .         15217                         : 
FILE-TYPE          .         SHELL                         : 
INDEX-TYPE         .         BOREHOLE-DEPTH                : 
NAME-SPACE-NAME    .                                       : 
NAME-SPACE-VERSION .         0                             : 
OriginalDatasetName .         1                             : 
PRODUCER-CODE      .         440                           : 
PRODUCER-NAME      .         Schlumberger                  : 
PRODUCT            .         DLIS/U                        : 
PROGRAMS           .         LIS-TO-DLIS                   : 
TLFamily_CALM      .         Caliper                       : 
TLFamily_DEPT      .         Measured Depth                : 
TLFamily_GR        .         Gamma Ray                     : 
TLFamily_SON3      .         Compressional Slowness        : 
VERSION            .         0.1                           : 
WELL-NAME          .                                       : 
~Curve Information
#_______________________________________________________________________________
#
#LOGNAME           .UNIT     LOG_ID                        : DESCRIPTION
#_______________________________________________________________________________
DEPT               .ft                                     :  {F}
CALM               .in                                     :  {F}
GR                 .gAPI                                   :  {F}
SON3               .                                       :  {F}
~Ascii
# ...
5544       8.359999   35.39999   106.6511  
5544.4     8.379999   34.61855   107.281   
5544.8     8.40237    31.2       107.9738  
5545.2     8.417744   29.71639   108.6235  
5545.6     8.42       28.49999   109.131   
5546       8.459999   26.84385   108.681   
5546.4     8.459999   25.79999   108.2751  
5546.8     8.48       24.9       107.052   
5547.2     8.47472    25.2       105.7796  
5547.6     8.48       26.1       104.9537  
5548       8.474503   27.11162   104.8766  
5548.4     8.48       28.19999   104.8782  
5548.8     8.476324   27.6272    105.2782  
5549.2     8.48       27.3       105.9496  
5549.6     8.48       26.99999   106.4784  
5550       8.459999   27.06802   106.8708  
5550.4     8.48       27.29861   106.8095  
5550.8     8.48       26.99999   106.4329  
5551.2     8.48       26.39999   106.0562  
5551.6     8.48       26.0021    105.8772  
5552       8.460232   26.1       106.3293  
5552.4     8.48       26.1       107.5465  
5552.8     8.48       26.39999   109.0261  
5553.2     8.48       26.7       110.2135  
5553.6     8.48       26.99999   110.9755  
5554       8.48       27.6386    110.8323  
5554.4     8.48       26.48386   109.9348  
5554.8     8.48       25.79999   108.3772  
5555.2     8.48       25.41824   106.1089  
5555.6     8.518358   25.2136    104.5803  
5556       8.559999   26.34244   103.695   
5556.4     8.588976   27.17127   103.3737  
5556.8     8.699999   28.19999   103.2808  
5557.2     8.699999   27.89999   103.1732  
5557.6     8.699999   27.3       102.7275  
5558       8.699999   25.59824   102.0317  
5558.4     8.68       25.03465   101.3806  
5558.8     8.68       26.16174   100.8998  
5559.2     8.68       28.48701   100.4707  
5559.6     8.66       30.21121   100.3704  
5560       8.718117   31.93779   100.3708  
5560.4     8.742682   32.7       100.7493  
5560.8     8.859999   32.99999   101.1272  
5561.2     8.873093   32.47046   101.3045  
5561.6     8.9        31.5       101.1699  
5562       8.9        30.2       101.1697  
5562.4     8.9        30.03174   101.1695  
5562.8     8.9        32.26758   101.3121  
5563.2     8.9        36.04889   101.6099  
5563.6     9.014877   38.7       102.1689  
5564       8.980581   38.39999   102.9266  
5564.4     9.02       36.69952   103.7435  
5564.8     9.02       32.87859   104.746   
5565.2     9.02       29.84806   105.3709  
5565.6     9.02       28.02175   105.4708  
5566       9.139999   26.99999   105.2589  
5566.4     9.02       26.44325   104.4794  
5566.8     9.02       25.79999   103.5301  
5567.2     9          26.22069   102.7803  
5567.6     9.02       27.04993   101.9989  
5568       9          29.07398   100.8666  
5568.4     9.010139   29.60441   100.43    
5568.8     9          30.3       100.2602  
5569.2     9          30.3       99.79515  
5569.6     9.02       30.6       100.3635  
5570       8.988138   30.37235   101.0219  
5570.4     9.007233   30         101.5791  
5570.8     9.08       29.39999   102.0661  
5571.2     9.34       28.47262   102.5579  
5571.6     9.571487   27.03543   102.4254  
5572       9.48       26.7       102.0492  
5572.4     9.426252   26.22942   101.7725  
5572.8     8.98       26.7       101.5647  
5573.2     8.699999   27.3       101.9648  
5573.6     8.559999   27.3       102.5166  
5574       8.559999   28.19999   103.0794  
5574.4     8.539999   29.17534   103.9506  
5574.8     8.539999   29.69999   103.9272  
5575.2     8.539999   30         104.1262  
5575.6     8.539999   30         103.4505  
5576       8.519999   30         102.9643  
5576.4     8.48       30.3       102.4989  
5576.8     8.459999   31.15734   102.6637  
5577.2     8.439999   31.8       102.6635  
5577.6     8.42       31.5621    102.6633  
5578       8.4        30.6       102.5898  
5578.4     8.42       29.71192   102.3128  
5578.8     8.42       29.39999   102.0364  
5579.2     8.42       30.1493    101.7588  
5579.6     8.416162   30.97769   101.4614  
5580       8.379999   31.8       101.7169  
5580.4     8.4        34.72709   101.9949  
5580.8     8.430058   41.13545   102.4616  
5581.2     8.510635   48         102.9618  
5581.6     8.640116   72.78172   103.462   
5582       8.699999   94.2       103.116   
5582.4     8.91       108        102.918   
5582.8     9.025      113.8507   101.7848  
5583.2     9.119999   118.2814   101.2192  
5583.6     9.119999   121.4161   100.5587  
5584       9.119999   124.1379   100.6586  
5584.4     9.119999   126.5018   101.359   
5584.8     9.119999   127.773    102.1594  
5585.2     9.119999   126.072    102.8598  
5585.6     9.119999   122.678    102.8596  
5586       9.119999   120.0035   102.3457  
5586.4     9.119999   117.5124   101.9813  
5586.8     9.119999   116.7      101.394   
5587.2     9.119999   118.4455   101.1574  
5587.6     9.119999   120.7679   101.3934  
5588       9.119999   123.4758   102.7555  
5588.4     9.119999   127.5114   104.1232  
5588.8     9.02       130.2      105.992   
5589.2     9.119999   129.2838   108.0639  
5589.6     9.02       125.6922   108.7934  
5590       9.017443   120.3337   108.4568  
5590.4     9          114.2829   108.0621  
5590.8     9.033302   109.3747   107.0138  
5591.2     9.097017   102.7411   105.2087  
5591.6     9.52       93.55249   103.9603  
5592       10.24      80.7       102.4125  
5592.4     10.9       66.29999   102.1558  
5592.8     12.3       59.09999   102.4398  
5593.2     12.92642   46.9085    103.263   
5593.6     13.94      39.89999   104.513   
5594       14.15034   36.34763   106.131   
5594.4     14.2717    33.67333   106.7547  
5594.8     14.28      32.83965   107.1594  
5595.2     14.26      32.79295   107.1592  
5595.6     14.24      33.6       106.9588  
5596       14.4       34.1497    105.9519  
5596.4     14.62719   34.97825   105.2298  
5596.8     14.56      35.09999   104.5546  
5597.2     13.94      34.49999   104.1554  
5597.6     13.14      33.3214    104.7121  
5598       12.78      31.8       105.2562  
5598.4     11.3       30.44701   106.4572  
5598.8     10.32346   29.21964   106.2691  
5599.2     9.569885   28.49999   104.8941  
5599.6     9.139999   28.70913   103.0484  
5600       8.851416   29.10006   101.4357  
5600.4     8.780079   29.51841   100.4907  
5600.8     8.82016    31.24696   100.05    
5601.2     9.00024    32.67848   100.05    
5601.6     9.22032    32.7048    100.3503  
5602       9.31566    31.05512   100.9385  
5602.4     9.482088   29.31331   102.4925  
5602.8     9.857647   27.57261   103.8451  
5603.2     10.70065   26.43325   105.7041  
5603.6     11.18074   25.89887   106.3564  
5604       11.41103   25.512     105.3553  
5604.4     11.52088   25.2132    104.6938  
5604.8     11.54685   26.15047   103.9976  
5605.2     11.50104   27.56258   103.4535  
5605.6     11.52112   28.1568    103.1532  
5606       11.5012    28.70506   102.3972  
5606.4     11.49237   27.2659    101.4314  
5606.8     11.02136   27.0204    99.18976  
5607.2     10.10142   30.86022   97.04865  
5607.6     9.141516   37.28072   95.03381  
5608       8.939835   45.32401   94.64465  
5608.4     8.861679   71.42557   94.36919  
5608.8     8.841761   90.92639   94.64465  
5609.2     8.832592   108.6275   94.84483  
5609.6     8.80192    146.4288   94.90714  
5610       8.801182   149.73     95.83406  
5610.4     8.745447   154.5312   96.47115  
5610.8     8.70216    147.5145   97.24725  
5611.2     8.68224    143.0522   97.63394  
5611.6     8.662319   136.6152   98.48354  
5612       8.662052   132.711    99.04904  
5612.4     8.68248    126.9876   99.64964  
5612.8     8.733303   122.1652   100.1684  
5613.2     8.841507   118.2755   101.1168  
5613.6     8.922718   115.5753   102.4758  
5614       8.965858   116.7071   104.8548  
5614.4     9.022881   118.1371   106.2377  
5614.8     8.98296    118.5444   108.5195  
5615.2     9.00683    114.7917   110.4129  
5615.6     9.203119   110.3526   111.5613  
5616       9.228964   107.148    111.1305  
5616.4     9.203279   109.658    110.5606  
