~Version
 VERS              .         3.0                           : CWLS LOG ASCII STANDARD - VERSION 3.0
 WRAP              .         NO                            : ONE LINE PER DEPTH STEP
 DLM               .         SPACE                         : DELIMITING CHARACTER(SPACE TAB OR COMMA)
~Well Information
#_______________________________________________________________________________
#
#PARAMETER_NAME    .UNIT     VALUE                         : DESCRIPTION
#_______________________________________________________________________________
STRT               .ft       3360                          : First reference value
STOP               .ft       6444                          : Last reference value
STEP               .ft       0.4                           : Step increment
NULL               .         -9999                         : Missing value
COMP               .                                       : Company
WELL               .         EGBM-009                      : Well name
FLD                .         WILDCAT                       : Field
LOC                .                                       : Location
SRVC               .                                       : Service Company
CTRY               .                                       : Country
DATE               .                                       : Service Date
X                  .                                       : X or East-West coordinate
Y                  .                                       : Y or North South coordinate
GDAT               .                                       : Geodetic Datum
HZCS               .                                       : Horizontal Co-ordinate System
CREATION-TIME      .         2000/8/8 0_0                  : 
FIELD-NAME         .         WILDCAT                       : 
FILE-ID            .         SHELL.001                     : 
FILE-NUMBER        .         1                             : 
FILE-SET-NAME      .                                       : 
FILE-SET-NUMBER    .         0                             : 
FILE-TYPE          .         SHELL                         : 
NAME-SPACE-NAME    .         LIS                           : 
NAME-SPACE-VERSION .         0                             : 
PRODUCER-CODE      .         440                           : 
PRODUCER-NAME      .         Schlumberger                  : 
PRODUCT            .                                       : 
PROGRAMS           .                                       : 
VERSION            .         REV 2.00                      : 
WELL-NAME          .                                       : 
~Parameter Information Block
#_______________________________________________________________________________
#
#PARAMETER_NAME    .UNIT     VALUE                         : DESCRIPTION
#_______________________________________________________________________________
SET                .         SHELL_001_1                   : 
ACQUISITION-PRODUCT .         DLIS/U                        : 
CREATION-TIME      .         2026/5/15 11_27               : 
DLIS_FRAME_DIRECTION .         INCREASING                    : 
DLIS_FRAME_NAME    .         1                             : 
DLIS_FRAME_SPACING .0.1_in   48                            : 
FIELD-NAME         .         WILDCAT                       : 
FILE-ID            .         SHELL.001                     : 
FILE-NUMBER        .         1                             : 
FILE-SET-NAME      .         LIS-TO-DLIS-CONVERSION        : 
FILE-SET-NUMBER    .         15217                         : 
FILE-TYPE          .         SHELL                         : 
INDEX-TYPE         .         BOREHOLE-DEPTH                : 
NAME-SPACE-NAME    .                                       : 
NAME-SPACE-VERSION .         0                             : 
OriginalDatasetName .         1                             : 
PRODUCER-CODE      .         440                           : 
PRODUCER-NAME      .         Schlumberger                  : 
PRODUCT            .         DLIS/U                        : 
PROGRAMS           .         LIS-TO-DLIS                   : 
TLFamily_CALM      .         Caliper                       : 
TLFamily_DEPT      .         Measured Depth                : 
TLFamily_GR        .         Gamma Ray                     : 
TLFamily_SON3      .         Compressional Slowness        : 
VERSION            .         0.1                           : 
WELL-NAME          .                                       : 
~Curve Information
#_______________________________________________________________________________
#
#LOGNAME           .UNIT     LOG_ID                        : DESCRIPTION
#_______________________________________________________________________________
DEPT               .ft                                     :  {F}
CALM               .in                                     :  {F}
GR                 .gAPI                                   :  {F}
SON3               .                                       :  {F}
~Ascii
# ...
4160.8     12.10474   34.40942   114.5981  
4161.2     12.02486   32.43501   115.0765  
4161.6     11.90505   31.34619   115.2     
4162       11.8955    31.04752   115.1     
4162.4     12.54432   30.14959   115.1     
4162.8     12.80561   29.85092   115.6447  
4163.2     12.96383   30.75074   117.1293  
4163.6     13.02379   32.34525   118.3     
4164       13.02381   35.57418   118.8     
4164.4     13.24044   37.81673   119       
4164.8     13.27571   39.28158   119.6523  
4165.2     13.45025   40.343     120.9187  
4165.6     13.4656    40.02187   123.2727  
4166       13.48332   39.49004   125.3801  
4166.4     13.50331   38.54802   127.2925  
4166.8     13.4748    38.96905   126.2623  
4167.2     13.37913   40.44242   124.1121  
4167.6     13.14307   42.94957   119.4     
4168       12.76441   44.6313    114.9     
4168.4     12.24991   46.45971   114.3     
4168.8     12.19432   46.84595   112.5181  
4169.2     12.18528   45.47433   112.2     
4169.6     12.22525   43.64809   112.5951  
4170       12.22528   42.5909    113.7208  
4170.4     12.24529   41.05109   114.7037  
4170.8     12.26529   41.87823   115.5199  
4171.2     12.17464   42.70675   115.7928  
4171.6     12.10558   42.75359   115.7     
4172       12.02572   41.61327   115.8238  
4172.4     12.03621   39.99958   116.7194  
4172.8     12.26544   39.16139   118.4325  
4173.2     12.40517   39.16228   119.5974  
4173.6     12.4652    38.86361   120.6753  
4174       12.51548   38.17278   119.8451  
4174.4     12.62502   37.33955   118.8884  
4174.8     12.66559   36.76941   117.3851  
4175.2     12.74067   37.66896   115.8828  
4175.6     12.71629   39.39759   115.3     
4176       12.75157   41.3036    115.233   
4176.4     12.80488   42.72904   115.3     
4176.8     12.82209   43.06426   115.877   
4177.2     12.8249    43.36465   116.466   
4177.6     12.88483   44.26411   116.6435  
4178       13.04726   45.44359   116.9     
4178.4     13.20183   46.271     117.1983  
4178.8     13.26431   46.52399   118.0285  
4179.2     13.26433   45.99187   118.7     
4179.6     13.25259   45.47271   119.1     
4180       13.22444   46.36583   118.5828  
4180.4     13.14459   46.53244   118.0151  
4180.8     13.12465   46.87135   117.0777  
4181.2     13.12467   44.87056   116.1625  
4181.6     13.12469   41.63659   115.7     
4182       13.10475   39.42066   116.2923  
4182.4     13.10477   36.92477   117.1405  
4182.8     13.08483   35.88898   117.9963  
4183.2     13.08485   36.81348   118.726   
4183.6     13.00606   39.3271    118.4967  
4184       12.6097    42.67687   117.6     
4184.4     11.78711   45.35028   117       
4184.8     10.96855   46.9859    116.7341  
4185.2     11.0085    46.78971   116.8103  
4185.6     10.87349   45.17947   117.7663  
4186       10.86883   45.59123   118.8995  
4186.4     10.88883   45.8633    120.5457  
4186.8     10.88887   50.68886   120.033   
4187.2     10.84896   59.12973   118.4084  
4187.6     10.63255   63.75109   115.9639  
4188       10.2102    74.23311   114.2593  
4188.4     10.15469   81.91313   113.1     
4188.8     10.03913   88.96182   113.8037  
4189.2     9.997124   95.65625   114.58    
4189.6     10.0307    100.8137   115.1842  
4190       10.05071   102.9845   114.3658  
4190.4     10.26275   99.56322   109.3     
4190.8     10.35739   93.70937   105.6     
4191.2     10.51001   86.11652   101.787   
4191.6     10.62715   78.4382    101.4     
4192       10.70974   73.62184   102.3494  
4192.4     10.88944   66.65591   104       
4192.8     10.98929   61.92793   105.7651  
4193.2     11.0946    57.94678   106.9     
4193.6     11.14151   53.92334   108.123   
4194       11.18904   51.42464   107.9     
4194.4     11.16912   49.83106   106.8239  
4194.8     11.01514   48.79192   106.4     
4195.2     11.04943   49.09216   106.159   
4195.6     10.98958   49.13714   106.8     
4196       11.03498   48.11166   109.7     
4196.4     11.06951   47.17182   116.1     
4196.8     11.22924   46.57884   118.7063  
4197.2     11.54865   46.10201   121.1     
4197.6     11.88804   46.70168   121.5     
4198       11.96898   47.75114   121.3     
4198.4     11.90805   48.49979   120.5384  
4198.8     11.85797   49.39882   119.6621  
4199.2     11.85395   49.69903   119.1553  
4199.6     11.88819   49.69983   118.1442  
4200       11.94428   48.99876   118.3     
4200.4     12.46717   48.50418   119.4996  
4200.8     12.84648   46.45467   120.6508  
4201.2     13.20078   43.79591   121.721   
4201.6     13.23864   41.30042   122.6813  
4202       13.07737   40.63011   123.3195  
4202.4     12.49416   40.12694   124.1976  
4202.8     12.06839   40.68587   124.6972  
4203.2     11.4697    41.02754   124.3024  
4203.6     11.48681   41.32814   123.355   
4204       11.5497    43.16872   121.4803  
4204.4     11.07075   44.53103   119.1523  
4204.8     10.61174   46.5075    117.9973  
4205.2     10.58221   48.63414   119.3243  
4205.6     10.51206   49.46231   121.588   
4206       11.01118   49.41916   124.0858  
4206.4     11.23082   48.6112    126.7276  
4206.8     11.2523    47.32574   127.7932  
4207.2     11.31082   46.12934   127.7198  
4207.6     11.33483   45.83114   127.9923  
4208       11.37815   46.07951   128.0922  
4208.4     11.43082   46.31048   126.9915  
4208.8     11.22439   47.64352   125.2279  
4209.2     10.97188   51.56465   123.2887  
4209.6     10.55282   57.23149   121.1663  
4210       10.37326   62.00587   120.3975  
4210.4     10.27355   72.60954   120.7751  
4210.8     10.2517    78.29581   121.9176  
4211.2     10.25373   82.82835   122.2888  
4211.6     10.25381   85.1402    122.6884  
4212       10.25389   85.65974   122.194   
4212.4     10.25233   84.82712   121.7136  
4212.8     10.23409   85.40508   121.5361  
4213.2     10.22163   88.54044   121.0587  
4213.6     10.23425   93.15999   120.2776  
4214       10.21437   97.86046   119.1439  
4214.4     10.23441   104.2346   117.5726  
4214.8     10.25445   108.4275   116.3868  
4215.2     10.25453   106.9867   115.6757  
4215.6     10.25461   104.9253   115.4844  
4216       10.25469   104.2395   115.7482  
4216.4     10.25477   104.3194   115.9255  
4216.8     10.25485   106.0425   116.0832  
4217.2     10.25493   107.5365   116.0828  
4217.6     10.25504   106.4754   115.9824  
4218       10.25509   104.4271   116.034   
4218.4     10.27513   100.2493   116.3115  
4218.8     10.27521   98.85867   116.7889  
4219.2     10.29525   101.1136   117.1665  
4219.6     10.35437   103.6514   117.2804  
4220       10.39521   113.234    117.4209  
4220.4     10.40504   118.9234   117.8983  
4220.8     10.43529   121.3364   118.8728  
4221.2     10.43537   124.0928   119.9315  
4221.6     10.45541   125.5186   120.8428  
4222       10.47545   125.515    121.311   
4222.4     10.50213   124.9174   121.2671  
4222.8     10.57541   124.3197   120.4904  
4223.2     10.59545   123.3835   119.6499  
4223.6     10.65541   123.9591   119.2169  
4224       10.69541   126.3091   119.176   
4224.4     10.71545   128.3311   119.6637  
4224.8     10.71553   129.4559   120.049   
4225.2     10.71561   129.7162   120.2748  
4225.6     10.71569   128.6114   119.8174  
4226       10.71577   131.1316   118.2464  
4226.4     10.71585   135.7075   115.3074  
4226.8     10.71593   151.3132   112.1631  
4227.2     10.71601   155.5512   109.9729  
4227.6     10.71609   163.038    108.774   
4228       10.71617   170.3489   110.0967  
4228.4     10.71625   167.2768   112.3998  
4228.8     10.69637   153.6786   115.4119  
4229.2     10.67649   145.8958   117.8339  
4229.6     10.75644   121.1992   119.4704  
4230       11.01597   96.79651   118.4701  
4230.4     11.07593   71.94711   116.5612  
4230.8     11.63492   58.17169   115.3799  
4231.2     12.35355   48.2491    114.4627  
4231.6     13.0123    39.69255   113.8854  
4232       13.17207   33.92757   113.2895  
4232.4     13.41258   30.29797   112.6315  
4232.8     13.49158   29.14011   112.9081  
4233.2     13.71122   29.644     113.643   
