~Version
 VERS              .         3.0                           : CWLS LOG ASCII STANDARD - VERSION 3.0
 WRAP              .         NO                            : ONE LINE PER DEPTH STEP
 DLM               .         SPACE                         : DELIMITING CHARACTER(SPACE TAB OR COMMA)
~Well Information
#_______________________________________________________________________________
#
#PARAMETER_NAME    .UNIT     VALUE                         : DESCRIPTION
#_______________________________________________________________________________
STRT               .ft       3360                          : First reference value
STOP               .ft       6444                          : Last reference value
STEP               .ft       0.4                           : Step increment
NULL               .         -9999                         : Missing value
COMP               .                                       : Company
WELL               .         EGBM-009                      : Well name
FLD                .         WILDCAT                       : Field
LOC                .                                       : Location
SRVC               .                                       : Service Company
CTRY               .                                       : Country
DATE               .                                       : Service Date
X                  .                                       : X or East-West coordinate
Y                  .                                       : Y or North South coordinate
GDAT               .                                       : Geodetic Datum
HZCS               .                                       : Horizontal Co-ordinate System
CREATION-TIME      .         2000/8/8 0_0                  : 
FIELD-NAME         .         WILDCAT                       : 
FILE-ID            .         SHELL.001                     : 
FILE-NUMBER        .         1                             : 
FILE-SET-NAME      .                                       : 
FILE-SET-NUMBER    .         0                             : 
FILE-TYPE          .         SHELL                         : 
NAME-SPACE-NAME    .         LIS                           : 
NAME-SPACE-VERSION .         0                             : 
PRODUCER-CODE      .         440                           : 
PRODUCER-NAME      .         Schlumberger                  : 
PRODUCT            .                                       : 
PROGRAMS           .                                       : 
VERSION            .         REV 2.00                      : 
WELL-NAME          .                                       : 
~Parameter Information Block
#_______________________________________________________________________________
#
#PARAMETER_NAME    .UNIT     VALUE                         : DESCRIPTION
#_______________________________________________________________________________
SET                .         SHELL_001_1                   : 
ACQUISITION-PRODUCT .         DLIS/U                        : 
CREATION-TIME      .         2026/5/15 11_27               : 
DLIS_FRAME_DIRECTION .         INCREASING                    : 
DLIS_FRAME_NAME    .         1                             : 
DLIS_FRAME_SPACING .0.1_in   48                            : 
FIELD-NAME         .         WILDCAT                       : 
FILE-ID            .         SHELL.001                     : 
FILE-NUMBER        .         1                             : 
FILE-SET-NAME      .         LIS-TO-DLIS-CONVERSION        : 
FILE-SET-NUMBER    .         15217                         : 
FILE-TYPE          .         SHELL                         : 
INDEX-TYPE         .         BOREHOLE-DEPTH                : 
NAME-SPACE-NAME    .                                       : 
NAME-SPACE-VERSION .         0                             : 
OriginalDatasetName .         1                             : 
PRODUCER-CODE      .         440                           : 
PRODUCER-NAME      .         Schlumberger                  : 
PRODUCT            .         DLIS/U                        : 
PROGRAMS           .         LIS-TO-DLIS                   : 
TLFamily_CALM      .         Caliper                       : 
TLFamily_DEPT      .         Measured Depth                : 
TLFamily_GR        .         Gamma Ray                     : 
TLFamily_SON3      .         Compressional Slowness        : 
VERSION            .         0.1                           : 
WELL-NAME          .                                       : 
~Curve Information
#_______________________________________________________________________________
#
#LOGNAME           .UNIT     LOG_ID                        : DESCRIPTION
#_______________________________________________________________________________
DEPT               .ft                                     :  {F}
CALM               .in                                     :  {F}
GR                 .gAPI                                   :  {F}
SON3               .                                       :  {F}
~Ascii
# ...
4379.2     19.02978   32.27306   126.0938  
4379.6     19.02624   31.67545   124.5595  
4380       18.71055   31.97605   120.52    
4380.4     17.3334    32.89827   118.5208  
4380.8     16.83449   33.95227   116.9094  
4381.2     16.8875    36.19753   117.4509  
4381.6     17.09241   38.20699   120.1855  
4382       18.93051   39.16766   124.3181  
4382.4     19.96619   38.06214   126.1447  
4382.8     20.16822   35.78365   125.7135  
4383.2     19.64936   33.79533   123.4967  
4383.6     18.91089   33.18443   118.2163  
4384       15.81717   37.49081   114.4161  
4384.4     13.32223   40.54797   112.3412  
4384.8     11.72554   46.50044   113.8399  
4385.2     11.30187   52.62906   118.9147  
4385.6     11.24627   57.11568   121.8807  
4386       11.18683   60.76148   124.0559  
4386.4     11.0871    63.0654    122.6057  
4386.8     10.94746   67.46616   121.0133  
4387.2     10.92758   72.41676   111.3127  
4387.6     10.9077    72.98993   108.6888  
4388       10.76219   71.43289   106.6706  
4388.4     10.76814   68.43166   105.9239  
4388.8     10.76822   61.53694   106.0419  
4389.2     10.82818   57.49941   106.3783  
4389.6     10.96802   55.35809   106.9558  
4390       11.10777   51.26699   108.81    
4390.4     11.4871    48.80629   111.0283  
4390.8     12.46527   41.90288   113.2935  
4391.2     12.90441   33.84896   115.2009  
4391.6     13.36359   27.41879   116.3083  
4392       13.56397   25.08228   115.1522  
4392.4     13.40368   23.94827   113.5076  
4392.8     12.70515   27.22602   112.2672  
4393.2     12.23737   31.46632   112.2009  
4393.6     12.50571   35.73898   112.9317  
4394       12.98487   40.18793   113.3088  
4394.4     12.90508   43.72784   113.3451  
4394.8     12.54586   46.94675   111.9791  
4395.2     11.84735   49.69389   110.1783  
4395.6     11.38834   51.18443   108.6965  
4396       11.1489    50.71716   107.904   
4396.4     11.00926   50.48587   108.3036  
4396.8     11.0293    50.28929   108.9434  
4397.2     11.02689   48.51839   109.6212  
4397.6     11.10928   47.38445   110.3949  
4398       11.39118   46.4012    111.1247  
4398.4     11.62717   46.18655   111.5495  
4398.8     11.74747   47.3018    111.731   
4399.2     11.77415   47.90179   112.2008  
4399.6     11.82826   49.10059   112.7561  
4400       11.8483    50.99359   113.1631  
4400.4     11.8883    52.41729   113.681   
4400.8     11.88838   53.84137   114.718   
4401.2     12.00822   55.09341   115.4951  
4401.6     12.10811   54.99014   115.7507  
4402       12.29486   54.41952   114.5497  
4402.4     12.4875    51.82457   112.523   
4402.8     12.48759   50.90659   109.2971  
4403.2     12.48766   51.79212   107.0311  
4403.6     12.5201    53.00479   105.8964  
4404       12.7074    52.69653   106.5303  
4404.4     13.02684   50.31287   108.0956  
4404.8     13.44604   45.54519   111.3228  
4405.2     14.20237   40.60239   113.7555  
4405.6     14.38776   36.9616    116.4216  
4406       14.36728   35.0479    117.494   
4406.4     14.34459   34.74969   115.6952  
4406.8     14.29654   35.53978   112.9823  
4407.2     14.22499   36.66535   110.0136  
4407.6     13.88573   37.7473    107.4925  
4408       13.28856   38.0479    106.392   
4408.4     13.1759    38.14449   106.2917  
4408.8     13.19699   36.71035   106.9945  
4409.2     13.48535   34.59464   107.5777  
4409.6     13.98794   32.29612   109.2143  
4410       14.22554   30.90701   110.4493  
4410.4     14.44518   29.07305   111.7845  
4410.8     14.80453   29.07425   112.9757  
4411.2     15.18386   29.07545   113.8314  
4411.6     15.53065   28.47784   114.3877  
4412       15.78285   28.32476   114.388   
4412.4     15.90267   26.21614   114.1876  
4412.8     15.90278   25.48743   114.1872  
4413.2     15.82299   25.18922   114.5013  
4413.6     15.86299   25.19041   115.2571  
4414       15.92088   25.89559   116.3771  
4414.4     15.88965   25.19281   118.1139  
4414.8     15.79419   27.04333   119.3064  
4415.2     15.26452   30.17215   119.4848  
4415.6     14.7656    35.66864   118.5151  
4416       14.31652   43.39333   117.034   
4416.4     13.28867   52.52085   111.3834  
4416.8     11.91157   63.54166   108.8833  
4417.2     11.27286   75.13361   106.1828  
4417.6     10.79393   84.5363    104.6824  
4418       10.68547   93.19525   104.5819  
4418.4     10.63441   99.5141    104.9769  
4418.8     10.63449   103.2826   105.2562  
4419.2     10.63457   104.2491   105.5807  
4419.6     10.63465   104.2503   106.4804  
4420       10.63473   103.9296   106.8881  
4420.4     10.63481   103.0983   107.5796  
4420.8     10.69263   101.6656   107.8792  
4421.2     10.63497   99.32895   107.439   
4421.6     10.63505   97.59619   106.7463  
4422       10.6265    96.77246   105.6943  
4422.4     10.61525   96.77365   104.9095  
4422.8     10.61533   97.37364   105.0676  
4423.2     10.59545   97.37485   106.8991  
4423.6     10.59553   97.07664   109.6077  
4424       10.54965   97.93427   112.3877  
4424.4     10.53581   98.57603   114.6924  
4424.8     10.60889   98.34335   115.5319  
4425.2     10.71561   93.50772   114.0013  
4425.6     10.93524   85.40598   111.903   
4426       11.11495   72.17717   110.174   
4426.4     11.17492   65.09187   111.1571  
4426.8     11.73392   56.87022   113.0734  
4427.2     12.80988   50.16118   118.8728  
4427.6     13.92965   45.06713   126.0724  
4428       15.70619   42.36095   131.5718  
4428.4     16.08551   39.54288   132.5716  
4428.8     16.08559   38.70898   129.7712  
4429.2     15.72382   39.83189   121.5652  
4429.6     14.40908   41.99508   118.4705  
4430       13.75048   44.46687   111.8701  
4430.4     12.57291   46.48637   110.649   
4430.8     12.03409   47.61106   110.8692  
4431.2     11.99425   47.0994    110.6988  
4431.6     11.91915   45.60359   110.5684  
4432       11.95447   43.15322   110.768   
4432.4     12.61325   39.96949   111.9677  
4432.8     13.01253   36.48354   113.9028  
4433.2     13.57767   33.43296   115.7518  
4433.6     13.75125   31.23832   117.3479  
4434       13.77126   30.94012   118.3454  
4434.4     13.6915    30.64192   118.8657  
4434.8     13.69158   30.73751   118.7652  
4435.2     13.63177   30.04551   118.3629  
4435.6     13.59193   28.77267   117.5114  
4436       13.47225   28.56126   116.9612  
4436.4     13.46257   29.38653   116.8434  
4436.8     13.40874   31.12608   117.5794  
4437.2     13.25293   35.91962   118.2988  
4437.6     12.77401   45.02303   118.7624  
4438       11.49661   58.7963    118.962   
4438.4     10.55858   76.4623    118.5909  
4438.8     10.1994    88.73906   117.007   
4439.2     10.13958   97.17267   115.8254  
4439.6     10.14826   100.3657   115.1725  
4440       10.17964   101.018    114.86    
4440.4     10.2396    101.0192   115.1036  
4440.8     10.23968   101.5855   117.8618  
4441.2     10.25972   103.3287   121.2019  
4441.6     10.26429   106.922    123.7245  
4442       10.2998    108.0194   125.0282  
4442.4     10.42515   110.6057   125.2099  
4442.8     10.45964   100.4867   122.8571  
4443.2     10.49964   94.0609    119.4568  
4443.6     10.63942   83.24779   115.8908  
4444       11.09859   49.2335    110.2561  
4444.4     13.01487   33.52711   108.7556  
4444.8     13.5738    25.53864   108.755   
4445.2     14.67608   22.06769   109.7393  
4445.6     16.16877   21.394     110.4406  
4446       16.68781   21.82133   110.7708  
4446.4     16.96734   22.2946    109.1675  
4446.8     16.4684    23.47474   107.6148  
4447.2     15.73617   25.1025    105.4209  
4447.6     13.85381   26.91594   103.834   
4448       12.47668   28.93462   102.6636  
4448.4     10.82004   30.65598   101.5437  
4448.8     10.5806    31.78028   100.7063  
4449.2     10.40963   33.49989   100.2296  
4449.6     10.42108   34.57964   99.75056  
4450       10.48856   34.85598   99.27628  
4450.4     10.52104   35.18083   99.34959  
4450.8     10.7378    34.44262   99.54913  
4451.2     10.98028   33.00959   99.8544   
4451.6     11.01378   31.86002   100.2484  
