~Version
 VERS              .         3.0                           : CWLS LOG ASCII STANDARD - VERSION 3.0
 WRAP              .         NO                            : ONE LINE PER DEPTH STEP
 DLM               .         SPACE                         : DELIMITING CHARACTER(SPACE TAB OR COMMA)
~Well Information
#_______________________________________________________________________________
#
#PARAMETER_NAME    .UNIT     VALUE                         : DESCRIPTION
#_______________________________________________________________________________
STRT               .ft       3360                          : First reference value
STOP               .ft       6444                          : Last reference value
STEP               .ft       0.4                           : Step increment
NULL               .         -9999                         : Missing value
COMP               .                                       : Company
WELL               .         EGBM-009                      : Well name
FLD                .         WILDCAT                       : Field
LOC                .                                       : Location
SRVC               .                                       : Service Company
CTRY               .                                       : Country
DATE               .                                       : Service Date
X                  .                                       : X or East-West coordinate
Y                  .                                       : Y or North South coordinate
GDAT               .                                       : Geodetic Datum
HZCS               .                                       : Horizontal Co-ordinate System
CREATION-TIME      .         2000/8/8 0_0                  : 
FIELD-NAME         .         WILDCAT                       : 
FILE-ID            .         SHELL.001                     : 
FILE-NUMBER        .         1                             : 
FILE-SET-NAME      .                                       : 
FILE-SET-NUMBER    .         0                             : 
FILE-TYPE          .         SHELL                         : 
NAME-SPACE-NAME    .         LIS                           : 
NAME-SPACE-VERSION .         0                             : 
PRODUCER-CODE      .         440                           : 
PRODUCER-NAME      .         Schlumberger                  : 
PRODUCT            .                                       : 
PROGRAMS           .                                       : 
VERSION            .         REV 2.00                      : 
WELL-NAME          .                                       : 
~Parameter Information Block
#_______________________________________________________________________________
#
#PARAMETER_NAME    .UNIT     VALUE                         : DESCRIPTION
#_______________________________________________________________________________
SET                .         SHELL_001_1                   : 
ACQUISITION-PRODUCT .         DLIS/U                        : 
CREATION-TIME      .         2026/5/15 11_27               : 
DLIS_FRAME_DIRECTION .         INCREASING                    : 
DLIS_FRAME_NAME    .         1                             : 
DLIS_FRAME_SPACING .0.1_in   48                            : 
FIELD-NAME         .         WILDCAT                       : 
FILE-ID            .         SHELL.001                     : 
FILE-NUMBER        .         1                             : 
FILE-SET-NAME      .         LIS-TO-DLIS-CONVERSION        : 
FILE-SET-NUMBER    .         15217                         : 
FILE-TYPE          .         SHELL                         : 
INDEX-TYPE         .         BOREHOLE-DEPTH                : 
NAME-SPACE-NAME    .                                       : 
NAME-SPACE-VERSION .         0                             : 
OriginalDatasetName .         1                             : 
PRODUCER-CODE      .         440                           : 
PRODUCER-NAME      .         Schlumberger                  : 
PRODUCT            .         DLIS/U                        : 
PROGRAMS           .         LIS-TO-DLIS                   : 
TLFamily_CALM      .         Caliper                       : 
TLFamily_DEPT      .         Measured Depth                : 
TLFamily_GR        .         Gamma Ray                     : 
TLFamily_SON3      .         Compressional Slowness        : 
VERSION            .         0.1                           : 
WELL-NAME          .                                       : 
~Curve Information
#_______________________________________________________________________________
#
#LOGNAME           .UNIT     LOG_ID                        : DESCRIPTION
#_______________________________________________________________________________
DEPT               .ft                                     :  {F}
CALM               .in                                     :  {F}
GR                 .gAPI                                   :  {F}
SON3               .                                       :  {F}
~Ascii
# ...
6126.4     8.47505    129.568    91.29315  
6126.8     8.47505    131.4371   92.00212  
6127.2     8.49501    132.0359   92.75867  
6127.6     8.514971   132.0359   93.22916  
6128       8.514971   133.7784   93.24324  
6128.4     8.57383    134.3079   93.00253  
6128.8     8.614771   136.6303   92.74275  
6129.2     8.614771   138.6228   92.84283  
6129.6     8.634731   138.9221   93.01599  
6130       8.634731   137.8296   93.19377  
6130.4     8.634731   136.2721   93.24324  
6130.8     8.634731   135.9282   93.3488   
6131.2     8.634731   136.2164   93.82674  
6131.6     8.614771   136.5269   94.70564  
6132       8.59481    137.2737   95.66321  
6132.4     8.541094   137.7245   96.46344  
6132.8     8.49501    138.024    97.04201  
6133.2     8.514971   137.4854   97.24725  
6133.6     8.534931   137.1258   97.09721  
6134       8.534931   137.7245   97.04704  
6134.4     8.534931   138.3533   96.95116  
6134.8     8.534931   140.4192   97.12923  
6135.2     8.532759   147.4586   97.40706  
6135.6     8.534931   152.1264   97.685    
6136       8.55489    154.6276   97.74776  
6136.4     8.603304   159.5808   97.75578  
6136.8     8.654692   152.994    97.37796  
6137.2     8.67465    144.475    96.85376  
6137.6     8.67465    130.708    96.32274  
6138       8.67465    126.3229   95.94537  
6138.4     8.67465    125.4491   95.84584  
6138.8     8.67465    127.0137   96.14613  
6139.2     8.67465    128.4431   96.44644  
6139.6     8.654692   128.4431   96.18411  
6140       8.67465    128.7425   94.94495  
6140.4     8.734531   129.747    93.84384  
6140.8     8.77445    131.7365   91.64105  
6141.2     8.77445    133.2335   90.17366  
6141.6     8.77445    132.9341   89.33934  
6142       8.77445    133.613    88.76801  
6142.4     8.77445    133.533    89.33934  
6142.8     8.77445    135.0299   90.74074  
6143.2     8.77445    135.0299   93.35457  
6143.6     8.794411   132.6911   95.30214  
6144       8.794411   128.0142   96.10809  
6144.4     8.954092   125.1497   96.78644  
6144.8     8.974052   125.4968   96.94695  
6145.2     9.022282   128.9615   96.94695  
6145.6     9.053892   132.9244   96.7748   
6146       9.053892   136.9465   95.99948  
6146.4     9.033932   139.0634   94.86777  
6146.8     9.053892   140.4192   93.23532  
6147.2     9.033932   139.9138   91.34715  
6147.6     9.093813   137.1422   90.24025  
6148       9.110176   133.2335   89.63963  
6148.4     9.105673   130.8223   89.33934  
6148.8     9.113773   129.5892   89.23924  
6149.2     9.09094    130.7158   89.23924  
6149.6     9.033932   133.1492   89.38171  
6150       9.073853   135.9282   89.53954  
6150.4     9.133732   137.3358   89.73694  
6150.8     9.173653   138.1388   90.29047  
6151.2     9.213526   136.4086   91.60136  
6151.6     9.288748   133.8323   94.34435  
6152       9.304089   129.9471   95.6954   
6152.4     9.293413   127.9153   96.92259  
6152.8     9.293413   126.6225   97.31267  
6153.2     9.273453   125.7485   97.20416  
6153.6     9.240793   125.4491   96.70624  
6154       9.253492   125.836    95.94829  
6154.4     9.213573   127.0164   95.27074  
6154.8     9.213573   129.2614   94.79309  
6155.2     9.193613   130.8383   94.54454  
6155.6     9.193613   130.8383   94.34435  
6156       9.193613   130.2395   94.34435  
6156.4     9.213573   129.2087   94.44444  
6156.8     9.213573   127.5449   94.88371  
6157.2     9.253492   126.6457   95.37766  
6157.6     9.273453   125.981    96.1402   
6158       9.273453   127.2455   97.04704  
6158.4     9.213573   130.1104   97.79762  
6158.8     9.133732   132.6441   98.37535  
6159.2     9.073853   132.994    98.85385  
6159.6     9.073853   130.1859   99.13147  
6160       9.093813   123.0539   99.77023  
6160.4     9.093813   122.0976   99.94995  
6160.8     9.106644   121.2575   100.2349  
6161.2     9.113773   122.8889   100.3503  
6161.6     9.133732   125.2913   100.3503  
6162       9.133732   127.7474   100.3032  
6162.4     9.133732   130.5222   100.375   
6162.8     9.133732   131.1377   100.9535  
6163.2     9.133732   130.8383   101.5113  
6163.6     9.133732   129.5553   102.1095  
6164       9.126167   127.8234   102.5877  
6164.4     9.033932   126.9461   102.2523  
6164.8     9.053892   127.8443   101.9748  
6165.2     9.053892   129.8574   101.1179  
6165.6     9.033932   132.101    100.4505  
6166       9.053892   133.8323   100.2503  
6166.4     9.045698   134.4311   100.3503  
6166.8     9.037693   131.3593   100.9272  
6167.2     9.033932   124.473    101.6593  
6167.6     9.033932   118.2151   102.4161  
6168       8.994013   113.9408   103.1625  
6168.4     9.013973   111.8789   103.7404  
6168.8     8.994013   114.028    104.2184  
6169.2     8.994013   118.701    104.4545  
6169.6     8.994013   122.0923   104.593   
6170       8.946388   124.6322   104.7548  
6170.4     8.914171   125.8665   105.0551  
6170.8     8.894211   125.7485   105.5069  
6171.2     8.894211   124.8668   105.8849  
6171.6     8.884033   122.8349   105.956   
6172       8.894211   121.4028   106.1562  
6172.4     8.87425    120.6587   106.3175  
6172.8     8.87425    120.0599   106.4953  
6173.2     8.894211   119.4611   106.7568  
6173.6     9.033932   119.6435   106.5631  
6174       9.093813   121.3665   106.1854  
6174.4     9.148432   123.1238   105.956   
6174.8     9.233534   124.2515   106.2817  
6175.2     9.233534   123.2619   107.0603  
6175.6     9.233534   120.3882   107.7191  
6176       9.234585   118.4193   107.958   
6176.4     9.233534   116.7738   108.1582  
6176.8     9.233534   117.9004   107.958   
6177.2     9.233534   118.8623   107.8578  
6177.6     9.233534   118.9559   107.958   
6178       9.233534   119.4367   108.2032  
6178.4     9.233534   119.117    108.3584  
6178.8     9.233534   121.0187   108.4585  
6179.2     9.233534   123.5561   108.4585  
6179.6     9.213573   125.1205   108.504   
6180       9.193613   124.0256   108.3584  
6180.4     9.193613   123.6527   108.1582  
6180.8     9.193613   122.7545   107.958   
6181.2     9.193613   123.3533   107.694   
6181.6     9.193613   123.3658   107.4575  
6182       9.193613   121.1025   107.1385  
6182.4     9.173653   119.436    106.8569  
6182.8     9.173653   117.2648   106.5566  
6183.2     9.135998   117.0983   106.4565  
6183.6     9.206512   118.7785   106.4565  
6184       9.253492   120.2437   106.6566  
6184.4     9.316877   121.5569   106.9396  
6184.8     9.393213   120.6587   107.2173  
6185.2     9.393213   120.0599   107.6953  
6185.6     9.413174   119.7605   108.1582  
6186       9.413174   119.6021   108.6587  
6186.4     9.413174   119.0882   109.1288  
6186.8     9.413174   116.7406   109.4067  
6187.2     9.413174   114.7707   109.6083  
6187.6     9.413174   114.0719   109.762   
6188       9.413174   115.2695   109.96    
6188.4     9.430952   116.1677   110.1166  
6188.8     9.453094   117.0318   110.2603  
6189.2     9.473053   116.5687   110.2489  
6189.6     9.433134   116.0002   110.0601  
6190       9.413174   116.4671   109.6936  
6190.4     9.357939   117.0558   109.3156  
6190.8     9.282278   119.8813   109.0591  
6191.2     9.273453   123.439    109.0591  
6191.6     9.273453   125.7485   108.8589  
6192       9.273453   124.8661   108.8589  
6192.4     9.286398   123.1323   109.089   
6192.8     9.313374   121.5569   109.5751  
6193.2     9.297289   121.8563   110.0452  
6193.6     9.332499   122.1557   110.2603  
6194       9.333334   121.0039   110.7608  
6194.4     9.333334   119.1888   111.0782  
6194.8     9.333334   116.0339   111.7567  
6195.2     9.333334   113.3985   112.5782  
6195.6     9.333334   112.2755   113.3625  
6196       9.333334   112.0338   114.2177  
6196.4     9.333334   111.3772   114.8691  
6196.8     9.313374   111.0779   115.0651  
6197.2     9.313374   110.1796   114.806   
6197.6     9.313374   109.2814   114.3284  
6198       9.293413   107.6108   113.9506  
6198.4     9.293413   106.5868   113.7638  
6198.8     9.293413   106.8862   113.9322  
