~Version
 VERS              .         3.0                           : CWLS LOG ASCII STANDARD - VERSION 3.0
 WRAP              .         NO                            : ONE LINE PER DEPTH STEP
 DLM               .         SPACE                         : DELIMITING CHARACTER(SPACE TAB OR COMMA)
~Well Information
#_______________________________________________________________________________
#
#PARAMETER_NAME    .UNIT     VALUE                         : DESCRIPTION
#_______________________________________________________________________________
STRT               .ft       3360                          : First reference value
STOP               .ft       6444                          : Last reference value
STEP               .ft       0.4                           : Step increment
NULL               .         -9999                         : Missing value
COMP               .                                       : Company
WELL               .         EGBM-009                      : Well name
FLD                .         WILDCAT                       : Field
LOC                .                                       : Location
SRVC               .                                       : Service Company
CTRY               .                                       : Country
DATE               .                                       : Service Date
X                  .                                       : X or East-West coordinate
Y                  .                                       : Y or North South coordinate
GDAT               .                                       : Geodetic Datum
HZCS               .                                       : Horizontal Co-ordinate System
CREATION-TIME      .         2000/8/8 0_0                  : 
FIELD-NAME         .         WILDCAT                       : 
FILE-ID            .         SHELL.001                     : 
FILE-NUMBER        .         1                             : 
FILE-SET-NAME      .                                       : 
FILE-SET-NUMBER    .         0                             : 
FILE-TYPE          .         SHELL                         : 
NAME-SPACE-NAME    .         LIS                           : 
NAME-SPACE-VERSION .         0                             : 
PRODUCER-CODE      .         440                           : 
PRODUCER-NAME      .         Schlumberger                  : 
PRODUCT            .                                       : 
PROGRAMS           .                                       : 
VERSION            .         REV 2.00                      : 
WELL-NAME          .                                       : 
~Parameter Information Block
#_______________________________________________________________________________
#
#PARAMETER_NAME    .UNIT     VALUE                         : DESCRIPTION
#_______________________________________________________________________________
SET                .         SHELL_001_1                   : 
ACQUISITION-PRODUCT .         DLIS/U                        : 
CREATION-TIME      .         2026/5/15 11_27               : 
DLIS_FRAME_DIRECTION .         INCREASING                    : 
DLIS_FRAME_NAME    .         1                             : 
DLIS_FRAME_SPACING .0.1_in   48                            : 
FIELD-NAME         .         WILDCAT                       : 
FILE-ID            .         SHELL.001                     : 
FILE-NUMBER        .         1                             : 
FILE-SET-NAME      .         LIS-TO-DLIS-CONVERSION        : 
FILE-SET-NUMBER    .         15217                         : 
FILE-TYPE          .         SHELL                         : 
INDEX-TYPE         .         BOREHOLE-DEPTH                : 
NAME-SPACE-NAME    .                                       : 
NAME-SPACE-VERSION .         0                             : 
OriginalDatasetName .         1                             : 
PRODUCER-CODE      .         440                           : 
PRODUCER-NAME      .         Schlumberger                  : 
PRODUCT            .         DLIS/U                        : 
PROGRAMS           .         LIS-TO-DLIS                   : 
TLFamily_CALM      .         Caliper                       : 
TLFamily_DEPT      .         Measured Depth                : 
TLFamily_GR        .         Gamma Ray                     : 
TLFamily_SON3      .         Compressional Slowness        : 
VERSION            .         0.1                           : 
WELL-NAME          .                                       : 
~Curve Information
#_______________________________________________________________________________
#
#LOGNAME           .UNIT     LOG_ID                        : DESCRIPTION
#_______________________________________________________________________________
DEPT               .ft                                     :  {F}
CALM               .in                                     :  {F}
GR                 .gAPI                                   :  {F}
SON3               .                                       :  {F}
~Ascii
# ...
5180       8.710579   95.55301   111.6113  
5180.4     8.710659   95.87886   111.0337  
5180.8     8.710739   98.60852   109.6166  
5181.2     8.710817   103.4514   108.1314  
5181.6     8.710897   106.9162   107.9184  
5182       8.710978   108.8676   109.8658  
5182.4     8.711058   109.8275   113.1584  
5182.8     8.711138   108.0421   115.8544  
5183.2     8.711218   106.0694   119.3933  
5183.6     8.711296   106.8658   120.3063  
5184       8.711376   108.8182   120.2336  
5184.4     8.711456   112.2538   119.9566  
5184.8     8.711536   114.2655   119.7592  
5185.2     8.711617   114.9257   119.5593  
5185.6     8.711697   115.2263   119.4595  
5186       8.711775   118.1652   119.2467  
5186.4     8.711855   118.4432   118.481   
5186.8     8.711935   120.6936   116.7026  
5187.2     8.712015   123.0156   114.0102  
5187.6     8.712095   123.5704   111.515   
5188       8.712175   121.8344   109.7153  
5188.4     8.712255   121.0005   108.9127  
5188.8     8.712336   118.3623   110.3771  
5189.2     8.712416   115.3852   112.9233  
5189.6     8.712494   112.8431   116.5031  
5190       8.712574   112.8443   118.7618  
5190.4     8.712654   113.1449   119.0624  
5190.8     8.712734   114.6497   118.8696  
5191.2     8.712814   116.1413   118.016   
5191.6     8.712894   116.4419   117.2623  
5192       8.732933   115.5922   116.8615  
5192.4     8.733013   114.4585   117.0164  
5192.8     8.733093   114.3497   118.0662  
5193.2     8.733173   113.6898   119.61    
5193.6     8.733253   112.2563   120.7577  
5194       8.713373   114.9521   121.4673  
5194.4     8.733412   115.7091   120.7642  
5194.8     8.733492   118.8598   119.0622  
5195.2     8.752523   121.8447   116.7692  
5195.6     8.733652   122.2076   114.2007  
5196       8.733732   119.4473   111.8594  
5196.4     8.733812   114.8276   109.0045  
5196.8     8.753851   110.433    106.9891  
5197.2     8.753931   106.5457   105.8202  
5197.6     8.754011   106.5479   105.9444  
5198       8.734131   108.0657   107.005   
5198.4     8.734211   110.2963   109.178   
5198.8     8.75222    111.021    110.5356  
5199.2     8.751963   108.9915   111.1607  
5199.6     8.734451   108.3151   110.6169  
5200       8.734524   110.7905   108.9589  
5200.4     8.738997   113.7022   108.1704  
5200.8     8.734486   117.9396   107.2179  
5201.2     8.734358   120.1875   106.9563  
5201.6     8.754261   121.2565   107.3044  
5202       8.734243   119.2978   108.674   
5202.4     8.752596   116.7186   110.6888  
5202.8     8.736998   112.9651   112.5944  
5203.2     8.734068   109.3635   114.9086  
5203.6     8.734011   107.1825   116.9239  
5204       8.733953   110.1799   117.4812  
5204.4     8.753857   113.7495   117.4789  
5204.8     8.733835   117.1835   116.6409  
5205.2     8.733778   118.2601   115.7253  
5205.6     8.733719   116.7627   114.9613  
5206       8.733662   114.3191   114.8399  
5206.4     8.753567   112.0131   114.9956  
5206.8     8.793434   112.4573   115.8458  
5207.2     8.773415   114.4768   117.3425  
5207.6     8.79332    117.6597   119.1789  
5208       8.793261   119.6621   120.7159  
5208.4     8.793203   120.6537   122.2701  
5208.8     8.793146   117.7104   123.4622  
5209.2     8.793089   113.2465   124.2195  
5209.6     8.793032   109.8345   124.3633  
5210       8.792973   109.0193   123.7862  
5210.4     8.792915   108.9735   123.4523  
5210.8     8.772894   110.986    122.4995  
5211.2     8.752871   113.8552   121.278   
5211.6     8.732849   117.2018   119.3381  
5212       8.73279    124.8375   116.7588  
5212.4     8.732733   132.0403   110.453   
5212.8     8.732676   138.5346   108.0506  
5213.2     8.732616   141.9628   106.2487  
5213.6     8.732559   141.3967   106.6802  
5214       8.752466   134.3174   109.4511  
5214.4     8.77704    127.3363   112.4168  
5214.8     8.85211    119.7813   115.6264  
5215.2     8.852123   114.5316   118.0066  
5215.6     8.88265    111.9642   119.8692  
5216       8.917828   113.5704   119.9262  
5216.4     8.931818   115.6898   118.9005  
5216.8     8.931763   119.6478   116.5122  
5217.2     8.97164    124.8802   113.9136  
5217.6     8.964066   129.4788   109.7492  
5218       8.951559   133.2067   106.2462  
5218.4     8.951504   135.0244   98.73975  
5218.8     8.951447   134.8782   92.2343   
5219.2     8.951391   132.0648   84.22762  
5219.6     8.931366   127.3418   83.00482  
5220       8.931309   122.4441   81.42514  
5220.4     8.931253   112.7141   85.32806  
5220.8     8.931196   109.6597   88.83075  
5221.2     8.891203   110.264    93.76134  
5221.6     8.951052   115.6404   97.03693  
5222       8.911058   119.0746   103.8419  
5222.4     8.930971   121.2446   108.1451  
5222.8     8.930914   119.3238   110.4988  
5223.2     9.010736   117.7117   113.2865  
5223.6     9.049326   118.539    114.8424  
5224       9.010624   122.7686   115.1911  
5224.4     9.010569   128.9545   115.0536  
5224.8     9.050451   131.4615   113.978   
5225.2     9.010456   132.0269   112.7525  
5225.6     9.042261   133.6004   111.2524  
5226       9.030315   136.139    109.903   
5226.4     9.03026    139.5435   108.1748  
5226.8     9.189959   137.8216   107.4411  
5227.2     9.669226   130.2288   107.3175  
5227.6     11.76612   111.0562   108.7656  
5228       13.40374   84.99361   111.3454  
5228.4     13.7632    72.41135   114.306   
5228.8     13.86327   60.63161   115.5467  
5229.2     13.96289   52.45036   114.6203  
5229.6     12.90437   50.97338   113.8476  
5230       11.54623   52.57674   107.8405  
5230.4     9.828579   61.32342   103.3732  
5230.8     9.209398   74.20496   100.4332  
5231.2     8.969673   86.4872    98.5334   
5231.6     8.969616   94.92601   98.43321  
5232       8.969561   102.0652   100.296   
5232.4     8.949532   107.8132   101.495   
5232.8     8.949474   111.5421   103.088   
5233.2     8.949419   114.6753   103.5358  
5233.6     8.949364   116.6205   103.6356  
5234       8.949306   119.1511   103.5353  
5234.4     8.949249   120.6385   103.6979  
5234.8     8.949194   122.1568   104.6841  
5235.2     8.949139   121.4424   105.8778  
5235.6     8.949081   118.161    106.936   
5236       8.949024   117.2134   107.7949  
5236.4     8.948969   113.4465   108.8535  
5236.8     8.928938   115.2366   109.7472  
5237.2     8.928881   120.2677   110.2378  
5237.6     8.928823   125.4306   110.2376  
5238       8.928768   126.9286   110.0676  
5238.4     8.928711   126.2009   109.8369  
5238.8     8.928654   121.9811   109.8366  
5239.2     8.928598   116.2513   109.7363  
5239.6     8.948517   110.4621   109.6142  
5240       8.9645     105.9085   108.8271  
5240.4     9.048286   103.9791   107.875   
5240.8     9.088182   103.6637   107.4076  
5241.2     9.215179   106.9318   106.7505  
5241.6     9.327793   111.9961   106.7331  
5242       9.39529    115.8603   106.4952  
5242.4     9.42757    116.6556   106.0183  
5242.8     9.427519   113.9904   105.152   
5243.2     9.427465   111.0763   104.1338  
5243.6     9.427414   111.1443   103.1465  
5244       9.447338   111.0437   102.3944  
5244.4     9.427307   122.131    102.229   
5244.8     9.427256   132.6192   102.5013  
5245.2     9.427202   147.7664   103.08    
5245.6     9.427151   155.2577   103.9591  
5246       9.445208   168.7608   104.747   
5246.4     9.427046   171.5166   105.3163  
5246.8     9.419838   170.4933   106.1606  
5247.2     9.386982   165.2729   106.9743  
5247.6     9.38693    159.1544   107.5523  
5248       9.386877   154.5554   107.331   
5248.4     9.386824   149.1294   106.4789  
5248.8     9.406752   146.3347   105.1272  
5249.2     9.626474   141.0091   103.3764  
5249.6     9.904016   126.6236   101.8252  
5250       10.22576   99.95006   100.9254  
5250.4     10.31742   80.76894   100.5784  
5250.8     10.33213   71.31242   100.625   
5251.2     10.22564   62.50254   100.9334  
5251.6     10.23      58.64667   101.2248  
5252       10.28548   58.79578   100.861   
5252.4     10.18781   53.96754   100.3239  
