~Version
 VERS              .         3.0                           : CWLS LOG ASCII STANDARD - VERSION 3.0
 WRAP              .         NO                            : ONE LINE PER DEPTH STEP
 DLM               .         SPACE                         : DELIMITING CHARACTER(SPACE TAB OR COMMA)
~Well Information
#_______________________________________________________________________________
#
#PARAMETER_NAME    .UNIT     VALUE                         : DESCRIPTION
#_______________________________________________________________________________
STRT               .ft       3360                          : First reference value
STOP               .ft       6444                          : Last reference value
STEP               .ft       0.4                           : Step increment
NULL               .         -9999                         : Missing value
COMP               .                                       : Company
WELL               .         EGBM-009                      : Well name
FLD                .         WILDCAT                       : Field
LOC                .                                       : Location
SRVC               .                                       : Service Company
CTRY               .                                       : Country
DATE               .                                       : Service Date
X                  .                                       : X or East-West coordinate
Y                  .                                       : Y or North South coordinate
GDAT               .                                       : Geodetic Datum
HZCS               .                                       : Horizontal Co-ordinate System
CREATION-TIME      .         2000/8/8 0_0                  : 
FIELD-NAME         .         WILDCAT                       : 
FILE-ID            .         SHELL.001                     : 
FILE-NUMBER        .         1                             : 
FILE-SET-NAME      .                                       : 
FILE-SET-NUMBER    .         0                             : 
FILE-TYPE          .         SHELL                         : 
NAME-SPACE-NAME    .         LIS                           : 
NAME-SPACE-VERSION .         0                             : 
PRODUCER-CODE      .         440                           : 
PRODUCER-NAME      .         Schlumberger                  : 
PRODUCT            .                                       : 
PROGRAMS           .                                       : 
VERSION            .         REV 2.00                      : 
WELL-NAME          .                                       : 
~Parameter Information Block
#_______________________________________________________________________________
#
#PARAMETER_NAME    .UNIT     VALUE                         : DESCRIPTION
#_______________________________________________________________________________
SET                .         SHELL_001_1                   : 
ACQUISITION-PRODUCT .         DLIS/U                        : 
CREATION-TIME      .         2026/5/15 11_27               : 
DLIS_FRAME_DIRECTION .         INCREASING                    : 
DLIS_FRAME_NAME    .         1                             : 
DLIS_FRAME_SPACING .0.1_in   48                            : 
FIELD-NAME         .         WILDCAT                       : 
FILE-ID            .         SHELL.001                     : 
FILE-NUMBER        .         1                             : 
FILE-SET-NAME      .         LIS-TO-DLIS-CONVERSION        : 
FILE-SET-NUMBER    .         15217                         : 
FILE-TYPE          .         SHELL                         : 
INDEX-TYPE         .         BOREHOLE-DEPTH                : 
NAME-SPACE-NAME    .                                       : 
NAME-SPACE-VERSION .         0                             : 
OriginalDatasetName .         1                             : 
PRODUCER-CODE      .         440                           : 
PRODUCER-NAME      .         Schlumberger                  : 
PRODUCT            .         DLIS/U                        : 
PROGRAMS           .         LIS-TO-DLIS                   : 
TLFamily_CALM      .         Caliper                       : 
TLFamily_DEPT      .         Measured Depth                : 
TLFamily_GR        .         Gamma Ray                     : 
TLFamily_SON3      .         Compressional Slowness        : 
VERSION            .         0.1                           : 
WELL-NAME          .                                       : 
~Curve Information
#_______________________________________________________________________________
#
#LOGNAME           .UNIT     LOG_ID                        : DESCRIPTION
#_______________________________________________________________________________
DEPT               .ft                                     :  {F}
CALM               .in                                     :  {F}
GR                 .gAPI                                   :  {F}
SON3               .                                       :  {F}
~Ascii
# ...
3578.4     13.29557   24.1195    126.4259  
3578.8     13.18867   26.95821   128.1177  
3579.2     12.94901   30.31351   129.5629  
3579.6     12.13025   35.58101   130.2065  
3580       11.33147   44.32909   129.0107  
3580.4     10.51274   58.70569   126.8004  
3580.8     9.913666   80.27005   124.3945  
3581.2     9.713959   89.5547    115.6723  
3581.6     9.634071   98.52534   110.4469  
3582       9.654009   101.2337   108.6134  
3582.4     9.653978   96.16698   109.1496  
3582.8     9.702148   90.37675   111.9067  
3583.2     9.813654   85.46156   116.0759  
3583.6     9.853558   81.43279   118.5831  
3584       10.25285   75.10329   120.4891  
3584.4     10.53236   67.7756    119.6791  
3584.8     10.81183   58.78654   119.0326  
3585.2     11.01146   49.52323   118.5854  
3585.6     11.21524   42.87743   119.429   
3586       11.30544   38.25394   120.7136  
3586.4     11.43308   36.20863   121.7982  
3586.8     11.48824   34.53912   122.2978  
3587.2     11.65015   32.04413   122.0405  
3587.6     11.6501    30.57303   122.1338  
3588       11.67002   30.24677   123.2172  
3588.4     11.87688   29.37051   124.3966  
3588.8     12.02931   28.44948   125.2588  
3589.2     12.36864   27.84474   125.5102  
3589.6     12.47925   27.01314   124.5893  
3590       12.56925   27.55042   123.3013  
3590.4     12.60242   27.84966   122.724   
3590.8     12.78767   28.7478    122.103   
3591.2     12.80273   29.04703   121.869   
3591.6     12.74708   28.74734   121.5025  
3592       12.61855   29.34602   121.3141  
3592.4     12.47579   29.34578   121.0022  
3592.8     12.44803   31.07375   120.9025  
3593.2     12.42802   33.04536   120.903   
3593.6     12.42797   34.73499   121.1042  
3594       12.45349   34.6726    121.3827  
3594.4     12.42786   32.93993   121.7627  
3594.8     12.42781   30.67394   122.3439  
3595.2     12.42776   30.24244   123.2408  
3595.6     12.42771   31.23518   124.7971  
3596       12.48754   32.68182   127.4261  
3596.4     12.54737   34.38361   128.8479  
3596.8     12.60985   36.5814    130.1131  
3597.2     12.687     38.62494   130.4368  
3597.6     12.68694   39.85432   129.8482  
3598       12.70685   40.72021   128.5264  
3598.4     12.68684   41.31871   127.5969  
3598.8     12.60648   41.91719   126.1073  
3599.2     12.51114   41.86369   124.9403  
3599.6     12.49854   41.03161   124.0922  
3600       12.50699   38.99988   122.1163  
3600.4     12.50701   37.10849   121.7942  
3600.8     12.7266    35.3312    121.8151  
3601.2     12.97861   34.10229   122.1933  
3601.6     13.18572   32.36989   122.5724  
3602       13.20867   31.94436   122.6169  
3602.4     13.2656    31.14345   122.9522  
3602.8     13.28558   32.77779   124.3051  
3603.2     13.34548   37.69027   126.0174  
3603.6     13.38996   40.56491   127.5374  
3604       13.34542   42.3718    128.2301  
3604.4     13.2258    43.42251   128.2121  
3604.8     13.20585   40.67213   127.0579  
3605.2     13.19283   37.21741   125.7039  
3605.6     13.26577   34.04492   124.922   
3606       13.41511   32.37399   125.3229  
3606.4     13.72484   30.1793    126.012   
3606.8     13.92443   28.72105   127.5521  
3607.2     14.20385   26.71341   128.8962  
3607.6     14.281     25.76737   129.7346  
3608       14.32362   28.16319   129.233   
3608.4     14.33175   28.26001   128.3581  
3608.8     14.40347   29.9389    127.2652  
3609.2     14.54317   31.45892   126.3868  
3609.6     14.67657   31.45987   126.2533  
3610       15.02215   30.10886   127.0198  
3610.4     15.06207   29.95317   127.8482  
3610.8     15.06207   28.22035   128.8833  
3611.2     15.1419    27.0872    129.2999  
3611.6     15.04213   26.25468   128.9133  
3612       14.85827   25.77828   128.3282  
3612.4     14.5788    25.18061   127.225   
3612.8     14.63067   24.95712   128.2469  
3613.2     14.82017   24.42381   129.7921  
3613.6     15.3814    23.98632   131.1363  
3614       15.86031   26.12967   131.1564  
3614.4     15.58095   28.37944   130.7783  
3614.8     15.0821    31.69872   130.332   
3615.2     14.34381   34.66807   131.1677  
3615.6     14.06279   36.622     133.7024  
3616       13.58954   38.05972   138.854   
3616.4     13.40604   38.35992   139.5773  
3616.8     12.18892   39.9209    140.2777  
3617.2     11.3908    41.70339   138.4831  
3617.6     10.99177   42.55273   135.0661  
3618       10.5737    42.76658   130.4302  
3618.4     10.39328   43.59709   129.8403  
3618.8     10.37337   48.84068   129.1427  
3619.2     10.37341   63.33579   130.0988  
3619.6     10.38562   79.66829   131.3971  
3620       10.39346   86.55235   132.4689  
3620.4     10.37355   116.4808   133.0595  
3620.8     10.37359   121.4163   133.4383  
3621.2     10.37364   126.1848   133.7978  
3621.6     10.37368   128.4524   135.2049  
3622       10.37373   127.2555   135.8816  
3622.4     10.37377   122.1681   137.1249  
3622.8     10.37382   115.6795   136.1464  
3623.2     10.40567   105.0907   133.134   
3623.6     10.43376   96.01942   129.2239  
3624       10.45375   88.7686    121.5042  
3624.4     10.49194   82.21092   117.1844  
3624.8     10.49374   80.10623   115.0052  
3625.2     10.49379   79.57378   115.649   
3625.6     10.49383   79.04179   116.491   
3626       10.53378   76.70789   117.1709  
3626.4     10.68869   74.75883   117.9669  
3626.8     10.81773   73.99277   118.8812  
3627.2     10.93841   74.07617   120.793   
3627.6     11.01356   75.20345   123.6077  
3628       11.0726    74.99905   129.522   
3628.4     11.80023   72.91248   132.93    
3628.8     11.79649   72.02158   133.5313  
3629.2     11.43022   74.6851    133.8318  
3629.6     10.76208   79.57213   133.5212  
3630       10.40697   86.56476   134.0317  
3630.4     10.29488   103.0223   134.2982  
3630.8     10.46802   112.5774   135.8708  
3631.2     10.49666   119.8289   138.2576  
3631.6     10.53197   125.1653   139.6439  
3632       10.55438   125.1655   139.8316  
3632.4     10.57437   124.3241   139.7135  
3632.8     10.59436   121.6904   138.5387  
3633.2     10.5944    117.1234   136.7653  
3633.6     10.5745    111.6196   136.1342  
3634       10.56394   108.1122   136.7744  
3634.4     10.54838   108.6685   137.8855  
3634.8     10.51479   109.6089   139.2702  
3635.2     10.53478   108.3442   138.1524  
3635.6     10.60725   101.9685   135.5313  
3636       10.67449   91.90694   131.8226  
3636.4     10.69111   83.55626   116.5876  
3636.8     10.65556   79.88803   114.0469  
3637.2     10.65467   80.77025   113.1226  
3637.6     10.58458   84.97093   114.4991  
3638       10.52903   92.29735   117.8901  
3638.4     10.5168    99.00963   119.1684  
3638.8     10.57204   103.8857   117.6516  
3639.2     10.61499   103.8668   115.7764  
3639.6     10.78905   101.5354   110.1724  
3640       10.81452   86.27866   109.1702  
3640.4     10.99408   77.90236   111.2747  
3640.8     11.45282   70.42413   118.5906  
3641.2     12.27054   56.66349   128.2114  
3641.6     13.32757   41.70676   130.6705  
3642       14.61652   33.33106   132.6205  
3642.4     14.81957   28.55085   127.8098  
3642.8     14.72683   27.94859   123.5004  
3643.2     14.0057    29.14613   118.9905  
3643.6     12.56985   30.42726   115.9227  
3644       11.03432   31.54118   114.4858  
3644.4     10.97451   30.64471   115.6171  
3644.8     11.03437   31.54306   117.5924  
3645.2     11.5928    30.42122   119.8512  
3645.6     11.81219   29.75017   122.6029  
3646       11.92316   28.15369   124.1001  
3646.4     11.93192   27.3591    123.7014  
3646.8     11.87211   27.95832   121.6271  
3647.2     11.71262   29.0549    120.0231  
3647.6     11.44315   29.15673   119.1166  
3648       11.07459   28.42294   118.0388  
3648.4     10.97491   26.46665   117.9375  
3648.8     10.77555   25.07344   119.3126  
3649.2     10.43661   27.16448   120.7919  
3649.6     10.29707   31.99587   124.1985  
3650       10.17745   40.82735   132.7155  
3650.4     9.888432   69.84081   134.8193  
3650.8     9.818644   86.29239   135.902   
