~Version
 VERS              .         3.0                           : CWLS LOG ASCII STANDARD - VERSION 3.0
 WRAP              .         NO                            : ONE LINE PER DEPTH STEP
 DLM               .         SPACE                         : DELIMITING CHARACTER(SPACE TAB OR COMMA)
~Well Information
#_______________________________________________________________________________
#
#PARAMETER_NAME    .UNIT     VALUE                         : DESCRIPTION
#_______________________________________________________________________________
STRT               .ft       3360                          : First reference value
STOP               .ft       6444                          : Last reference value
STEP               .ft       0.4                           : Step increment
NULL               .         -9999                         : Missing value
COMP               .                                       : Company
WELL               .         EGBM-009                      : Well name
FLD                .         WILDCAT                       : Field
LOC                .                                       : Location
SRVC               .                                       : Service Company
CTRY               .                                       : Country
DATE               .                                       : Service Date
X                  .                                       : X or East-West coordinate
Y                  .                                       : Y or North South coordinate
GDAT               .                                       : Geodetic Datum
HZCS               .                                       : Horizontal Co-ordinate System
CREATION-TIME      .         2000/8/8 0_0                  : 
FIELD-NAME         .         WILDCAT                       : 
FILE-ID            .         SHELL.001                     : 
FILE-NUMBER        .         1                             : 
FILE-SET-NAME      .                                       : 
FILE-SET-NUMBER    .         0                             : 
FILE-TYPE          .         SHELL                         : 
NAME-SPACE-NAME    .         LIS                           : 
NAME-SPACE-VERSION .         0                             : 
PRODUCER-CODE      .         440                           : 
PRODUCER-NAME      .         Schlumberger                  : 
PRODUCT            .                                       : 
PROGRAMS           .                                       : 
VERSION            .         REV 2.00                      : 
WELL-NAME          .                                       : 
~Parameter Information Block
#_______________________________________________________________________________
#
#PARAMETER_NAME    .UNIT     VALUE                         : DESCRIPTION
#_______________________________________________________________________________
SET                .         SHELL_001_1                   : 
ACQUISITION-PRODUCT .         DLIS/U                        : 
CREATION-TIME      .         2026/5/15 11_27               : 
DLIS_FRAME_DIRECTION .         INCREASING                    : 
DLIS_FRAME_NAME    .         1                             : 
DLIS_FRAME_SPACING .0.1_in   48                            : 
FIELD-NAME         .         WILDCAT                       : 
FILE-ID            .         SHELL.001                     : 
FILE-NUMBER        .         1                             : 
FILE-SET-NAME      .         LIS-TO-DLIS-CONVERSION        : 
FILE-SET-NUMBER    .         15217                         : 
FILE-TYPE          .         SHELL                         : 
INDEX-TYPE         .         BOREHOLE-DEPTH                : 
NAME-SPACE-NAME    .                                       : 
NAME-SPACE-VERSION .         0                             : 
OriginalDatasetName .         1                             : 
PRODUCER-CODE      .         440                           : 
PRODUCER-NAME      .         Schlumberger                  : 
PRODUCT            .         DLIS/U                        : 
PROGRAMS           .         LIS-TO-DLIS                   : 
TLFamily_CALM      .         Caliper                       : 
TLFamily_DEPT      .         Measured Depth                : 
TLFamily_GR        .         Gamma Ray                     : 
TLFamily_SON3      .         Compressional Slowness        : 
VERSION            .         0.1                           : 
WELL-NAME          .                                       : 
~Curve Information
#_______________________________________________________________________________
#
#LOGNAME           .UNIT     LOG_ID                        : DESCRIPTION
#_______________________________________________________________________________
DEPT               .ft                                     :  {F}
CALM               .in                                     :  {F}
GR                 .gAPI                                   :  {F}
SON3               .                                       :  {F}
~Ascii
# ...
4961.6     8.925432   108.4994   112.8372  
4962       8.925377   110.742    110.575   
4962.4     8.92532    112.9871   108.8173  
4962.8     8.945248   116.7113   107.3015  
4963.2     8.965178   119.2582   106.4904  
4963.6     8.96512    120.3216   106.3483  
4964       8.965065   119.5525   106.4482  
4964.4     8.965008   117.8979   106.2574  
4964.8     8.964952   118.7758   105.3162  
4965.2     8.984882   120.6797   104.3487  
4965.6     8.984825   123.1199   104.3884  
4966       8.98477    125.064    105.2483  
4966.4     9.022549   124.8169   108.7591  
4966.8     8.96467    123.515    111.9405  
4967.2     8.964615   122.2768   114.9325  
4967.6     8.944572   120.8368   116.3165  
4968       8.944515   119.3985   117.1438  
4968.4     8.944693   117.9585   117.5435  
4968.8     8.96439    116.5184   117.5434  
4969.2     8.995413   115.0783   117.9456  
4969.6     9.02424    114.9213   118.3725  
4970       9.004198   116.7234   118.9424  
4970.4     9.004141   117.5515   119.2294  
4970.8     8.997314   118.5184   119.142   
4971.2     8.984041   118.3244   118.9997  
4971.6     9.031248   116.7189   118.8222  
4972       9.003918   114.9195   118.2501  
4972.4     9.04384    114.0198   117.1883  
4972.8     9.063774   114.4683   114.8503  
4973.2     9.063719   116.5648   111.3278  
4973.6     9.043673   118.8143   108.0277  
4974       9.083597   119.4159   105.02    
4974.4     9.110872   118.6516   104.0177  
4974.8     9.103476   115.7849   104.8864  
4975.2     9.079504   111.4242   106.6128  
4975.6     9.043394   107.1036   107.8178  
4976       9.06333    104.5283   107.7471  
4976.4     9.043283   102.1152   106.8952  
4976.8     9.063219   101.8652   106.0482  
4977.2     9.063164   104.5484   107.0907  
4977.6     9.043118   108.599    108.5702  
4978       9.063053   115.3039   109.6446  
4978.4     9.043007   121.8652   108.9449  
4978.8     9.038929   127.2055   103.9477  
4979.2     9.002911   131.955    98.95061  
4979.6     9.042839   138.7197   86.95773  
4980       9.0028     142.5361   83.81059  
4980.4     9.028919   155.8139   82.56059  
4980.8     9.002687   162.1798   84.45956  
4981.2     9.002632   167.315    89.15674  
4981.6     9.042561   169.5414   96.85199  
4982       9.150328   166.6469   99.33386  
4982.4     9.347475   164.4662   101.4491  
4982.8     9.40012    160.8641   102.1486  
4983.2     9.622143   156.0877   101.9121  
4983.6     9.702066   152.6991   101.449   
4984       9.72201    146.1451   101.8487  
4984.4     9.724733   126.5068   102.4622  
4984.8     9.701914   116.7572   104.3129  
4985.2     9.701864   109.7228   106.3559  
4985.6     9.515692   106.3506   108.6438  
4986       9.331867   106.5122   110.3425  
4986.4     9.161837   106.8117   110.8771  
4986.8     9.056648   107.4112   111.5839  
4987.2     9.041782   106.7184   111.3416  
4987.6     9.021732   104.1113   110.9533  
4988       9.061666   98.41954   111.4319  
4988.4     9.041616   95.27847   111.741   
4988.8     9.00157    91.83218   111.9407  
4989.2     9.021509   90.07855   111.7408  
4989.6     9.041449   89.41258   111.34    
4990       9.081385   89.41211   110.6415  
4990.4     9.101326   89.41162   110.3416  
4990.8     9.181255   89.41115   110.0418  
4991.2     9.1812     88.5108    109.9322  
4991.6     9.181147   88.51031   109.8418  
4992       9.201088   88.50983   109.6419  
4992.4     9.201035   88.50934   109.9416  
4992.8     9.220978   88.50883   109.8415  
4993.2     9.243649   88.33188   110.4409  
4993.6     9.298859   87.49431   110.9404  
4994       9.380796   87.00755   111.5399  
4994.4     9.429365   86.70708   111.6748  
4994.8     9.620665   85.2832    112.0392  
4995.2     9.659292   83.37796   111.9392  
4995.6     9.680557   82.60674   111.7392  
4996       9.690212   84.30525   111.5394  
4996.4     9.680456   85.46138   111.4394  
4996.8     9.680405   87.48608   111.0394  
4997.2     9.660357   88.50342   111.1395  
4997.6     9.535183   88.50293   111.2953  
4998       9.434702   89.10242   111.373   
4998.4     9.300215   89.10193   111.339   
4998.8     9.260164   90.13991   111.529   
4999.2     9.260109   91.86649   111.907   
4999.6     9.260056   93.00044   112.2848  
5000       9.286863   93.59996   112.5877  
5000.4     9.279976   93.59924   112.7345  
5000.8     9.259951   93.5985    112.0796  
5001.2     9.259924   94.5162    111.2283  
5001.6     9.259897   97.08105   110.4087  
5002       9.259871   103.9355   110.1411  
5002.4     9.259846   108.182    110.2285  
5002.8     9.259819   113.2867   110.807   
5003.2     9.259794   117.1577   111.5858  
5003.6     9.259768   115.8347   112.1641  
5004       9.259743   112.2628   111.7361  
5004.4     9.219719   106.4906   110.2632  
5004.8     9.179697   97.19597   107.3179  
5005.2     9.073353   91.37085   104.9478  
5005.6     9.05966    86.9772    96.65604  
5006       9.059635   82.7794    95.4572   
5006.4     9.039612   78.48785   94.75803  
5006.8     9.059586   76.78957   96.67252  
5007.2     9.053492   77.62537   104.2497  
5007.6     9.059538   80.46858   111.843   
5008       9.07951    83.93513   118.537   
5008.4     9.039492   87.64146   119.5502  
5008.8     9.07946    91.61525   118.5552  
5009.2     9.039442   96.91028   115.6627  
5009.6     9.168894   102.1192   113.0002  
5010       9.199362   106.1371   110.9498  
5010.4     9.199335   108.4871   108.3477  
5010.8     9.19931    108.8765   106.2391  
5011.2     9.199286   108.8756   102.7352  
5011.6     9.199259   109.4746   99.55612  
5012       9.199234   110.3072   90.86403  
5012.4     9.17922    110.6725   88.95615  
5012.8     9.059217   111.0664   90.43631  
5013.2     9.0392     112.8139   92.31624  
5013.6     9.039175   115.8958   96.75958  
5014       9.019156   121.9287   107.5504  
5014.4     8.959148   126.4003   111.1761  
5014.8     8.959126   129.5387   113.6533  
5015.2     8.959101   130.7602   114.0633  
5015.6     8.959078   128.9464   113.1295  
5016       8.959055   124.2277   111.6805  
5016.4     9.118979   121.3109   110.5229  
5016.8     9.118954   118.1741   109.8645  
5017.2     9.118929   116.4273   109.8504  
5017.6     9.110884   114.9879   109.8507  
5018       9.078892   112.4207   109.9508  
5018.4     9.078869   108.6243   110.0476  
5018.8     9.078844   105.5554   110.8793  
5019.2     9.078819   103.3318   112.277   
5019.6     9.078794   104.0592   113.9605  
5020       9.118753   107.6362   115.7474  
5020.4     9.158712   112.1761   115.9441  
5020.8     9.170174   115.9075   115.5481  
5021.2     9.205456   118.0027   114.8988  
5021.6     9.238602   119.3484   114.5494  
5022       9.220909   119.9577   114.6356  
5022.4     9.23855    120.546    114.45    
5022.8     9.238523   119.7692   114.75    
5023.2     9.238499   117.7285   115.2499  
5023.6     9.238472   115.6332   116.0867  
5024       9.243473   114.2522   116.9444  
5024.4     9.23842    113.8715   117.7257  
5024.8     9.238396   114.3856   117.9489  
5025.2     9.238369   112.3458   117.717   
5025.6     9.238342   109.3635   117.3401  
5026       9.258307   107.0636   117.0637  
5026.4     9.238291   105.8441   116.9507  
5026.8     9.238264   107.0423   116.7097  
5027.2     9.238239   108.9133   116.1518  
5027.6     9.238213   109.4396   115.0765  
5028       9.258177   109.4387   112.8455  
5028.4     9.238161   109.6055   109.8137  
5028.8     9.238136   112.7025   106.398   
5029.2     9.23811    117.5493   104.1888  
5029.6     9.238083   123.066    103.038   
5030       9.258045   127.0755   103.3438  
5030.4     9.238031   131.0203   103.9823  
5030.8     9.238007   130.4359   104.6606  
5031.2     9.23798    127.6184   104.5625  
5031.6     9.237953   122.8581   104.3628  
5032       9.257915   119.1125   104.6217  
5032.4     9.257889   114.6768   106.9125  
5032.8     9.253029   110.8669   109.4349  
5033.2     9.247131   107.1005   112.5075  
5033.6     9.237825   104.5175   115.259   
5034       9.257786   104.3291   117.1028  
