~Version
 VERS              .         3.0                           : CWLS LOG ASCII STANDARD - VERSION 3.0
 WRAP              .         NO                            : ONE LINE PER DEPTH STEP
 DLM               .         SPACE                         : DELIMITING CHARACTER(SPACE TAB OR COMMA)
~Well Information
#_______________________________________________________________________________
#
#PARAMETER_NAME    .UNIT     VALUE                         : DESCRIPTION
#_______________________________________________________________________________
STRT               .ft       3360                          : First reference value
STOP               .ft       6444                          : Last reference value
STEP               .ft       0.4                           : Step increment
NULL               .         -9999                         : Missing value
COMP               .                                       : Company
WELL               .         EGBM-009                      : Well name
FLD                .         WILDCAT                       : Field
LOC                .                                       : Location
SRVC               .                                       : Service Company
CTRY               .                                       : Country
DATE               .                                       : Service Date
X                  .                                       : X or East-West coordinate
Y                  .                                       : Y or North South coordinate
GDAT               .                                       : Geodetic Datum
HZCS               .                                       : Horizontal Co-ordinate System
CREATION-TIME      .         2000/8/8 0_0                  : 
FIELD-NAME         .         WILDCAT                       : 
FILE-ID            .         SHELL.001                     : 
FILE-NUMBER        .         1                             : 
FILE-SET-NAME      .                                       : 
FILE-SET-NUMBER    .         0                             : 
FILE-TYPE          .         SHELL                         : 
NAME-SPACE-NAME    .         LIS                           : 
NAME-SPACE-VERSION .         0                             : 
PRODUCER-CODE      .         440                           : 
PRODUCER-NAME      .         Schlumberger                  : 
PRODUCT            .                                       : 
PROGRAMS           .                                       : 
VERSION            .         REV 2.00                      : 
WELL-NAME          .                                       : 
~Parameter Information Block
#_______________________________________________________________________________
#
#PARAMETER_NAME    .UNIT     VALUE                         : DESCRIPTION
#_______________________________________________________________________________
SET                .         SHELL_001_1                   : 
ACQUISITION-PRODUCT .         DLIS/U                        : 
CREATION-TIME      .         2026/5/15 11_27               : 
DLIS_FRAME_DIRECTION .         INCREASING                    : 
DLIS_FRAME_NAME    .         1                             : 
DLIS_FRAME_SPACING .0.1_in   48                            : 
FIELD-NAME         .         WILDCAT                       : 
FILE-ID            .         SHELL.001                     : 
FILE-NUMBER        .         1                             : 
FILE-SET-NAME      .         LIS-TO-DLIS-CONVERSION        : 
FILE-SET-NUMBER    .         15217                         : 
FILE-TYPE          .         SHELL                         : 
INDEX-TYPE         .         BOREHOLE-DEPTH                : 
NAME-SPACE-NAME    .                                       : 
NAME-SPACE-VERSION .         0                             : 
OriginalDatasetName .         1                             : 
PRODUCER-CODE      .         440                           : 
PRODUCER-NAME      .         Schlumberger                  : 
PRODUCT            .         DLIS/U                        : 
PROGRAMS           .         LIS-TO-DLIS                   : 
TLFamily_CALM      .         Caliper                       : 
TLFamily_DEPT      .         Measured Depth                : 
TLFamily_GR        .         Gamma Ray                     : 
TLFamily_SON3      .         Compressional Slowness        : 
VERSION            .         0.1                           : 
WELL-NAME          .                                       : 
~Curve Information
#_______________________________________________________________________________
#
#LOGNAME           .UNIT     LOG_ID                        : DESCRIPTION
#_______________________________________________________________________________
DEPT               .ft                                     :  {F}
CALM               .in                                     :  {F}
GR                 .gAPI                                   :  {F}
SON3               .                                       :  {F}
~Ascii
# ...
5325.6     9.74       106.7834   109.2224  
5326       9.732557   106.1612   110.8631  
5326.4     9.779999   106.4724   112.4028  
5326.8     9.859999   108.7978   114.1041  
5327.2     9.859999   111.6725   115.12    
5327.6     9.859999   113.4      115.1     
5328       9.859999   112.2212   114.9     
5328.4     9.84       111        114.8     
5328.8     9.81925    111.1585   115       
5329.2     9.726875   113.8685   115.2     
5329.6     9.66       116.1118   115.4     
5330       9.664471   116.7      115.3     
5330.4     9.639999   115.1379   114.9358  
5330.8     9.639999   111.9      114.0231  
5331.2     9.639999   109.0716   112.8943  
5331.6     9.639999   108.3      111.577   
5332       9.61462    110.1      110.4366  
5332.4     9.558929   112.8      109.8     
5332.8     9.523344   119.0141   109.8852  
5333.2     9.5        123.5695   110.7879  
5333.6     9.5        126.4363   112.2049  
5334       9.496841   127.0491   114.0456  
5334.4     9.459999   126.5142   115.8242  
5334.8     9.439999   123.8492   116.4818  
5335.2     9.439999   120.6646   117.3201  
5335.6     9.42       117.2695   117.9     
5336       9.4        115.2018   118.1     
5336.4     9.34       113.4      118.3551  
5336.8     9.287788   113.7      118.533   
5337.2     9.24       114        118.7109  
5337.6     9.199999   112.7231   119       
5338       9.199999   110.0135   119.2     
5338.4     9.199999   106.7295   119.3457  
5338.8     9.199999   104.9845   119.3     
5339.2     9.219999   104.1      119.1991  
5339.6     9.219999   104.5758   118.5432  
5340       9.199999   110.2908   116.9312  
5340.4     9.16       116.4      115.2     
5340.8     9.08       118.3294   112.6779  
5341.2     9.039999   120.9      109.5     
5341.6     9          118.9916   109.1831  
5342       8.939999   114.6426   108.6     
5342.4     8.939999   110.1147   110.5354  
5342.8     8.939999   108        112.068   
5343.2     8.939999   107.7      113.4151  
5343.6     8.939999   108.3      114.3523  
5344       8.939999   108.8368   114.4     
5344.4     8.939999   109.4653   113.6892  
5344.8     8.939999   109.8      111.9942  
5345.2     8.939999   109.0683   109.8208  
5345.6     8.939999   107.6319   108.2749  
5346       8.939999   106.1947   107.7     
5346.4     8.939999   104.7      109.578   
5346.8     8.939999   105.3      111.377   
5347.2     8.939999   107.2022   112.6475  
5347.6     8.939999   110.4583   112.7821  
5348       8.939999   113.0133   112.7948  
5348.4     8.939999   116.467    112.5179  
5348.8     8.939999   118.6123   112.961   
5349.2     8.939999   120.6414   113.4395  
5349.6     8.939999   121.2      113.8     
5350       8.939999   121.2      114.2895  
5350.4     8.939999   115.647    113.4     
5350.8     8.959999   112.0161   113.4511  
5351.2     8.959999   107.3308   113.9592  
5351.6     8.959999   104.1498   114.6173  
5352       8.959999   101.8754   115.1871  
5352.4     8.959999   100.5      115.832   
5352.8     8.959999   100.2      116.3     
5353.2     8.959999   101.7132   116.0775  
5353.6     8.959999   103.9835   114.7056  
5354       8.959999   106.9692   113.4737  
5354.4     8.959999   109.1941   107.4     
5354.8     8.959999   111.627    101.5     
5355.2     8.959999   112.5      96.73766  
5355.6     8.960928   110.1081   94.69998  
5356       8.98       107.0206   94.29999  
5356.4     8.98       101.544    96.3566   
5356.8     8.98       98.6835    98.48212  
5357.2     9.002859   98.65016   100.5291  
5357.6     9.039999   99.96208   102.5716  
5358       9.153488   101.1      104.0635  
5358.4     9.26       101.3543   106.3568  
5358.8     9.299999   100.8      107.9981  
5359.2     9.32       101.3116   108.6     
5359.6     9.32       101.8435   108.5     
5360       9.279999   104.4      108.8     
5360.4     9.236851   105.6077   110.946   
5360.8     9.199999   107.6344   112.4866  
5361.2     9.18       110.8898   113.7269  
5361.6     9.16       115.0782   113.7932  
5362       9.145771   117.3384   112.0576  
5362.4     9.128046   119.0498   110.9858  
5362.8     9.100584   119.8821   109.46    
5363.2     9.02       120.6      108.0444  
5363.6     8.98       122.1935   107.8     
5364       8.98       124.7512   108.2     
5364.4     8.98       125.4      108.5896  
5364.8     8.959999   123.6109   108.8     
5365.2     8.959999   120.433    108.946   
5365.6     8.959999   117.8794   109.3751  
5366       8.959999   116.4439   110.3     
5366.4     8.959999   115.3091   110.9663  
5366.8     8.959999   115.2      111.3383  
5367.2     8.959999   114.7821   110.6237  
5367.6     8.959999   112.5112   109.2723  
5368       8.999533   112.1158   107.9418  
5368.4     8.98       109.8      107.4     
5368.8     8.98       108.9      107.4888  
5369.2     8.959999   109.8617   108.3712  
5369.6     8.959999   112.7225   109.5068  
5370       8.959999   116.6703   110.7     
5370.4     8.959999   118.7414   111.6     
5370.8     8.959999   120        112.9858  
5371.2     8.959999   120        113.9226  
5371.6     8.959999   119.4      114.6     
5372       8.959999   119.1      114.3     
5372.4     8.959999   117.2102   113.9441  
5372.8     8.959999   116.4      113.6     
5373.2     9          116.4      113.5     
5373.6     8.98       117.1909   113.7     
5374       8.946627   118.8      113.9672  
5374.4     8.939999   119.4      114.2     
5374.8     8.919998   118.5      114.4481  
5375.2     8.9        117.0757   114.9054  
5375.6     8.9        116.7      115.5     
5376       8.9        117.4825   116.3041  
5376.4     8.9        118.8246   117.3809  
5376.8     8.9        119.4      118.2402  
5377.2     8.879999   120        119.5     
5377.6     8.9        120        120.2588  
5378       8.911743   119.7      121.2353  
5378.4     8.9        119.4      122.0381  
5378.8     8.9        117.3      122.4     
5379.2     8.879999   116.2607   122.106   
5379.6     8.879999   117.3      121.6288  
5380       8.879999   120.0733   121.004   
5380.4     8.9        122.655    120.8     
5380.8     8.9        125.2867   120.2     
5381.2     8.88928    126        119.5423  
5381.6     8.879999   124.2      117.7333  
5382       8.859999   118.8174   115.943   
5382.4     8.879999   111.9403   110.2     
5382.8     8.9        107.6653   108.45    
5383.2     8.919998   105.6      106.7109  
5383.6     8.919998   106.5347   106.5442  
5384       8.959999   107.9668   107.2023  
5384.4     9.011908   110.7972   107.9     
5384.8     9.02       112.6305   107.6422  
5385.2     9.02       114.7249   106.2665  
5385.6     9.02       115.5      105.8896  
5386       8.959999   113.1      105.3266  
5386.4     9.00679    107.666    106.8     
5386.8     9.011129   104.5981   108.5463  
5387.2     9          103.5      110.319   
5387.6     9.02       104.6681   112.033   
5388       9.18       106.7006   113.0813  
5388.4     9.190783   109.0337   113.5382  
5388.8     9.24       109.1344   113.3     
5389.2     9.24       107.3989   112.6539  
5389.6     9.26       105.9      111.9001  
5390       9.292673   105.6      111.5     
5390.4     9.308163   106.2      112.4263  
5390.8     9.359999   107.5353   114.113   
5391.2     9.359999   111.5288   115.9621  
5391.6     9.359999   114.1985   116.5981  
5392       9.379999   114.4684   115.504   
5392.4     9.385603   112.0695   113.1165  
5392.8     9.539999   106.1958   108.6     
5393.2     9.646324   96.51088   105.6     
5393.6     9.779999   85.79189   102       
5394       9.827442   76.15788   98.71617  
5394.4     9.859999   69.13017   96.37517  
5394.8     9.841473   64.57639   92.90045  
5395.2     9.799999   61.68279   89.89998  
5395.6     9.779999   58.49999   84.59999  
5396       9.52       56.24999   75.59999  
5396.4     9.08       53.38526   69.09999  
5396.8     9.023907   50.8172    62.5      
5397.2     8.98       47.74744   60.39999  
5397.6     9.02       48.10604   62.29999  
5398       8.98       52.09185   65.39998  
