~Version
 VERS              .         3.0                           : CWLS LOG ASCII STANDARD - VERSION 3.0
 WRAP              .         NO                            : ONE LINE PER DEPTH STEP
 DLM               .         SPACE                         : DELIMITING CHARACTER(SPACE TAB OR COMMA)
~Well Information
#_______________________________________________________________________________
#
#PARAMETER_NAME    .UNIT     VALUE                         : DESCRIPTION
#_______________________________________________________________________________
STRT               .ft       3360                          : First reference value
STOP               .ft       6444                          : Last reference value
STEP               .ft       0.4                           : Step increment
NULL               .         -9999                         : Missing value
COMP               .                                       : Company
WELL               .         EGBM-009                      : Well name
FLD                .         WILDCAT                       : Field
LOC                .                                       : Location
SRVC               .                                       : Service Company
CTRY               .                                       : Country
DATE               .                                       : Service Date
X                  .                                       : X or East-West coordinate
Y                  .                                       : Y or North South coordinate
GDAT               .                                       : Geodetic Datum
HZCS               .                                       : Horizontal Co-ordinate System
CREATION-TIME      .         2000/8/8 0_0                  : 
FIELD-NAME         .         WILDCAT                       : 
FILE-ID            .         SHELL.001                     : 
FILE-NUMBER        .         1                             : 
FILE-SET-NAME      .                                       : 
FILE-SET-NUMBER    .         0                             : 
FILE-TYPE          .         SHELL                         : 
NAME-SPACE-NAME    .         LIS                           : 
NAME-SPACE-VERSION .         0                             : 
PRODUCER-CODE      .         440                           : 
PRODUCER-NAME      .         Schlumberger                  : 
PRODUCT            .                                       : 
PROGRAMS           .                                       : 
VERSION            .         REV 2.00                      : 
WELL-NAME          .                                       : 
~Parameter Information Block
#_______________________________________________________________________________
#
#PARAMETER_NAME    .UNIT     VALUE                         : DESCRIPTION
#_______________________________________________________________________________
SET                .         SHELL_001_1                   : 
ACQUISITION-PRODUCT .         DLIS/U                        : 
CREATION-TIME      .         2026/5/15 11_27               : 
DLIS_FRAME_DIRECTION .         INCREASING                    : 
DLIS_FRAME_NAME    .         1                             : 
DLIS_FRAME_SPACING .0.1_in   48                            : 
FIELD-NAME         .         WILDCAT                       : 
FILE-ID            .         SHELL.001                     : 
FILE-NUMBER        .         1                             : 
FILE-SET-NAME      .         LIS-TO-DLIS-CONVERSION        : 
FILE-SET-NUMBER    .         15217                         : 
FILE-TYPE          .         SHELL                         : 
INDEX-TYPE         .         BOREHOLE-DEPTH                : 
NAME-SPACE-NAME    .                                       : 
NAME-SPACE-VERSION .         0                             : 
OriginalDatasetName .         1                             : 
PRODUCER-CODE      .         440                           : 
PRODUCER-NAME      .         Schlumberger                  : 
PRODUCT            .         DLIS/U                        : 
PROGRAMS           .         LIS-TO-DLIS                   : 
TLFamily_CALM      .         Caliper                       : 
TLFamily_DEPT      .         Measured Depth                : 
TLFamily_GR        .         Gamma Ray                     : 
TLFamily_SON3      .         Compressional Slowness        : 
VERSION            .         0.1                           : 
WELL-NAME          .                                       : 
~Curve Information
#_______________________________________________________________________________
#
#LOGNAME           .UNIT     LOG_ID                        : DESCRIPTION
#_______________________________________________________________________________
DEPT               .ft                                     :  {F}
CALM               .in                                     :  {F}
GR                 .gAPI                                   :  {F}
SON3               .                                       :  {F}
~Ascii
# ...
5762.4     8.987518   94.03351   143.8939  
5762.8     9.05423    89.19989   136.4865  
5763.2     9.045301   78.40396   125.5756  
5763.6     9.047279   65.1875    112.2623  
5764       9.107161   48.40765   101.5515  
5764.4     9.174541   37.90893   94.04404  
5764.8     9.209629   29.54287   90.14014  
5765.2     9.64694    23.97598   89.53954  
5765.6     9.906879   21.70319   89.43944  
5766       10.17582   22.30199   90.44044  
5766.4     10.32515   23.05638   91.14839  
5766.8     10.34344   23.58228   91.34134  
5767.2     10.10656   25.00467   90.68451  
5767.6     9.586487   26.35778   89.38388  
5768       9.426403   26.796     88.00333  
5768.4     9.041891   26.4948    86.11658  
5768.8     8.70624    25.5736    85.47943  
5769.2     8.46616    24.43845   86.00298  
5769.6     8.455009   24.0912    87.13713  
5770       8.461788   24.57772   88.2068   
5770.4     8.40592    24.3888    89.03903  
5770.8     8.40584    24.11497   89.68468  
5771.2     8.40576    23.88359   89.73975  
5771.6     8.425678   23.61838   89.83984  
5772       8.4056     24.74155   89.86487  
5772.4     8.405519   25.5658    90.15144  
5772.8     8.405439   26.78159   91.04103  
5773.2     8.42536    29.00803   91.65521  
5773.6     8.42528    30.43087   92.2269   
5774       8.4452     33.01904   92.60423  
5774.4     8.44512    35.55552   92.84283  
5774.8     8.452599   36.789     92.82756  
5775.2     8.44496    36.67439   92.74274  
5775.6     8.44488    36.67319   92.64264  
5776       8.4848     37.272     92.48724  
5776.4     8.46472    36.97079   92.74274  
5776.8     8.488501   37.32751   92.84131  
5777.2     8.48456    37.26839   93.21857  
5777.6     8.455351   36.83025   93.59639  
5778       8.464399   36.966     93.74374  
5778.4     8.50432    37.5648    93.24324  
5778.8     8.444239   36.66359   92.86124  
5779.2     8.639112   35.82275   91.72824  
5779.6     8.65423    34.68787   90.54054  
5780       8.683998   32.84245   89.52449  
5780.4     8.663919   30.61108   88.37302  
5780.8     8.663839   29.19479   87.67931  
5781.2     8.663759   28.03955   87.77299  
5781.6     8.663679   27.50818   88.03804  
5782       8.663599   26.454     88.14919  
5782.4     8.663519   26.4528    88.23824  
5782.8     8.663439   26.4516    88.09599  
5783.2     8.663359   26.4504    87.81944  
5783.6     8.666162   27.3492    87.73773  
5784       8.685072   29.16369   87.80974  
5784.4     8.66312    29.7468    88.03593  
5784.8     8.64304    30.5145    88.79073  
5785.2     8.64296    32.53439   90.04004  
5785.6     8.642879   36.34944   91.32367  
5786       8.642799   41.22336   92.04204  
5786.4     8.66272    48.2016    93.21831  
5786.8     8.66264    55.90303   93.85872  
5787.2     8.66256    62.4046    94.34435  
5787.6     8.662479   65.43719   95.01466  
5788       8.7024     64.33482   95.7393   
5788.4     8.722321   61.21655   96.57109  
5788.8     8.763332   60.0336    97.14714  
5789.2     8.822159   61.26743   97.22606  
5789.6     8.822079   65.07326   96.63756  
5790       8.822001   69.03024   95.88542  
5790.4     8.82192    67.45938   95.13918  
5790.8     8.821838   65.08936   94.94495  
5791.2     8.821758   62.72639   95.16399  
5791.6     8.821678   63.39348   95.71916  
5792       8.8216     67.55827   95.66589  
5792.4     8.82152    72.48935   94.94495  
5792.8     8.82144    74.72159   93.51515  
5793.2     8.82136    73.51056   92.56279  
5793.6     8.82128    69.91891   92.44244  
5794       8.821199   67.02325   93.53081  
5794.4     8.821119   65.7168    93.94394  
5794.8     8.821039   66.96861   94.64218  
5795.2     8.820959   68.98929   94.51974  
5795.6     8.820879   69.41179   93.14349  
5796       8.820799   67.41969   91.34134  
5796.4     8.820719   62.23362   90.44044  
5796.8     8.820639   59.68099   90.04004  
5797.2     8.820559   59.66583   90.14014  
5797.6     8.820478   61.08825   90.62132  
5798       8.8004     65.36142   91.15694  
5798.4     8.812622   71.99513   91.67667  
5798.8     8.80024    77.40402   92.16704  
5799.2     8.818378   95.39517   93.13301  
5799.6     8.82008    114.6011   93.91104  
5800       8.800007   131.1001   93.94394  
5800.4     8.864128   137.0847   93.74374  
5800.8     8.920115   137.2672   93.24417  
5801.2     8.960171   134.357    92.94293  
5801.6     8.960226   129.5628   93.04305  
5802       8.960281   125.1009   93.24324  
5802.4     8.94034    126.0011   93.24324  
5802.8     8.903393   130.201    92.76787  
5803.2     8.940453   152.6998   92.03545  
5803.6     8.900513   156.6099   91.94194  
5804       8.90057    165.0108   92.44244  
5804.4     8.900625   153.5996   92.94293  
5804.8     9.026506   140.2693   93.34334  
5805.2     9.110035   117.3033   93.54353  
5805.6     9.400738   92.62947   93.51088  
5806       9.86076    56.4111    93.02325  
5806.4     9.988394   41.49438   92.26878  
5806.8     9.932709   34.31398   91.089    
5807.2     9.720905   31.0512    89.86009  
5807.6     9.520985   31.01719   88.9064   
5808       9.521038   31.51899   88.35114  
5808.4     9.481096   31.81989   88.61023  
5808.8     9.453503   31.82083   89.54059  
5809.2     9.441208   31.82178   90.79997  
5809.6     9.441259   31.82272   92.37009  
5810       9.427046   31.22379   94.84483  
5810.4     9.401373   30.9248    95.65337  
5810.8     9.401424   30.16109   96.60556  
5811.2     9.442995   29.62769   96.97232  
5811.6     9.5415     29.7607    97.45084  
5812       9.581541   31.18843   97.64764  
5812.4     9.514568   33.99018   97.54755  
5812.8     9.421694   38.12038   97.41055  
5813.2     9.22179    43.28545   97.24725  
5813.6     9.146776   47.8745    97.24725  
5814       8.950562   52.04882   97.51787  
5814.4     8.922039   55.34588   98.09676  
5814.8     8.922096   55.8377    98.67624  
5815.2     8.922152   53.56487   99.15477  
5815.6     8.922209   51.58405   99.14915  
5816       8.922264   52.43585   99.00983  
5816.4     8.922321   54.98042   98.24825  
5816.8     8.922379   57.52495   98.04805  
5817.2     8.922434   58.53147   98.34225  
5817.6     8.922491   58.5322    99.52249  
5818       8.942541   58.53293   100.859   
5818.4     8.962589   58.23377   102.6483  
5818.8     8.962646   59.33886   103.8766  
5819.2     8.962702   62.38342   104.6546  
5819.6     8.962759   66.20291   104.2196  
5820       8.962816   70.91611   103.9091  
5820.4     8.962872   76.88948   103.4312  
5820.8     8.962927   80.83739   103.1532  
5821.2     9.002966   87.5634    102.8528  
5821.6     9.043007   91.33734   102.498   
5822       9.043062   125.4108   102.4846  
5822.4     9.063108   152.9986   102.052   
5822.8     9.043173   180.355    101.5647  
5823.2     9.063219   189.9508   100.9961  
5823.6     9.083265   203.7456   100.0878  
5824       9.10331    222.3371   98.15451  
5824.4     9.123356   236.431    95.79172  
5824.8     9.212776   241.5288   93.48128  
5825.2     9.263405   235.3822   91.50079  
5825.6     9.343409   230.4356   89.93994  
5826       9.42342    169.568    89.47125  
5826.4     9.463446   148.8797   89.13914  
5826.8     9.449522   147.6816   88.53853  
5827.2     9.483545   137.4068   88.53853  
5827.6     9.446465   128.0624   89.14371  
5828       9.383705   124.2144   90.34152  
5828.4     9.355213   124.4768   91.96019  
5828.8     9.259508   129.7386   94.31042  
5829.2     9.203968   136.5981   96.57187  
5829.6     9.074949   145.2028   98.16193  
5830       9.164101   145.5027   99.60371  
5830.4     9.144169   139.2065   100.1767  
5830.8     9.124235   130.8464   100.9762  
5831.2     9.104303   120.8119   101.9729  
5831.6     9.087467   114.0227   102.9527  
5832       9.084427   110.7251   103.0531  
5832.4     9.08448    115.2225   100.9449  
5832.8     9.084768   122.1243   99.79118  
5833.2     9.124565   129.2364   99.14915  
5833.6     9.144608   133.0341   99.53421  
5834       9.11809    131.2864   99.78699  
5834.4     9.166805   129.6098   99.20956  
5834.8     9.241959   127.5728   98.73154  
