~Version
 VERS              .         3.0                           : CWLS LOG ASCII STANDARD - VERSION 3.0
 WRAP              .         NO                            : ONE LINE PER DEPTH STEP
 DLM               .         SPACE                         : DELIMITING CHARACTER(SPACE TAB OR COMMA)
~Well Information
#_______________________________________________________________________________
#
#PARAMETER_NAME    .UNIT     VALUE                         : DESCRIPTION
#_______________________________________________________________________________
STRT               .ft       3360                          : First reference value
STOP               .ft       6444                          : Last reference value
STEP               .ft       0.4                           : Step increment
NULL               .         -9999                         : Missing value
COMP               .                                       : Company
WELL               .         EGBM-009                      : Well name
FLD                .         WILDCAT                       : Field
LOC                .                                       : Location
SRVC               .                                       : Service Company
CTRY               .                                       : Country
DATE               .                                       : Service Date
X                  .                                       : X or East-West coordinate
Y                  .                                       : Y or North South coordinate
GDAT               .                                       : Geodetic Datum
HZCS               .                                       : Horizontal Co-ordinate System
CREATION-TIME      .         2000/8/8 0_0                  : 
FIELD-NAME         .         WILDCAT                       : 
FILE-ID            .         SHELL.001                     : 
FILE-NUMBER        .         1                             : 
FILE-SET-NAME      .                                       : 
FILE-SET-NUMBER    .         0                             : 
FILE-TYPE          .         SHELL                         : 
NAME-SPACE-NAME    .         LIS                           : 
NAME-SPACE-VERSION .         0                             : 
PRODUCER-CODE      .         440                           : 
PRODUCER-NAME      .         Schlumberger                  : 
PRODUCT            .                                       : 
PROGRAMS           .                                       : 
VERSION            .         REV 2.00                      : 
WELL-NAME          .                                       : 
~Parameter Information Block
#_______________________________________________________________________________
#
#PARAMETER_NAME    .UNIT     VALUE                         : DESCRIPTION
#_______________________________________________________________________________
SET                .         SHELL_001_1                   : 
ACQUISITION-PRODUCT .         DLIS/U                        : 
CREATION-TIME      .         2026/5/15 11_27               : 
DLIS_FRAME_DIRECTION .         INCREASING                    : 
DLIS_FRAME_NAME    .         1                             : 
DLIS_FRAME_SPACING .0.1_in   48                            : 
FIELD-NAME         .         WILDCAT                       : 
FILE-ID            .         SHELL.001                     : 
FILE-NUMBER        .         1                             : 
FILE-SET-NAME      .         LIS-TO-DLIS-CONVERSION        : 
FILE-SET-NUMBER    .         15217                         : 
FILE-TYPE          .         SHELL                         : 
INDEX-TYPE         .         BOREHOLE-DEPTH                : 
NAME-SPACE-NAME    .                                       : 
NAME-SPACE-VERSION .         0                             : 
OriginalDatasetName .         1                             : 
PRODUCER-CODE      .         440                           : 
PRODUCER-NAME      .         Schlumberger                  : 
PRODUCT            .         DLIS/U                        : 
PROGRAMS           .         LIS-TO-DLIS                   : 
TLFamily_CALM      .         Caliper                       : 
TLFamily_DEPT      .         Measured Depth                : 
TLFamily_GR        .         Gamma Ray                     : 
TLFamily_SON3      .         Compressional Slowness        : 
VERSION            .         0.1                           : 
WELL-NAME          .                                       : 
~Curve Information
#_______________________________________________________________________________
#
#LOGNAME           .UNIT     LOG_ID                        : DESCRIPTION
#_______________________________________________________________________________
DEPT               .ft                                     :  {F}
CALM               .in                                     :  {F}
GR                 .gAPI                                   :  {F}
SON3               .                                       :  {F}
~Ascii
# ...
3724       9.615467   117.8092   129.98    
3724.4     9.599752   121.4807   128.2344  
3724.8     9.622349   124.5981   126.3441  
3725.2     9.622297   125.7847   124.9194  
3725.6     9.622246   125.6107   123.7946  
3726       9.642126   123.0936   123.057   
3726.4     9.662006   122.9809   122.4795  
3726.8     9.683556   121.2994   122.3724  
3727.2     9.741629   121.0002   121.8765  
3727.6     9.761511   120.5288   120.2582  
3728       9.915585   120.293    119.2664  
3728.4     10.04268   118.2004   112.963   
3728.8     10.0426    116.5217   110.4493  
3729.2     10.06029   112.8298   110.1745  
3729.6     10.06024   106.6476   111.962   
3730       10.13993   100.9667   117.5676  
3730.4     10.51858   80.95078   124.6747  
3730.8     10.91721   68.97429   127.0771  
3731.2     11.41549   55.65908   128.8789  
3731.6     11.97356   44.82469   127.6432  
3732       12.15293   34.12666   126.3051  
3732.4     12.32169   31.57145   125.3754  
3732.8     12.41984   28.25008   126.5716  
3733.2     12.87043   26.81376   129.0266  
3733.6     13.54816   25.37742   133.7838  
3734       13.79942   23.94146   139.1892  
3734.4     14.67893   22.62188   139.7898  
3734.8     14.95247   21.97031   138.8979  
3735.2     16.31895   21.42378   136.4653  
3735.6     16.15238   21.72177   133.4309  
3736       16.73037   22.46795   131.1812  
3736.4     17.0493    23.29342   132.0684  
3736.8     17.52765   24.41688   134.5295  
3737.2     17.44787   25.90406   137.6169  
3737.6     17.10161   27.7145    148.8286  
3738       16.12149   30.38755   149.5996  
3738.4     14.81328   39.65661   152.1021  
3738.8     13.16912   66.56876   152.7599  
3739.2     11.95303   78.82901   151.1087  
3739.6     10.17867   97.06976   149.6353  
3740       9.740032   102.4522   144.2943  
3740.4     9.739981   110.3845   143.0011  
3740.8     9.713194   113.069    141.5746  
3741.2     9.637491   114.2749   141.0071  
3741.6     9.544281   115.6088   140.5974  
3742       9.385946   114.1069   139.445   
3742.4     9.34099    108.4007   137.1759  
3742.8     9.320999   101.2761   135.0851  
3743.2     9.320946   96.50739   130.5806  
3743.6     9.360767   93.55402   126.3764  
3744       9.413294   95.57262   119.7698  
3744.4     9.440413   98.48532   110.961   
3744.8     9.460299   98.41917   110.036   
3745.2     9.460247   98.16563   108.2974  
3745.6     9.460196   97.02977   109.2696  
3746       9.460142   98.40994   111.7618  
3746.4     9.460091   99.64655   112.2623  
3746.8     9.460037   102.4898   112.5626  
3747.2     9.459986   105.2121   112.4915  
3747.6     9.479874   108.5997   113.4993  
3748       9.459881   112.476    115.1167  
3748.4     9.479769   116.8007   117.4585  
3748.8     9.499657   119.8074   118.0681  
3749.2     9.519545   119.0314   116.4129  
3749.6     9.698954   116.101    115.5595  
3750       9.823229   108.1256   106.3564  
3750.4     9.938147   106.0316   102.553   
3750.8     9.997917   104.5858   100.6362  
3751.2     10.02712   104.8344   101.412   
3751.6     10.01776   101.7512   104.4085  
3752       10.03765   92.86919   108.1582  
3752.4     10.0747    81.57358   114.6647  
3752.8     10.05182   72.69768   118.6687  
3753.2     11.49323   62.84107   125.2753  
3753.6     16.96646   55.97887   135.0851  
3754       18.26257   52.12944   138.989   
3754.4     18.60152   48.9465    150.2002  
3754.8     19.00404   45.76366   153.5035  
3755.2     18.92864   43.92958   154.8048  
3755.6     18.78061   42.40522   153.8038  
3756       16.19943   42.24399   145.3954  
3756.4     14.16755   41.41187   141.1912  
3756.8     13.0285    41.411     140.991   
3757.2     12.64273   39.02612   141.2913  
3757.6     12.56977   36.74789   141.6917  
3758       12.5498    36.622     140.7075  
3758.4     12.5479    36.32194   136.4865  
3758.8     12.51215   37.51766   134.0841  
3759.2     12.48989   37.81592   126.0761  
3759.6     12.49881   38.75912   123.3734  
3760       12.61782   41.10491   122.7728  
3760.4     12.70868   41.60636   122.5726  
3760.8     12.8975    43.32745   122.6741  
3761.2     13.0083    44.69234   122.7728  
3761.6     13.38723   44.99068   122.8305  
3762       13.46492   45.51235   123.4472  
3762.4     13.54675   46.18571   125.2118  
3762.8     13.52679   46.48405   127.1786  
3763.2     13.30737   46.48323   128.6223  
3763.6     12.92838   45.32701   128.6195  
3764       12.32998   45.69288   128.2783  
3764.4     11.91263   45.53252   124.5676  
3764.8     11.43235   47.72749   114.965   
3765.2     10.98635   50.91563   113.4226  
3765.6     10.09589   54.05189   113.1632  
3766       9.968687   57.60388   115.966   
3766.4     9.617056   59.34226   129.0791  
3766.8     9.617004   63.43085   133.1832  
3767.2     9.597006   68.45039   136.1432  
3767.6     9.596956   74.39284   137.3874  
3768       9.603445   81.78023   136.5866  
3768.4     9.656696   83.51152   127.3774  
3768.8     9.656645   83.40402   123.974   
3769.2     9.78179    78.48138   118.8781  
3769.6     9.824291   72.72847   115.9502  
3770       10.95314   60.83202   114.052   
3770.4     11.44598   47.88262   112.6627  
3770.8     11.67118   39.09374   112.2623  
3771.2     11.69569   32.83142   112.6814  
3771.6     11.73105   29.70892   114.0344  
3772       11.83677   29.59679   115.9247  
3772.4     11.97028   28.8093    118.3877  
3772.8     12.24954   28.52797   120.9608  
3773.2     12.28941   27.69239   123.2978  
3773.6     12.04997   27.01094   125.0793  
3774       11.91031   28.12494   125.6382  
3774.4     11.6629    27.62422   126.0561  
3774.8     11.50907   29.10275   125.5383  
3775.2     11.1521    31.71074   125.161   
3775.6     10.27425   36.32198   125.1752  
3776       9.97492    41.70995   126.8769  
3776.4     10.0547    45.94633   128.7788  
3776.8     10.0347    48.5604    132.1642  
3777.2     10.07547   50.42828   134.6779  
3777.6     10.29863   52.73811   136.1946  
3778       10.33384   57.47749   136.6867  
3778.4     10.19414   60.51772   136.987   
3778.8     9.84906    71.92856   138.2586  
3779.2     9.772026   80.07491   139.861   
3779.6     9.555519   88.75696   141.4915  
3780       9.555468   94.80489   142.0921  
3780.4     9.584881   98.83981   140.6131  
3780.8     9.814747   99.31705   139.1208  
3781.2     10.11399   94.84525   137.8688  
3781.6     10.29351   87.28351   137.4875  
3782       10.52085   83.85625   138.3215  
3782.4     11.17135   67.09218   139.1817  
3782.8     11.84974   59.43315   139.5646  
3783.2     12.26872   52.80066   138.1868  
3783.6     12.07406   49.8866    135.1799  
3784       11.82969   50.63055   130.1802  
3784.4     11.41061   50.80378   128.8315  
3784.8     11.15117   52.45948   127.4866  
3785.2     11.07567   54.8392    128.1895  
3785.6     11.03137   54.69668   129.6355  
3786       11.03133   54.51772   129.4218  
3786.4     10.97142   53.57063   127.9583  
3786.8     10.77007   52.72026   125.0663  
3787.2     10.69197   53.2346    121.7294  
3787.6     10.47243   55.70017   121.2713  
3788       10.40561   60.16791   122.5933  
3788.4     10.25283   63.77576   124.5096  
3788.8     10.25278   67.64507   126.8953  
3789.2     10.33256   73.47678   129.598   
3789.6     10.17287   79.52058   131.8892  
3790       9.554182   90.13159   134.7848  
3790.4     9.535107   96.8443    137.988   
3790.8     9.528831   103.9977   142.3924  
3791.2     9.613897   108.7585   144.7948  
3791.6     9.653759   111.0844   147.5976  
3792       9.694643   108.3899   148.999   
3792.4     9.733486   104.8866   149.717   
3792.8     9.733437   95.29443   149.8042  
3793.2     9.733387   79.94954   149.6264  
3793.6     9.733337   73.02428   149.0488  
3794       9.694443   66.46573   148.5446  
3794.4     9.673363   63.48274   148.3028  
3794.8     9.443165   65.36649   148.2983  
3795.2     9.074511   71.36389   148.1379  
3795.6     8.735172   77.13824   147.5604  
3796       8.696266   87.38025   145.2433  
3796.4     8.85117    90.96965   143.2859  
