~Version
 VERS              .         3.0                           : CWLS LOG ASCII STANDARD - VERSION 3.0
 WRAP              .         NO                            : ONE LINE PER DEPTH STEP
 DLM               .         SPACE                         : DELIMITING CHARACTER(SPACE TAB OR COMMA)
~Well Information
#_______________________________________________________________________________
#
#PARAMETER_NAME    .UNIT     VALUE                         : DESCRIPTION
#_______________________________________________________________________________
STRT               .ft       5984                          : First reference value
STOP               .ft       6354                          : Last reference value
STEP               .ft       0.5                           : Step increment
NULL               .         -9999                         : Missing value
COMP               .                                       : Company
WELL               .         EGBM-009-ST1                  : Well name
FLD                .         WILDCAT                       : Field
LOC                .                                       : Location
SRVC               .                                       : Service Company
CTRY               .                                       : Country
DATE               .                                       : Service Date
X                  .                                       : X or East-West coordinate
Y                  .                                       : Y or North South coordinate
GDAT               .                                       : Geodetic Datum
HZCS               .                                       : Horizontal Co-ordinate System
CREATION-TIME      .         1992/3/5 0_0                  : 
FIELD-NAME         .         WILDCAT                       : 
FILE-ID            .         BPBLIS.003                    : 
FILE-NUMBER        .         3                             : 
FILE-SET-NAME      .         EGBEMA-9                      : 
FILE-SET-NUMBER    .         0                             : 
FILE-TYPE          .                                       : 
NAME-SPACE-NAME    .         LIS                           : 
NAME-SPACE-VERSION .         0                             : 
PRODUCER-CODE      .         440                           : 
PRODUCER-NAME      .         Schlumberger                  : 
PRODUCT            .         LIS                           : 
PROGRAMS           .                                       : 
VERSION            .                                       : 
WELL-NAME          .                                       : 
~Parameter Information Block
#_______________________________________________________________________________
#
#PARAMETER_NAME    .UNIT     VALUE                         : DESCRIPTION
#_______________________________________________________________________________
SET                .         BPBLIS_001_1                  : 
ACQUISITION-PRODUCT .         DLIS/U                        : 
CREATION-TIME      .         2026/5/15 11_47               : 
DLIS_FRAME_DIRECTION .         DECREASING                    : 
DLIS_FRAME_NAME    .         1                             : 
DLIS_FRAME_SPACING .0.1_in   -60                           : 
FIELD-NAME         .         WILDCAT                       : 
FILE-ID            .         BPBLIS.001                    : 
FILE-NUMBER        .         1                             : 
FILE-SET-NAME      .         LIS-TO-DLIS-CONVERSION        : 
FILE-SET-NUMBER    .         5992                          : 
FILE-TYPE          .                                       : 
INDEX-TYPE         .         BOREHOLE-DEPTH                : 
NAME-SPACE-NAME    .                                       : 
NAME-SPACE-VERSION .         0                             : 
OriginalDatasetName .         1                             : 
PRODUCER-CODE      .         440                           : 
PRODUCER-NAME      .         Schlumberger                  : 
PRODUCT            .         DLIS/U                        : 
PROGRAMS           .         LIS-TO-DLIS                   : 
TLFamily_AVOL      .                                       : 
TLFamily_BS        .         Bit Size                      : 
TLFamily_CALI      .         Caliper                       : 
TLFamily_DCRF      .                                       : 
TLFamily_DCRN      .                                       : 
TLFamily_DEPT      .         Measured Depth                : 
TLFamily_DPHI      .                                       : 
TLFamily_DRHO      .         Bulk Density Correction       : 
TLFamily_FCNL      .                                       : 
TLFamily_GR        .         Gamma Ray                     : 
TLFamily_HVOL      .         Hydrocarbon Volume Fraction   : 
TLFamily_LLD       .         Resistivity - Deep Laterolog  : 
TLFamily_LLS       .         Resistivity - Shallow Laterolog: 
TLFamily_MLL       .         Resistivity - Micro           : 
TLFamily_NCNL      .                                       : 
TLFamily_NPHI      .         Neutron Porosity              : 
TLFamily_NRAT      .         Thermal Neutron Near Far Ratio: 
TLFamily_RHOB      .         Bulk Density                  : 
TLFamily_SP        .         Spontaneous Potential         : 
TLFamily_TEMP      .         Temperature                   : 
TLFamily_TENS      .         Tension                       : 
TLFamily_TIME      .         Date Time                     : 
VERSION            .         0.1                           : 
WELL-NAME          .                                       : 
~Curve Information
#_______________________________________________________________________________
#
#LOGNAME           .UNIT     LOG_ID                        : DESCRIPTION
#_______________________________________________________________________________
DEPT               .ft                                     :  {F}
AVOL               .m3                                     :  {F}
BS                 .in                                     :  {F}
CALI               .in                                     :  {F}
DCRF               .SDU                                    :  {F}
DCRN               .SDU                                    :  {F}
DPHI               .%                                      :  {F}
DRHO               .g/cm3                                  :  {F}
FCNL               .1/s                                    :  {F}
GR                 .gAPI                                   :  {F}
HVOL               .m3                                     :  {F}
LLD                .ohm.m                                  :  {F}
LLS                .ohm.m                                  :  {F}
MLL                .ohm.m                                  :  {F}
NCNL               .1/s                                    :  {F}
NPHI               .%                                      :  {F}
NRAT               .                                       :  {F}
RHOB               .g/cm3                                  :  {F}
SP                 .mV                                     :  {F}
TEMP               .degC                                   :  {F}
TENS               .lbm                                    :  {F}
TIME               .ms                                     : {F}
~Ascii
# ...
6298.5     0          8.5        9.421413   2634.237   16981.95   19.60287   0.05951229 1282.888   145.9803   0.00689047 1.7834     1.652091   1.729234   5588.677   52.03098   4.282861   2.374791   -9999      64.86816   2853.757   1500      
6299       0          8.5        9.49152    2689.344   16925.64   20.43229   0.05453152 1222.951   146.9909   0.007039999 1.737597   1.600455   1.635137   5436.625   53.21688   4.302038   2.360608   -9999      64.86816   2845.688   1480      
6299.5     0          8.5        9.598436   2690.47    16806.48   21.34412   0.04882065 1205.41    144.6336   0.00712721 1.695224   1.53754    1.565276   5315.688   55.22697   4.333963   2.345016   -9999      64.86816   2950.58    1420      
6300       0          8.5        9.615614   2670.144   16768.39   21.41949   0.04848717 1253.971   143.7014   0.007176833 1.681113   1.517347   1.560357   5357.006   55.65765   4.340368   2.343727   -9999      64.86816   2972.264   1360      
6300.5     0          8.5        9.667068   2681.705   16925.64   21.05735   0.05212466 1269.825   143.8186   0.007199964 1.677555   1.520154   1.548988   5450.246   55.92591   4.34836    2.349919   -9999      64.86816   2899.646   1500      
6301       0          8.5        9.658789   2671.521   16892.57   20.59727   0.05473496 1219.73    143.0311   0.007115146 1.704337   1.554159   1.518101   5525.063   56.0696    4.354399   2.357787   -9999      64.86816   2863.338   1480      
6301.5     0          8.5        9.53278    2625.656   17051.73   19.36628   0.05720318 1244.856   140.0251   0.006996581 1.821751   1.676534   1.613255   5371.033   56.04343   4.36015    2.378837   -9999      64.86816   2834.594   1420      
6302       0          8.5        9.495462   2519.883   16357.32   18.97336   0.0549524  1288.903   138.3064   0.006934691 1.936803   1.781009   1.765265   5309.232   55.43189   4.350122   2.385555   -9999      64.86816   2889.057   1440      
6302.5     0          8.5        9.442942   2534.039   16271.67   18.60711   0.04659288 1423.633   137.6312   0.00686934 2.284415   2.11857    2.09395    5896.445   52.38684   4.297615   2.391819   -9999      64.86816   2872.919   1520      
6303       0          8.5        9.423031   2541.314   16101.45   18.47875   0.04308219 1432.037   137.0748   0.006823598 2.54689    2.364894   2.246498   5984.069   50.62287   4.275439   2.394013   -9999      64.86816   2840.645   1480      
6303.5     0          8.5        9.397663   2498.266   16115.92   17.53496   0.04111004 1473.388   134.7654   0.006868253 3.045532   2.847027   3.177066   6111.891   48.03896   4.269567   2.410152   -9999      64.86816   2877.458   1400      
6304       0          8.5        9.457888   2427.274   16084.77   16.67483   0.0443483  1557.82    133.6337   0.006835995 3.165213   2.964809   3.318606   6660.596   46.92087   4.273767   2.42486    -9999      64.86816   2912.254   1360      
6304.5     0          8.5        9.352247   2321.934   15373.61   15.73426   0.0565669  1574.444   -9999      0.00662968 2.938015   2.799098   3.391615   6902.255   44.25822   4.247772   2.440944   -9999      64.86816   2932.425   1460      
6305       0          8.5        9.192913   2402.055   16514.62   16.0096    0.06227119 1464.371   -9999      0.006618197 2.764196   2.661286   3.045425   6548.669   43.46498   4.223782   2.436236   -9999      64.86816   2937.973   1460      
6305.5     0          8.5        9.340734   2583.985   16888.45   17.81314   0.0683582  1367.133   -9999      0.006857796 2.53088    2.433722   2.20597    5689.863   45.00861   4.213625   2.405395   -9999      64.82747   2917.801   1400      
6306       0          8.5        9.470831   2604.242   16942.16   18.60693   0.06941278 1328.77    -9999      0.006947655 2.492197   2.374692   2.277875   5730.485   47.02101   4.233438   2.391821   -9999      64.80713   2854.261   1380      
6306.5     0          8.5        9.46035    2682.536   17236.82   18.58995   0.07166241 1372.457   -9999      0.006961626 2.425421   2.269242   2.623458   5849.077   50.25813   4.273891   2.392112   -9999      64.77661   2852.244   1500      
6307       0          8.5        9.492537   2562.438   17270.7    18.44859   0.0728097  1308.423   -9999      0.007127368 2.318121   2.167485   2.513916   6056.744   50.96938   4.284181   2.394529   -9999      64.77661   2845.688   1480      
6307.5     0          8.5        9.707731   2617.032   16433.89   18.70964   0.07407075 1264.675   -9999      0.007331011 2.077235   1.95252    2.265865   5581.584   51.90846   4.29138    2.390065   -9999      64.77661   2823.5     1400      
6308       0          8.5        9.773907   2685.504   17264.43   19.80548   0.07066317 1238.81    -9999      0.007385954 1.8694     1.758085   1.784731   5354.888   53.61924   4.304914   2.371326   -9999      64.74609   2841.654   1360      
6308.5     0          8.5        9.784843   2692.917   17190.82   20.13478   0.06958927 1193.566   -9999      0.007405011 1.809466   1.697425   1.789805   5328.944   54.89664   4.321836   2.365695   -9999      64.74609   2855.27    1480      
6309       0          8.5        9.800779   2659.643   17180.6    20.51447   0.06658347 1230.3     -9999      0.00741503 1.757124   1.63716    1.664466   5363.913   56.72944   4.349436   2.359202   -9999      64.77661   2891.578   1440      
6309.5     0          8.5        9.80006    2684.307   17071.66   20.77557   0.06661925 1281.599   -9999      0.007414874 1.749925   1.624001   1.655156   5406.794   56.87318   4.352058   2.354738   -9999      64.74609   2912.758   1400      
6310       0          8.5        9.783518   2826.287   17336.88   20.90837   0.0732495  1239.767   -9999      0.007388474 1.755985   1.617377   1.693297   5356.923   55.87878   4.333226   2.352467   -9999      64.74609   2881.492   1400      
6310.5     0          8.5        9.775841   2729.326   17797.85   20.89475   0.07605988 1246.495   -9999      0.00737475 1.750782   1.609302   1.727509   5496.898   55.35342   4.325119   2.3527     -9999      64.74609   2860.816   1500      
6311       0          8.5        9.781958   2757.198   17490.38   20.70877   0.07679369 1255.952   -9999      0.007387687 1.719096   1.584062   1.70086    5336.84    56.12      4.352967   2.35588    -9999      64.74609   2767.02    1440      
6311.5     0          8.5        9.786314   2722.496   17231.21   20.8963    0.07328087 1182.397   -9999      0.007382098 1.702442   1.575568   1.648961   5477.198   57.16364   4.38235    2.352673   -9999      64.74609   2791.729   1400      
6312       0          8.5        9.770443   2787.343   17197.63   21.50557   0.06687805 1277.689   -9999      0.007358486 1.739826   1.621483   1.732498   5492.657   58.22349   4.415942   2.342255   -9999      64.74609   2947.05    1360      
6312.5     0          8.5        9.745295   2780.564   17299.43   21.54133   0.06710842 1272.133   -9999      0.007316694 1.823376   1.701419   1.780834   5373.952   57.6457    4.404924   2.341643   -9999      64.74609   2957.135   1480      
6313       0          8.5        9.727407   2797.733   17472.42   21.01768   0.06659968 1329.282   -9999      0.00730441 2.143018   1.984848   2.049884   5680.017   63.46836   4.504193   2.350597   -9999      64.74609   2925.87    1460      
6313.5     0          8.5        9.726852   2681.114   17479.45   20.54869   0.0629103  -9999      -9999      0.007263973 2.305603   2.133968   2.13329    5630.521   70.63503   4.632346   2.358617   -9999      64.74609   2907.211   1420      
6314       0          8.5        9.642639   2552.685   16277.44   19.38021   0.05337767 -9999      -9999      0.007096969 2.519549   2.33674    2.325637   -9999      -9999      -9999      2.378598   -9999      64.74609   2843.167   1400      
6314.5     0          8.5        9.550522   2529.947   15985.5    18.7406    0.05037402 -9999      -9999      0.006955401 2.533083   2.362505   2.37607    -9999      -9999      -9999      2.389535   -9999      64.74609   2865.355   1500      
