~Version
 VERS              .         3.0                           : CWLS LOG ASCII STANDARD - VERSION 3.0
 WRAP              .         NO                            : ONE LINE PER DEPTH STEP
 DLM               .         SPACE                         : DELIMITING CHARACTER(SPACE TAB OR COMMA)
~Well Information
#_______________________________________________________________________________
#
#PARAMETER_NAME    .UNIT     VALUE                         : DESCRIPTION
#_______________________________________________________________________________
STRT               .ft       5984                          : First reference value
STOP               .ft       6354                          : Last reference value
STEP               .ft       0.5                           : Step increment
NULL               .         -9999                         : Missing value
COMP               .                                       : Company
WELL               .         EGBM-009-ST1                  : Well name
FLD                .         WILDCAT                       : Field
LOC                .                                       : Location
SRVC               .                                       : Service Company
CTRY               .                                       : Country
DATE               .                                       : Service Date
X                  .                                       : X or East-West coordinate
Y                  .                                       : Y or North South coordinate
GDAT               .                                       : Geodetic Datum
HZCS               .                                       : Horizontal Co-ordinate System
CREATION-TIME      .         1992/3/5 0_0                  : 
FIELD-NAME         .         WILDCAT                       : 
FILE-ID            .         BPBLIS.003                    : 
FILE-NUMBER        .         3                             : 
FILE-SET-NAME      .         EGBEMA-9                      : 
FILE-SET-NUMBER    .         0                             : 
FILE-TYPE          .                                       : 
NAME-SPACE-NAME    .         LIS                           : 
NAME-SPACE-VERSION .         0                             : 
PRODUCER-CODE      .         440                           : 
PRODUCER-NAME      .         Schlumberger                  : 
PRODUCT            .         LIS                           : 
PROGRAMS           .                                       : 
VERSION            .                                       : 
WELL-NAME          .                                       : 
~Parameter Information Block
#_______________________________________________________________________________
#
#PARAMETER_NAME    .UNIT     VALUE                         : DESCRIPTION
#_______________________________________________________________________________
SET                .         BPBLIS_001_1                  : 
ACQUISITION-PRODUCT .         DLIS/U                        : 
CREATION-TIME      .         2026/5/15 11_47               : 
DLIS_FRAME_DIRECTION .         DECREASING                    : 
DLIS_FRAME_NAME    .         1                             : 
DLIS_FRAME_SPACING .0.1_in   -60                           : 
FIELD-NAME         .         WILDCAT                       : 
FILE-ID            .         BPBLIS.001                    : 
FILE-NUMBER        .         1                             : 
FILE-SET-NAME      .         LIS-TO-DLIS-CONVERSION        : 
FILE-SET-NUMBER    .         5992                          : 
FILE-TYPE          .                                       : 
INDEX-TYPE         .         BOREHOLE-DEPTH                : 
NAME-SPACE-NAME    .                                       : 
NAME-SPACE-VERSION .         0                             : 
OriginalDatasetName .         1                             : 
PRODUCER-CODE      .         440                           : 
PRODUCER-NAME      .         Schlumberger                  : 
PRODUCT            .         DLIS/U                        : 
PROGRAMS           .         LIS-TO-DLIS                   : 
TLFamily_AVOL      .                                       : 
TLFamily_BS        .         Bit Size                      : 
TLFamily_CALI      .         Caliper                       : 
TLFamily_DCRF      .                                       : 
TLFamily_DCRN      .                                       : 
TLFamily_DEPT      .         Measured Depth                : 
TLFamily_DPHI      .                                       : 
TLFamily_DRHO      .         Bulk Density Correction       : 
TLFamily_FCNL      .                                       : 
TLFamily_GR        .         Gamma Ray                     : 
TLFamily_HVOL      .         Hydrocarbon Volume Fraction   : 
TLFamily_LLD       .         Resistivity - Deep Laterolog  : 
TLFamily_LLS       .         Resistivity - Shallow Laterolog: 
TLFamily_MLL       .         Resistivity - Micro           : 
TLFamily_NCNL      .                                       : 
TLFamily_NPHI      .         Neutron Porosity              : 
TLFamily_NRAT      .         Thermal Neutron Near Far Ratio: 
TLFamily_RHOB      .         Bulk Density                  : 
TLFamily_SP        .         Spontaneous Potential         : 
TLFamily_TEMP      .         Temperature                   : 
TLFamily_TENS      .         Tension                       : 
TLFamily_TIME      .         Date Time                     : 
VERSION            .         0.1                           : 
WELL-NAME          .                                       : 
~Curve Information
#_______________________________________________________________________________
#
#LOGNAME           .UNIT     LOG_ID                        : DESCRIPTION
#_______________________________________________________________________________
DEPT               .ft                                     :  {F}
AVOL               .m3                                     :  {F}
BS                 .in                                     :  {F}
CALI               .in                                     :  {F}
DCRF               .SDU                                    :  {F}
DCRN               .SDU                                    :  {F}
DPHI               .%                                      :  {F}
DRHO               .g/cm3                                  :  {F}
FCNL               .1/s                                    :  {F}
GR                 .gAPI                                   :  {F}
HVOL               .m3                                     :  {F}
LLD                .ohm.m                                  :  {F}
LLS                .ohm.m                                  :  {F}
MLL                .ohm.m                                  :  {F}
NCNL               .1/s                                    :  {F}
NPHI               .%                                      :  {F}
NRAT               .                                       :  {F}
RHOB               .g/cm3                                  :  {F}
SP                 .mV                                     :  {F}
TEMP               .degC                                   :  {F}
TENS               .lbm                                    :  {F}
TIME               .ms                                     : {F}
~Ascii
# ...
6150       0          8.5        8.522223   3187.684   17186.5    31.44365   0.006261333 2046.706   30.52769   0.005607406 14.72089   13.80062   8.499477   7936.99    23.34229   3.883619   2.172314   199.389    65.29541   2724.659   1400      
6150.5     0          8.5        8.522032   3188.929   17173.93   31.31288   0.006168762 2042.246   31.34322   0.005607329 14.63071   13.70825   8.402399   7999.993   23.27099   3.879494   2.17455    199.2682   65.31575   2698.941   1440      
6151       0          8.5        8.522232   3150.051   17114.22   30.62365   0.01011148 2112.937   30.73466   0.005609086 14.50341   13.58625   7.723667   7947.792   22.64055   3.840268   2.186336   198.8905   65.35645   2716.591   1540      
6151.5     0          8.5        8.525545   3079.612   17303.38   30.03427   0.01532081 2088.042   28.55204   0.005608629 14.48069   13.56723   7.647864   7794.121   21.83525   3.788247   2.196414   198.2944   65.23438   2688.855   1460      
6152       0          8.5        8.520298   3108.778   17200.41   29.98366   0.01660617 2024.362   27.33419   0.005593619 14.45501   13.5469    7.596244   7693.234   21.81987   3.785152   2.197279   198.0598   65.27505   2700.454   1360      
6152.5     0          8.5        8.497835   3194.958   17342.45   30.3733    0.01495736 1947.352   26.55713   0.005575729 14.4063    13.51349   7.983448   7885.35    22.66954   3.833792   2.190617   197.6163   65.26489   2754.412   1380      
6153       0          8.5        8.493687   3169.37    17298.2    30.69257   0.01309879 2073.045   26.8056    0.005570563 14.37585   13.49417   7.985898   7974.593   23.1694    3.863054   2.185157   197.4755   65.27505   2755.421   1520      
6153.5     0          8.5        8.493732   3167.924   17259.83   31.1331    0.01185036 1961.495   26.69532   0.005575762 14.22467   13.36669   8.031538   7779.949   23.88121   3.902391   2.177624   197.0176   65.23438   2716.591   1440      
6154       0          8.5        8.493382   3210.974   17386.59   31.21479   0.01282868 1982.638   26.63621   0.005572665 14.1609    13.31087   8.105217   7770.5     24.20086   3.916078   2.176227   196.4464   65.23438   2737.267   1380      
6154.5     0          8.5        8.501942   3240.206   17533.19   31.29034   0.01439014 1921.452   25.63325   0.005586307 13.9909    13.14538   7.981581   7851.308   25.25099   3.95889    2.174935   194.5694   65.26489   2794.251   1440      
6155       0          8.5        8.511477   3208.495   17465.23   31.40339   0.01311658 1909.309   24.4133    0.005603427 13.86399   13.03933   8.01602    7774.929   25.81562   3.982279   2.173002   193.2055   65.23438   2750.378   1500      
6155.5     0          8.5        8.522198   3200.583   17234.26   32.04029   0.006997458 1974.905   22.15112   0.005607654 13.60898   12.80941   7.63813    7872.002   26.1596    3.994747   2.162111   189.9356   65.23438   2672.213   1440      
6156       0          8.5        8.522591   3274.75    17089.76   32.43979   0.004650593 1964.431   21.67938   0.005608348 13.46073   12.67908   7.503552   7707.717   26.04332   3.98848    2.15528    189.2816   65.23438   2678.265   1380      
6156.5     0          8.5        8.522017   3338.878   17564.71   32.83007   0.005986388 1878.393   22.60925   0.005606892 13.3217    12.54011   7.419612   7872.582   25.97836   3.982062   2.148606   190.624    65.23438   2716.086   1400      
6157       0          8.5        8.521233   3296.624   17546.85   32.73386   0.009117411 1922.47    23.90669   0.005607224 13.34622   12.55564   7.443137   7597.127   26.18949   3.989269   2.150251   192.2413   65.23438   2721.129   1500      
6157.5     0          8.5        8.521839   3312.987   17650.35   32.54729   0.01202644 1868.668   26.93761   0.005616248 13.48343   12.66835   7.636458   7668.891   26.78188   4.013227   2.153441   196.3177   65.23438   2774.584   1460      
6158       0          8.5        8.524958   3290.353   17651.83   32.68763   0.009655682 1975.254   27.49592   0.00562302 13.55443   12.73177   7.646677   7622.308   26.75695   4.013865   2.151042   197.9993   65.23438   2758.446   1400      
6158.5     0          8.5        8.542767   3300.313   17217.59   33.00873   0.001759751 2034.557   28.10393   0.005640827 13.63444   12.80976   7.65675    7922.445   25.96188   3.987054   2.145551   200.1903   65.23438   2746.344   1420      
6159       0          8.5        8.550844   3292.861   17018.67   32.99855   -0.001017221 1976.373   28.53971   0.005649368 13.65718   12.84333   7.477557   7836.948   25.48393   3.970119   2.145725   201.0378   65.23438   2732.728   1480      
6159.5     0          8.5        8.554651   3244.605   17069.95   32.60791   -0.0008974711 1976.713   27.39666   0.005650305 13.67451   12.88771   7.451685   7784.673   24.68415   3.938403   2.152405   200.9709   65.23438   2696.923   1460      
6160       0          8.5        8.554491   3242.294   17284.7    32.3377    0.001076174 1975.002   26.3516    0.005651277 13.64369   12.88689   7.524895   7834.784   24.52433   3.930467   2.157025   200.6675   65.23438   2704.992   1380      
6160.5     0          8.5        8.555202   3208.375   17210.91   32.04971   0.004633236 1913.142   24.40582   0.005651256 13.55747   12.86451   7.844561   7685.511   24.66459   3.930655   2.16195    199.9339   65.23438   2746.848   1360      
6161       0          8.5        8.555363   3219.533   17308.44   32.0812    0.005550162 1971.152   23.84379   0.005651108 13.50672   12.84212   7.793123   7597.938   24.7373    3.930359   2.161411   199.5428   65.23438   2752.395   1520      
6161.5     0          8.5        8.554651   3323.217   17428.82   32.44038   0.004477882 1989.101   25.64618   0.005651279 13.47148   12.83177   7.511763   7558.157   24.80524   3.927983   2.155269   198.755    65.23438   2751.891   1440      
6162       0          8.5        8.555059   3281.992   17256.08   32.99522   0.001099475 1949.488   30.21124   0.005657213 13.48361   12.80615   7.294482   7647.288   24.65583   3.918654   2.145782   198.248    65.23438   2741.301   1380      
6162.5     0          8.5        8.555918   3251.485   17005.94   33.30972   -0.0003674507 1964.543   32.88644   0.005652062 13.15345   12.51063   7.260955   7643.041   24.71496   3.919131   2.140404   197.5417   65.23438   2738.275   1400      
6163       0          8.5        8.555599   3371.149   17359.74   33.44379   0.00140214 1857.714   34.70668   0.005662827 12.4007    11.81318   5.140521   7598.784   25.01154   3.923483   2.138111   195.7691   65.23438   2783.156   1520      
6163.5     0          8.5        8.566046   3370.732   17629.35   32.93333   0.006195211 1944.799   32.1711    0.005861559 12.08861   11.54132   4.596775   7463.923   25.06792   3.921133   2.14684    194.3573   65.23438   2790.721   1440      
6164       0          8.5        8.975098   3159.948   17516.1    31.06298   0.01691914 1902.802   26.39605   0.006154509 12.1747    11.6136    4.754461   7235.87    25.31538   3.927545   2.178823   192.3316   65.23438   2761.472   1420      
6164.5     0          8.5        8.960821   3100.964   17659.18   30.25901   0.01858195 1858.772   25.26796   0.005986191 12.78594   12.16268   5.226739   7325.088   25.44131   3.93696    2.192571   191.173    65.23438   2767.02    1420      
6165       0          8.5        8.540314   3062.868   17096.71   29.90254   0.01272605 2059.318   27.50452   0.005667732 14.4618    13.68281   8.122585   7943.355   25.25568   3.948273   2.198667   189.6073   65.23438   2773.575   1520      
6165.5     0          8.5        8.533031   3112.768   16679.24   30.2137    0.008525657 2063.963   29.99271   0.005614515 15.24013   14.40551   8.367222   8159.4     24.82806   3.9381     2.193346   189.0538   65.23438   2767.523   1480      
6166       0          8.5        8.521841   3158.956   17269.34   30.91801   0.00584933 2047.221   33.19977   0.005613337 15.82847   15.00894   8.954336   8137.492   23.40059   3.877395   2.181302   189.8195   65.23438   2756.429   1380      
