~Version
 VERS              .         3.0                           : CWLS LOG ASCII STANDARD - VERSION 3.0
 WRAP              .         NO                            : ONE LINE PER DEPTH STEP
 DLM               .         SPACE                         : DELIMITING CHARACTER(SPACE TAB OR COMMA)
~Well Information
#_______________________________________________________________________________
#
#PARAMETER_NAME    .UNIT     VALUE                         : DESCRIPTION
#_______________________________________________________________________________
STRT               .ft       5984                          : First reference value
STOP               .ft       6354                          : Last reference value
STEP               .ft       0.5                           : Step increment
NULL               .         -9999                         : Missing value
COMP               .                                       : Company
WELL               .         EGBM-009-ST1                  : Well name
FLD                .         WILDCAT                       : Field
LOC                .                                       : Location
SRVC               .                                       : Service Company
CTRY               .                                       : Country
DATE               .                                       : Service Date
X                  .                                       : X or East-West coordinate
Y                  .                                       : Y or North South coordinate
GDAT               .                                       : Geodetic Datum
HZCS               .                                       : Horizontal Co-ordinate System
CREATION-TIME      .         1992/3/5 0_0                  : 
FIELD-NAME         .         WILDCAT                       : 
FILE-ID            .         BPBLIS.003                    : 
FILE-NUMBER        .         3                             : 
FILE-SET-NAME      .         EGBEMA-9                      : 
FILE-SET-NUMBER    .         0                             : 
FILE-TYPE          .                                       : 
NAME-SPACE-NAME    .         LIS                           : 
NAME-SPACE-VERSION .         0                             : 
PRODUCER-CODE      .         440                           : 
PRODUCER-NAME      .         Schlumberger                  : 
PRODUCT            .         LIS                           : 
PROGRAMS           .                                       : 
VERSION            .                                       : 
WELL-NAME          .                                       : 
~Parameter Information Block
#_______________________________________________________________________________
#
#PARAMETER_NAME    .UNIT     VALUE                         : DESCRIPTION
#_______________________________________________________________________________
SET                .         BPBLIS_001_1                  : 
ACQUISITION-PRODUCT .         DLIS/U                        : 
CREATION-TIME      .         2026/5/15 11_47               : 
DLIS_FRAME_DIRECTION .         DECREASING                    : 
DLIS_FRAME_NAME    .         1                             : 
DLIS_FRAME_SPACING .0.1_in   -60                           : 
FIELD-NAME         .         WILDCAT                       : 
FILE-ID            .         BPBLIS.001                    : 
FILE-NUMBER        .         1                             : 
FILE-SET-NAME      .         LIS-TO-DLIS-CONVERSION        : 
FILE-SET-NUMBER    .         5992                          : 
FILE-TYPE          .                                       : 
INDEX-TYPE         .         BOREHOLE-DEPTH                : 
NAME-SPACE-NAME    .                                       : 
NAME-SPACE-VERSION .         0                             : 
OriginalDatasetName .         1                             : 
PRODUCER-CODE      .         440                           : 
PRODUCER-NAME      .         Schlumberger                  : 
PRODUCT            .         DLIS/U                        : 
PROGRAMS           .         LIS-TO-DLIS                   : 
TLFamily_AVOL      .                                       : 
TLFamily_BS        .         Bit Size                      : 
TLFamily_CALI      .         Caliper                       : 
TLFamily_DCRF      .                                       : 
TLFamily_DCRN      .                                       : 
TLFamily_DEPT      .         Measured Depth                : 
TLFamily_DPHI      .                                       : 
TLFamily_DRHO      .         Bulk Density Correction       : 
TLFamily_FCNL      .                                       : 
TLFamily_GR        .         Gamma Ray                     : 
TLFamily_HVOL      .         Hydrocarbon Volume Fraction   : 
TLFamily_LLD       .         Resistivity - Deep Laterolog  : 
TLFamily_LLS       .         Resistivity - Shallow Laterolog: 
TLFamily_MLL       .         Resistivity - Micro           : 
TLFamily_NCNL      .                                       : 
TLFamily_NPHI      .         Neutron Porosity              : 
TLFamily_NRAT      .         Thermal Neutron Near Far Ratio: 
TLFamily_RHOB      .         Bulk Density                  : 
TLFamily_SP        .         Spontaneous Potential         : 
TLFamily_TEMP      .         Temperature                   : 
TLFamily_TENS      .         Tension                       : 
TLFamily_TIME      .         Date Time                     : 
VERSION            .         0.1                           : 
WELL-NAME          .                                       : 
~Curve Information
#_______________________________________________________________________________
#
#LOGNAME           .UNIT     LOG_ID                        : DESCRIPTION
#_______________________________________________________________________________
DEPT               .ft                                     :  {F}
AVOL               .m3                                     :  {F}
BS                 .in                                     :  {F}
CALI               .in                                     :  {F}
DCRF               .SDU                                    :  {F}
DCRN               .SDU                                    :  {F}
DPHI               .%                                      :  {F}
DRHO               .g/cm3                                  :  {F}
FCNL               .1/s                                    :  {F}
GR                 .gAPI                                   :  {F}
HVOL               .m3                                     :  {F}
LLD                .ohm.m                                  :  {F}
LLS                .ohm.m                                  :  {F}
MLL                .ohm.m                                  :  {F}
NCNL               .1/s                                    :  {F}
NPHI               .%                                      :  {F}
NRAT               .                                       :  {F}
RHOB               .g/cm3                                  :  {F}
SP                 .mV                                     :  {F}
TEMP               .degC                                   :  {F}
TENS               .lbm                                    :  {F}
TIME               .ms                                     : {F}
~Ascii
# ...
6084       0          8.5        8.495684   3115.171   17348.39   30.42528   0.0184343  1998.634   35.34414   0.005581413 15.29508   14.83722   8.044933   7775.332   23.05664   3.85299    2.189728   187.3866   65.38696   2834.594   1400      
6084.5     0          8.5        8.506956   3172.053   17581.88   30.55877   0.01827111 2041.021   34.14058   0.005599647 15.07616   14.63502   7.892415   7888.157   22.93926   3.843892   2.187445   187.3289   65.35645   2904.689   1360      
6085       0          8.5        8.521208   3256.32    17398.76   31.55701   0.01086114 2075.12    29.5095    0.005605496 14.65966   14.25111   7.679255   7850.243   22.9091    3.840764   2.170375   187.2907   65.35645   2952.092   1500      
6085.5     0          8.5        8.520424   3237.137   17175.49   32.01148   0.006746801 2052.159   28.51174   0.005606804 14.53807   14.12351   7.913515   7814.794   22.96454   3.844582   2.162603   187.4348   65.35645   2917.297   1500      
6086       0          8.5        8.521992   3252.738   17150.35   32.36707   0.004844347 2034.945   28.3823    0.005607623 14.54529   14.11367   7.859316   7736.689   22.97483   3.846637   2.156523   186.6706   65.35645   2903.681   1420      
6086.5     0          8.5        8.522591   3263.184   17487.58   32.39295   0.007064581 2065.828   28.58889   0.005607856 14.66015   14.20667   7.990874   7900.725   22.92833   3.844832   2.15608    186.1255   65.35645   2901.664   1420      
6087       0          8.5        8.521832   3325.43    17469.85   32.27409   0.01188911 2113.591   29.10549   0.005616763 14.89552   14.40191   7.943118   7835.592   22.83404   3.841895   2.158113   185.2937   65.35645   2860.313   1540      
6087.5     0          8.5        8.525103   3320.148   17829.92   32.14734   0.01216094 2054.832   29.06508   0.005616162 15.03726   14.52992   7.776587   8069.432   22.76898   3.839512   2.16028    185.3484   65.35645   2800.302   1500      
6088       0          8.5        8.52652    3183.416   17057.16   31.7717    0.01082212 2074.833   28.39763   0.005604422 15.13638   14.63158   7.70038    7794.658   22.7275    3.840173   2.166704   185.1894   65.35645   2863.338   1380      
6088.5     0          8.5        8.509199   3218.28    17370.46   31.37473   0.01176421 2006.416   28.26133   0.005592433 15.14927   14.64544   8.065722   7909.413   22.993     3.858304   2.173492   185.3855   65.35645   2950.075   1360      
6089       0          8.5        8.509121   3193.041   17443.25   31.17897   0.01398172 2036.76    28.77808   0.005588041 15.11397   14.60024   8.216867   8094.287   23.137     3.867012   2.176839   185.1898   65.35645   2924.356   1480      
6089.5     0          8.5        8.503101   3145.482   17516.57   30.97905   0.01770142 1996.935   29.77344   0.005585263 14.96587   14.46588   8.160217   7913.851   23.31849   3.873169   2.180258   184.3018   65.35645   2828.038   1500      
6090       0          8.5        8.506325   3169.965   17476.71   31.02378   0.01713691 1967.955   30.39908   0.005604386 14.82091   14.33092   7.966702   7567.8     23.42553   3.875192   2.179493   183.6197   65.35645   2788.704   1400      
6090.5     0          8.5        8.540697   3309.796   17544.69   31.50143   0.01283673 1957.164   31.98254   0.005628664 14.44705   13.96544   7.500912   7634.55    23.63722   3.880974   2.171325   182.3028   65.35645   2890.065   1380      
6091       0          8.5        8.542168   3144.421   17006.77   31.98303   0.01123926 2039.714   32.74154   0.005630635 14.22486   13.74371   7.486068   7740.139   23.75288   3.886744   2.16309    181.9676   65.35645   2989.914   1520      
6091.5     0          8.5        8.522423   3326.031   17845.39   33.19044   0.01056272 1882.936   32.32809   0.005609793 13.76744   13.30028   7.538883   7841.381   24.65917   3.925008   2.142443   182.377    65.35645   2954.109   1500      
6092       0          8.5        8.522215   3417.414   18084.93   34.0069    0.01013066 1814.215   31.25026   0.005608103 13.63106   13.18061   7.549047   7730.961   25.51116   3.957643   2.128482   183.0053   65.35645   2915.784   1380      
6092.5     0          8.5        8.522406   3599.665   17831.27   35.34782   0.008720269 1869.266   28.88545   0.00560802 13.69153   13.21247   7.575122   7443.322   27.43339   4.030653   2.105552   183.9969   65.35645   2859.304   1360      
6093       0          8.5        8.522614   3564.114   17997.85   35.52699   0.00839982 1813.499   28.59237   0.005611094 13.91041   13.40652   7.801577   7435.199   28.18529   4.061175   2.102489   184.5736   65.35645   2829.551   1500      
6093.5     0          8.5        8.528757   3502.785   17955.59   34.75264   0.01036018 1878.315   29.36596   0.005619757 14.48859   13.89286   8.086645   7899.97    28.42966   4.076337   2.11573    185.4708   65.35645   2929.904   1480      
6094       0          8.5        8.535204   3429.712   17818.59   34.12353   0.01096579 1935.71    30.309     0.005621882 14.71786   14.09853   8.200903   7798.847   27.99019   4.061707   2.126488   185.9214   65.35645   2999.495   1420      
6094.5     0          8.5        8.528318   3327.351   17307.74   33.13969   0.009949572 1972.041   32.37167   0.005611486 14.97      14.3129    8.440912   7748.813   26.58273   4.006629   2.143311   186.5562   65.35645   2926.374   1400      
6095       0          8.5        8.521681   3274.05    17701.11   32.77742   0.00979398 1977.026   33.1547    0.005608118 15.03703   14.37593   8.44346    7623.112   25.84469   3.975408   2.149506   186.7054   65.35645   2902.672   1500      
6095.5     0          8.5        8.522816   3234.607   17457.03   32.11989   0.01223008 2021.423   34.57754   0.005614762 15.24745   14.53453   8.79649    7874.475   24.62157   3.922637   2.16075    185.8657   65.35645   2858.295   1480      
6096       0          8.5        8.522799   3265.274   17477      31.79795   0.01337207 2026.222   35.57759   0.00561693 15.41175   14.65447   9.021534   7654.622   24.17914   3.90289    2.166255   185.1725   65.38696   2815.431   1420      
6096.5     0          8.5        8.537449   3208.75    17507.52   31.23569   0.0123686  2060.425   35.85374   0.005637379 15.75372   14.899     9.145273   7783.516   23.35647   3.865331   2.175869   184.1731   65.35645   2819.97    1360      
6097       0          8.5        8.548609   3198.791   17182.21   31.01282   0.0108661  2120.314   33.80836   0.005651039 15.71484   14.84826   9.115223   8065.914   23.01059   3.850587   2.179681   184.1449   65.35645   2857.287   1480      
6097.5     0          8.5        8.556263   3104.788   17085.57   30.944     0.008575391 2035.182   29.29914   0.005652275 15.30501   14.48438   8.535746   8073.968   22.7689    3.842649   2.180858   185.0305   65.38696   2859.304   1500      
6098       0          8.5        8.556074   3141.402   17124.86   31.12206   0.008959038 2107.934   27.92927   0.005652103 15.00966   14.22243   8.1796     7836.652   22.73518   3.841491   2.177813   185.4841   65.35645   2874.937   1440      
6098.5     0          8.5        8.555075   3218.28    17550.41   31.88199   0.00996515 2025.709   29.61076   0.005651009 14.60653   13.86024   8.065546   7853.894   22.70075   3.836421   2.164818   185.2656   65.35645   2869.39    1420      
6099       0          8.5        8.554785   3342.721   17510.5    32.45782   0.008528009 2056.169   31.4707    0.005657767 14.48144   13.71827   7.778305   7699.671   22.73068   3.831113   2.154971   184.15     65.35645   2820.978   1520      
6099.5     0          8.5        8.557198   3255.48    17575.11   32.59083   0.007050292 1951.993   32.17713   0.005663391 14.28787   13.51698   7.892221   7752.019   23.0066    3.841935   2.152697   183.9408   65.35645   2773.575   1500      
6100       0          8.5        8.575106   3287.874   17504.35   32.64048   0.005605189 1916.547   35.0396    0.005684782 13.72992   12.98785   7.179524   7693.234   24.22868   3.892329   2.151848   184.2539   65.38696   2798.285   1400      
