~Version
 VERS              .         3.0                           : CWLS LOG ASCII STANDARD - VERSION 3.0
 WRAP              .         NO                            : ONE LINE PER DEPTH STEP
 DLM               .         SPACE                         : DELIMITING CHARACTER(SPACE TAB OR COMMA)
~Well Information
#_______________________________________________________________________________
#
#PARAMETER_NAME    .UNIT     VALUE                         : DESCRIPTION
#_______________________________________________________________________________
STRT               .ft       5984                          : First reference value
STOP               .ft       6354                          : Last reference value
STEP               .ft       0.5                           : Step increment
NULL               .         -9999                         : Missing value
COMP               .                                       : Company
WELL               .         EGBM-009-ST1                  : Well name
FLD                .         WILDCAT                       : Field
LOC                .                                       : Location
SRVC               .                                       : Service Company
CTRY               .                                       : Country
DATE               .                                       : Service Date
X                  .                                       : X or East-West coordinate
Y                  .                                       : Y or North South coordinate
GDAT               .                                       : Geodetic Datum
HZCS               .                                       : Horizontal Co-ordinate System
CREATION-TIME      .         1992/3/5 0_0                  : 
FIELD-NAME         .         WILDCAT                       : 
FILE-ID            .         BPBLIS.003                    : 
FILE-NUMBER        .         3                             : 
FILE-SET-NAME      .         EGBEMA-9                      : 
FILE-SET-NUMBER    .         0                             : 
FILE-TYPE          .                                       : 
NAME-SPACE-NAME    .         LIS                           : 
NAME-SPACE-VERSION .         0                             : 
PRODUCER-CODE      .         440                           : 
PRODUCER-NAME      .         Schlumberger                  : 
PRODUCT            .         LIS                           : 
PROGRAMS           .                                       : 
VERSION            .                                       : 
WELL-NAME          .                                       : 
~Parameter Information Block
#_______________________________________________________________________________
#
#PARAMETER_NAME    .UNIT     VALUE                         : DESCRIPTION
#_______________________________________________________________________________
SET                .         BPBLIS_001_1                  : 
ACQUISITION-PRODUCT .         DLIS/U                        : 
CREATION-TIME      .         2026/5/15 11_47               : 
DLIS_FRAME_DIRECTION .         DECREASING                    : 
DLIS_FRAME_NAME    .         1                             : 
DLIS_FRAME_SPACING .0.1_in   -60                           : 
FIELD-NAME         .         WILDCAT                       : 
FILE-ID            .         BPBLIS.001                    : 
FILE-NUMBER        .         1                             : 
FILE-SET-NAME      .         LIS-TO-DLIS-CONVERSION        : 
FILE-SET-NUMBER    .         5992                          : 
FILE-TYPE          .                                       : 
INDEX-TYPE         .         BOREHOLE-DEPTH                : 
NAME-SPACE-NAME    .                                       : 
NAME-SPACE-VERSION .         0                             : 
OriginalDatasetName .         1                             : 
PRODUCER-CODE      .         440                           : 
PRODUCER-NAME      .         Schlumberger                  : 
PRODUCT            .         DLIS/U                        : 
PROGRAMS           .         LIS-TO-DLIS                   : 
TLFamily_AVOL      .                                       : 
TLFamily_BS        .         Bit Size                      : 
TLFamily_CALI      .         Caliper                       : 
TLFamily_DCRF      .                                       : 
TLFamily_DCRN      .                                       : 
TLFamily_DEPT      .         Measured Depth                : 
TLFamily_DPHI      .                                       : 
TLFamily_DRHO      .         Bulk Density Correction       : 
TLFamily_FCNL      .                                       : 
TLFamily_GR        .         Gamma Ray                     : 
TLFamily_HVOL      .         Hydrocarbon Volume Fraction   : 
TLFamily_LLD       .         Resistivity - Deep Laterolog  : 
TLFamily_LLS       .         Resistivity - Shallow Laterolog: 
TLFamily_MLL       .         Resistivity - Micro           : 
TLFamily_NCNL      .                                       : 
TLFamily_NPHI      .         Neutron Porosity              : 
TLFamily_NRAT      .         Thermal Neutron Near Far Ratio: 
TLFamily_RHOB      .         Bulk Density                  : 
TLFamily_SP        .         Spontaneous Potential         : 
TLFamily_TEMP      .         Temperature                   : 
TLFamily_TENS      .         Tension                       : 
TLFamily_TIME      .         Date Time                     : 
VERSION            .         0.1                           : 
WELL-NAME          .                                       : 
~Curve Information
#_______________________________________________________________________________
#
#LOGNAME           .UNIT     LOG_ID                        : DESCRIPTION
#_______________________________________________________________________________
DEPT               .ft                                     :  {F}
AVOL               .m3                                     :  {F}
BS                 .in                                     :  {F}
CALI               .in                                     :  {F}
DCRF               .SDU                                    :  {F}
DCRN               .SDU                                    :  {F}
DPHI               .%                                      :  {F}
DRHO               .g/cm3                                  :  {F}
FCNL               .1/s                                    :  {F}
GR                 .gAPI                                   :  {F}
HVOL               .m3                                     :  {F}
LLD                .ohm.m                                  :  {F}
LLS                .ohm.m                                  :  {F}
MLL                .ohm.m                                  :  {F}
NCNL               .1/s                                    :  {F}
NPHI               .%                                      :  {F}
NRAT               .                                       :  {F}
RHOB               .g/cm3                                  :  {F}
SP                 .mV                                     :  {F}
TEMP               .degC                                   :  {F}
TENS               .lbm                                    :  {F}
TIME               .ms                                     : {F}
~Ascii
# ...
6133.5     0          8.5        9.321049   3072.877   17280.29   28.22194   0.02831011 1903.975   37.7415    0.006717914 13.49686   12.68565   5.927989   7374.481   23.34031   3.826257   2.227405   186.5483   65.35645   2824.508   1500      
6134       0          8.5        9.387589   3008.701   17290.04   28.649     0.02433626 1992.038   37.5382    0.006613126 13.74541   12.88709   6.01501    7408.815   23.59835   3.842038   2.220102   187.2312   65.35645   2849.218   1400      
6134.5     0          8.5        8.942205   3084.402   17378.71   29.9714    0.01580847 1951.048   38.6028    0.006025357 14.49403   13.581     8.120741   7477.582   23.97812   3.871678   2.197489   188.571    65.35645   2833.585   1420      
6135       0          8.5        8.658119   3213.896   17264.43   30.70229   0.01125282 1998.425   39.29363   0.005684442 14.81562   13.87959   8.485651   7649.107   24.13087   3.886997   2.184991   188.7502   65.35645   2799.294   1520      
6135.5     0          8.5        8.554014   3227.131   17161.13   31.76746   0.00294981 2006.117   36.56183   0.005646048 15.14499   14.24104   9.036716   7825.968   24.22626   3.908891   2.166776   187.9305   65.35645   2685.829   1440      
6136       0          8.5        8.55094    3187.684   17171.33   31.77711   0.001318375 2065.527   33.39484   0.005631242 15.1791    14.28893   8.707153   7891.348   24.13304   3.912149   2.166611   187.2022   65.35645   2694.906   1380      
6136.5     0          8.5        8.529812   3146.697   16969.44   31.18616   0.001822805 2011.626   28.07737   0.005613158 15.1004    14.20593   8.515017   7838.544   23.89665   3.913138   2.176716   186.9142   65.35645   2786.182   1360      
6137       0          8.5        8.522455   3101.276   17170.11   30.8489    0.002644729 2114.145   26.75156   0.005614296 15.15253   14.23253   8.417143   7974.593   23.75864   3.909587   2.182484   187.2888   65.35645   2818.457   1520      
6137.5     0          8.5        8.522064   3123.049   16819.76   30.32443   0.00489308 2128.292   29.15961   0.005607419 15.19712   14.22962   8.707642   8224.359   23.44315   3.898099   2.191452   188.9662   65.35645   2762.985   1480      
6138       0          8.5        8.522047   3040.054   16989.29   30.30933   0.004879205 2073.891   31.40521   0.00560789 15.20353   14.21976   8.76812    8096.952   23.32893   3.894363   2.19171    189.9518   65.35645   2729.702   1400      
6138.5     0          8.5        8.522215   3136.916   16989.29   30.40075   0.004158878 2075.333   34.93276   0.005607279 15.16277   14.17275   8.593115   8083.574   23.06884   3.881264   2.190147   190.3596   65.35645   2688.351   1440      
6139       0          8.5        8.522032   3114.519   16964.33   30.49585   0.004007911 2146.31    35.56622   0.005607245 15.10012   14.12683   8.464611   8118.135   22.831     3.865661   2.188521   190.3007   65.35645   2693.898   1520      
6139.5     0          8.5        8.52198    3114.763   16950.3    30.74104   0.005363464 2054.743   34.8742    0.005606964 15.05701   14.10749   8.6042     7907.578   22.25243   3.822752   2.184328   190.8656   65.35645   2716.591   1480      
6140       0          8.5        8.521429   3145.019   17215.39   30.88067   0.006351217 2054.351   35.22166   0.005607442 15.03615   14.10579   8.786541   7834.784   22.03767   3.804276   2.181941   192.0027   65.35645   2729.702   1380      
6140.5     0          8.5        8.522245   3168.662   17239.38   31.19691   0.006570101 2005.505   34.66645   0.005608043 15.09718   14.16636   8.798677   7847.053   22.14676   3.802023   2.176533   196.9799   65.35645   2761.977   1340      
6141       0          8.5        8.522198   3141.998   17175.49   31.28534   0.005194584 2081.574   34.28117   0.005613239 15.04875   14.13426   8.714008   7836.948   22.66358   3.829609   2.175021   201.2632   65.35645   2748.361   1500      
6141.5     0          8.5        8.521807   3190.635   17187.2    31.18939   0.005146058 2020.811   33.20042   0.005608241 15.00718   14.10483   8.477087   7931.231   22.86724   3.841739   2.176661   202.7355   65.35645   2723.651   1440      
6142       0          8.5        8.522217   3138.622   17169.82   31.10604   0.005850617 2056.116   30.63502   0.005608438 14.8575    13.9985    8.315926   7770.501   22.94992   3.847699   2.178087   203.287    65.35645   2772.566   1400      
6142.5     0          8.5        8.523531   3154.724   17117.06   31.063     0.006677342 2102.776   29.75909   0.005612068 14.81968   13.97656   8.391851   7919.404   22.8428    3.842247   2.178823   203.1865   65.35645   2793.242   1420      
6143       0          8.5        8.528131   3179.627   17281.98   30.93438   0.009327507 2026.767   26.97733   0.005613853 14.95214   14.11883   8.619698   7924.387   22.69636   3.836182   2.181022   202.4212   65.35645   2813.414   1520      
6143.5     0          8.5        8.526632   3134.179   17259.83   30.94163   0.01019306 2073.045   26.56234   0.005610324 15.07485   14.23267   8.779644   7902.849   22.66135   3.835357   2.180898   202.1865   65.35645   2813.918   1440      
6144       0          8.5        8.521328   3223.975   17334.76   30.96148   0.01057587 2021.423   27.16079   0.005606863 15.32656   14.45191   8.973389   7761.054   22.82271   3.846851   2.180559   201.6122   65.35645   2774.583   1380      
6144.5     0          8.5        8.521328   3171.325   17219.45   31.08047   0.00965743 2046.622   28.37113   0.005608308 15.41714   14.53145   8.872623   7965.899   22.97814   3.856853   2.178524   201.2442   65.35645   2755.421   1380      
6145       0          8.5        8.522816   3187.292   17224.34   31.2206    0.008165518 2073.698   33.02183   0.005613877 15.47542   14.56462   9.090921   7887.695   23.10658   3.866189   2.176127   200.2214   65.35645   2764.498   1500      
6145.5     0          8.5        8.522264   3196.754   17290.52   31.24894   0.007529894 2088.375   34.85332   0.005608484 15.46251   14.53733   8.91251    7890.716   22.98089   3.859116   2.175643   199.6778   65.35645   2802.824   1480      
6146       0          8.5        8.523119   3169.239   17190.38   31.55287   0.00460925 2053.273   34.13148   0.005608224 15.26849   14.32735   8.628235   7987.818   22.45527   3.826479   2.170446   199.0066   65.35645   2766.011   1380      
6146.5     0          8.5        8.522921   3189.208   17167.04   31.7514    0.003174352 2053.823   33.01659   0.005604938 15.16887   14.22553   8.508545   7830.036   22.23981   3.811647   2.167051   199.319    65.35645   2726.676   1400      
6147       0          8.5        8.516556   3223.713   17205      32.07121   0.002144353 2081.604   30.99994   0.005598646 15.05624   14.11897   8.40032    7761.824   22.33755   3.813159   2.161582   200.0693   65.35645   2680.282   1500      
6147.5     0          8.5        8.514305   3257.439   17326.35   32.01086   0.003346856 2011.404   30.48872   0.005596187 15.10535   14.16852   8.651505   7807.475   22.62269   3.829444   2.162614   200.3591   65.35645   2648.512   1440      
6148       0          8.5        8.512238   3206.993   17272.79   31.35114   0.008971659 2005.23    30.18888   0.005594964 15.26328   14.31455   8.772804   7838.157   23.12436   3.86169    2.173895   199.8389   65.35645   2753.404   1380      
6148.5     0          8.5        8.512238   3158.81    17245.2    31.0339    0.0113719  2059.399   29.68377   0.005599166 15.29057   14.33907   8.912342   8031.115   23.29103   3.873946   2.17932    199.6945   65.35645   2816.439   1380      
6149       0          8.5        8.518623   3173.281   17407.45   30.95555   0.01177974 2056.704   29.20685   0.005605317 15.1366    14.20049   8.765738   7907.874   23.42119   3.885365   2.18066    199.5265   65.29541   2805.85    1520      
6149.5     0          8.5        8.521622   3200.667   17296.82   31.15396   0.01003292 2090.471   29.36221   0.005613988 14.97215   14.04532   8.717642   7932.362   23.38587   3.884284   2.177267   199.5416   65.35645   2771.054   1500      
