~Version
 VERS              .         3.0                           : CWLS LOG ASCII STANDARD - VERSION 3.0
 WRAP              .         NO                            : ONE LINE PER DEPTH STEP
 DLM               .         SPACE                         : DELIMITING CHARACTER(SPACE TAB OR COMMA)
~Well Information
#_______________________________________________________________________________
#
#PARAMETER_NAME    .UNIT     VALUE                         : DESCRIPTION
#_______________________________________________________________________________
STRT               .ft       5984                          : First reference value
STOP               .ft       6354                          : Last reference value
STEP               .ft       0.5                           : Step increment
NULL               .         -9999                         : Missing value
COMP               .                                       : Company
WELL               .         EGBM-009-ST1                  : Well name
FLD                .         WILDCAT                       : Field
LOC                .                                       : Location
SRVC               .                                       : Service Company
CTRY               .                                       : Country
DATE               .                                       : Service Date
X                  .                                       : X or East-West coordinate
Y                  .                                       : Y or North South coordinate
GDAT               .                                       : Geodetic Datum
HZCS               .                                       : Horizontal Co-ordinate System
CREATION-TIME      .         1992/3/5 0_0                  : 
FIELD-NAME         .         WILDCAT                       : 
FILE-ID            .         BPBLIS.003                    : 
FILE-NUMBER        .         3                             : 
FILE-SET-NAME      .         EGBEMA-9                      : 
FILE-SET-NUMBER    .         0                             : 
FILE-TYPE          .                                       : 
NAME-SPACE-NAME    .         LIS                           : 
NAME-SPACE-VERSION .         0                             : 
PRODUCER-CODE      .         440                           : 
PRODUCER-NAME      .         Schlumberger                  : 
PRODUCT            .         LIS                           : 
PROGRAMS           .                                       : 
VERSION            .                                       : 
WELL-NAME          .                                       : 
~Parameter Information Block
#_______________________________________________________________________________
#
#PARAMETER_NAME    .UNIT     VALUE                         : DESCRIPTION
#_______________________________________________________________________________
SET                .         BPBLIS_001_1                  : 
ACQUISITION-PRODUCT .         DLIS/U                        : 
CREATION-TIME      .         2026/5/15 11_47               : 
DLIS_FRAME_DIRECTION .         DECREASING                    : 
DLIS_FRAME_NAME    .         1                             : 
DLIS_FRAME_SPACING .0.1_in   -60                           : 
FIELD-NAME         .         WILDCAT                       : 
FILE-ID            .         BPBLIS.001                    : 
FILE-NUMBER        .         1                             : 
FILE-SET-NAME      .         LIS-TO-DLIS-CONVERSION        : 
FILE-SET-NUMBER    .         5992                          : 
FILE-TYPE          .                                       : 
INDEX-TYPE         .         BOREHOLE-DEPTH                : 
NAME-SPACE-NAME    .                                       : 
NAME-SPACE-VERSION .         0                             : 
OriginalDatasetName .         1                             : 
PRODUCER-CODE      .         440                           : 
PRODUCER-NAME      .         Schlumberger                  : 
PRODUCT            .         DLIS/U                        : 
PROGRAMS           .         LIS-TO-DLIS                   : 
TLFamily_AVOL      .                                       : 
TLFamily_BS        .         Bit Size                      : 
TLFamily_CALI      .         Caliper                       : 
TLFamily_DCRF      .                                       : 
TLFamily_DCRN      .                                       : 
TLFamily_DEPT      .         Measured Depth                : 
TLFamily_DPHI      .                                       : 
TLFamily_DRHO      .         Bulk Density Correction       : 
TLFamily_FCNL      .                                       : 
TLFamily_GR        .         Gamma Ray                     : 
TLFamily_HVOL      .         Hydrocarbon Volume Fraction   : 
TLFamily_LLD       .         Resistivity - Deep Laterolog  : 
TLFamily_LLS       .         Resistivity - Shallow Laterolog: 
TLFamily_MLL       .         Resistivity - Micro           : 
TLFamily_NCNL      .                                       : 
TLFamily_NPHI      .         Neutron Porosity              : 
TLFamily_NRAT      .         Thermal Neutron Near Far Ratio: 
TLFamily_RHOB      .         Bulk Density                  : 
TLFamily_SP        .         Spontaneous Potential         : 
TLFamily_TEMP      .         Temperature                   : 
TLFamily_TENS      .         Tension                       : 
TLFamily_TIME      .         Date Time                     : 
VERSION            .         0.1                           : 
WELL-NAME          .                                       : 
~Curve Information
#_______________________________________________________________________________
#
#LOGNAME           .UNIT     LOG_ID                        : DESCRIPTION
#_______________________________________________________________________________
DEPT               .ft                                     :  {F}
AVOL               .m3                                     :  {F}
BS                 .in                                     :  {F}
CALI               .in                                     :  {F}
DCRF               .SDU                                    :  {F}
DCRN               .SDU                                    :  {F}
DPHI               .%                                      :  {F}
DRHO               .g/cm3                                  :  {F}
FCNL               .1/s                                    :  {F}
GR                 .gAPI                                   :  {F}
HVOL               .m3                                     :  {F}
LLD                .ohm.m                                  :  {F}
LLS                .ohm.m                                  :  {F}
MLL                .ohm.m                                  :  {F}
NCNL               .1/s                                    :  {F}
NPHI               .%                                      :  {F}
NRAT               .                                       :  {F}
RHOB               .g/cm3                                  :  {F}
SP                 .mV                                     :  {F}
TEMP               .degC                                   :  {F}
TENS               .lbm                                    :  {F}
TIME               .ms                                     : {F}
~Ascii
# ...
6051       0          8.5        9.044748   2839.581   17572.54   21.43407   0.05898113 1635.511   112.4048   0.006292005 8.581537   7.669847   5.315919   6680.181   31.05614   4.026208   2.343477   175.4561   65.23438   2884.014   1460      
6051.5     0          8.5        9.019419   2546.96    16827.23   19.69597   0.0537989  1672.391   116.7529   0.006330482 9.016716   8.12163    5.110538   6489.329   30.20861   4.009077   2.373199   176.1591   65.23438   2963.187   1520      
6052       0          8.5        9.091789   2443.75    15655.53   19.11683   0.05027488 1662.492   122.32     0.006355616 8.904758   8.048069   4.793961   6689.271   30.11915   4.000919   2.383102   176.7364   65.23438   2894.604   1420      
6052.5     0          8.5        9.030754   2643.896   16712.49   19.71432   0.04463437 1561.986   134.9894   0.00615187 9.103914   8.219387   4.957585   6433.065   31.65153   4.017925   2.372885   177.548    65.23438   2815.431   1360      
6053       0          8.5        8.847689   2697.663   16522.16   20.88309   0.04356783 1605.054   138.5897   0.005879523 9.401731   8.475731   5.549248   6360.362   33.41993   4.050192   2.352899   178.0669   65.23438   2779.626   1420      
6053.5     0          8.5        8.627989   2710.205   16946      24.85965   0.03804798 1620.478   138.583    0.005718911 10.52989   9.471106   6.510859   6809.259   37.47307   4.144403   2.2849     180.3881   65.23438   2858.295   1500      
6054       0          8.5        8.577997   2963.319   17392.94   27.42569   0.0319777  1654.892   132.1194   0.005640958 11.16789   10.02076   6.71281    6864.205   38.35703   4.176093   2.241021   181.9231   65.23438   2840.645   1420      
6054.5     0          8.5        8.525053   3459.528   17829.29   32.6791    0.01586041 1749.739   110.4373   0.005610584 12.13005   10.89677   6.626279   6996.928   37.01669   4.183046   2.151187   185.5355   65.23438   2836.611   1380      
6055       0          8.5        8.522608   3540.632   17894.96   34.32112   0.01071966 1694.568   95.8679    0.005608578 12.32913   11.11989   6.655669   7168.595   35.95016   4.177929   2.123109   186.7732   65.23438   2858.295   1480      
6055.5     0          8.5        8.522623   3467.391   17948.64   35.43466   0.009263324 1746.198   66.5789    0.00560814 12.37144   11.5179    6.826473   7231.273   34.49352   4.173186   2.104067   188.0375   65.23438   2828.542   1500      
6056       0          8.5        8.522608   3508.162   18066.44   35.63315   0.009685341 1762.987   56.58118   0.00560881 12.35337   11.74286   6.994173   7365.072   33.93871   4.170183   2.100673   188.3077   65.23438   2823.5     1440      
6056.5     0          8.5        8.522951   3598.887   18054.29   36.19946   0.007362747 1803.495   44.05126   0.005613324 12.25158   12.06694   6.951128   7244.873   32.12003   4.137382   2.090989   188.6969   65.23438   2878.467   1360      
6057       0          8.5        8.524723   3608.495   18009.55   36.54913   0.004605087 1767.864   42.16494   0.005631518 12.24593   12.15746   6.934984   7295.463   30.93568   4.110048   2.08501    188.8565   65.23438   2879.475   1420      
6057.5     0          8.5        8.548714   3602.704   17876.35   37.00767   -0.0003513019 1797.825   39.78851   0.005643561 12.09068   12.13618   6.803041   7095.189   29.2821    4.066539   2.077169   188.8001   65.23438   2890.569   1500      
6058       0          8.5        8.531227   3687.078   17929.11   36.68613   -0.002164205 1838.447   36.43886   0.005618135 11.78156   12.02649   6.717069   7449.797   28.66762   4.04794    2.082667   188.5615   65.23438   3111.447   1480      
6058.5     0          8.5        8.52223    3509.712   17599.05   36.11083   -0.002057537 1868.069   35.92144   0.0056083  11.59689   11.91778   6.651278   7524.223   28.4434    4.043169   2.092505   188.1377   65.23438   3052.445   1400      
6059       0          8.5        8.522614   3307.693   17395.5    34.58607   -0.001914453 1862.273   36.82936   0.005611282 10.5841    10.98076   6.678671   7372.178   27.99255   4.033136   2.118578   186.9135   65.26489   2928.896   1520      
6059.5     0          8.5        8.527613   3306.425   17155.91   34.0178    -0.00267148 1907.308   37.83465   0.005635978 9.832224   10.18143   6.004035   7531.081   27.78257   4.027161   2.128295   185.9963   65.26489   2862.33    1520      
6060       0          8.5        8.576971   3307.315   17160.45   33.35944   -0.002725712 1872.257   48.80077   0.005774536 7.966668   8.334391   4.713353   7712.545   27.66683   4.015781   2.139554   183.6829   65.29541   2883.51    1420      
6060.5     0          8.5        8.737394   3321.717   16856.1    33.07085   0.003516006 1755.112   61.73103   0.006029247 6.839384   7.206819   4.128045   7373.281   28.63971   4.021713   2.144488   182.3916   65.31575   2973.777   1380      
6061       0          8.5        8.946583   3189.477   17187.2    32.41915   0.03156605 1351.927   96.35788   0.006199996 5.205504   5.595843   3.417141   6554.446   35.41374   4.097148   2.155632   180.2404   65.35645   3014.12    1460      
6061.5     0          8.5        8.966085   3581.476   19918.8    32.33692   0.04849869 1280.474   113.2782   0.00656271 4.747867   5.150004   3.908892   5424.103   40.76347   4.15743    2.157039   179.2941   65.35645   2975.794   1540      
6062       0          8.5        9.529316   3624.779   19248.3    34.82368   0.06871974 1126.088   127.8338   0.007124358 4.512629   4.84873    4.36547    5092.145   51.97522   4.276045   2.114515   177.5713   65.35645   2863.338   1420      
6062.5     0          8.5        9.741146   3889.202   19950.64   37.41285   0.06717695 1171.08    126.3454   0.00713972 4.656039   4.978265   4.85024    5010.229   55.86101   4.310958   2.07024    176.9894   65.35645   2797.781   1400      
6063       0          8.5        9.390074   5199.663   20781.06   41.95889   0.04701962 1128.982   119.0322   0.006657545 4.696834   5.004467   3.783835   4987.98    59.78782   4.348421   1.992503   176.0288   65.35645   2841.654   1480      
6063.5     0          8.5        9.17079    4928.306   21400.83   42.11903   0.03551023 1103.599   118.9885   0.00649598 4.438943   4.788711   3.805417   4846.075   61.02333   4.374681   1.989765   175.5656   65.35645   2915.784   1500      
6064       0          8.5        9.332315   3819.543   17640.87   36.2084    0.02877236 1175.883   132.6596   0.007079102 3.715847   4.146687   2.744742   5062.823   61.88352   4.419456   2.090836   175.0165   65.35645   2874.937   1440      
6064.5     0          8.5        9.701778   3042.75    17686.24   31.8856    0.03174773 1274.098   140.792    0.007887334 3.466915   3.920681   2.780889   5359.605   61.25027   4.423637   2.164756   174.507    65.35645   2850.731   1340      
6065       0          8.5        10.40845   2844.952   17127.25   25.2719    0.040228   1290.655   152.4111   0.00869488 3.394868   3.91186    2.620511   5552.062   58.13418   4.386592   2.277851   173.7428   65.35645   2782.652   1440      
6065.5     0          8.5        10.72688   2759.638   16737.64   23.60688   0.04132741 1257.101   154.9146   0.009107638 3.566682   4.105386   2.695897   5463.244   56.34853   4.355338   2.306322   173.4491   65.35645   2781.139   1480      
6066       0          8.5        10.8483    2678.237   16685.74   22.82403   0.03457444 1326.819   153.1014   0.008681105 3.909237   4.459956   3.03068    5491.055   53.63015   4.295368   2.319709   172.9065   65.35645   3135.148   1420      
6066.5     0          8.5        10.55898   2633.563   16540.36   22.75267   0.03538772 1283.727   149.2057   0.007746357 3.971729   4.486331   3.401597   5498.523   53.10374   4.27862    2.320929   172.6729   65.35645   3073.121   1380      
6067       0          8.5        9.626995   2798.886   16680.46   23.97638   0.04375298 1176.591   140.7552   0.006825835 4.148335   4.576096   3.543682   5454.571   53.95244   4.284526   2.300004   172.3782   65.35645   2925.87    1540      
