~Version
 VERS              .         3.0                           : CWLS LOG ASCII STANDARD - VERSION 3.0
 WRAP              .         NO                            : ONE LINE PER DEPTH STEP
 DLM               .         SPACE                         : DELIMITING CHARACTER(SPACE TAB OR COMMA)
~Well Information
#_______________________________________________________________________________
#
#PARAMETER_NAME    .UNIT     VALUE                         : DESCRIPTION
#_______________________________________________________________________________
STRT               .ft       5984                          : First reference value
STOP               .ft       6354                          : Last reference value
STEP               .ft       0.5                           : Step increment
NULL               .         -9999                         : Missing value
COMP               .                                       : Company
WELL               .         EGBM-009-ST1                  : Well name
FLD                .         WILDCAT                       : Field
LOC                .                                       : Location
SRVC               .                                       : Service Company
CTRY               .                                       : Country
DATE               .                                       : Service Date
X                  .                                       : X or East-West coordinate
Y                  .                                       : Y or North South coordinate
GDAT               .                                       : Geodetic Datum
HZCS               .                                       : Horizontal Co-ordinate System
CREATION-TIME      .         1992/3/5 0_0                  : 
FIELD-NAME         .         WILDCAT                       : 
FILE-ID            .         BPBLIS.003                    : 
FILE-NUMBER        .         3                             : 
FILE-SET-NAME      .         EGBEMA-9                      : 
FILE-SET-NUMBER    .         0                             : 
FILE-TYPE          .                                       : 
NAME-SPACE-NAME    .         LIS                           : 
NAME-SPACE-VERSION .         0                             : 
PRODUCER-CODE      .         440                           : 
PRODUCER-NAME      .         Schlumberger                  : 
PRODUCT            .         LIS                           : 
PROGRAMS           .                                       : 
VERSION            .                                       : 
WELL-NAME          .                                       : 
~Parameter Information Block
#_______________________________________________________________________________
#
#PARAMETER_NAME    .UNIT     VALUE                         : DESCRIPTION
#_______________________________________________________________________________
SET                .         BPBLIS_001_1                  : 
ACQUISITION-PRODUCT .         DLIS/U                        : 
CREATION-TIME      .         2026/5/15 11_47               : 
DLIS_FRAME_DIRECTION .         DECREASING                    : 
DLIS_FRAME_NAME    .         1                             : 
DLIS_FRAME_SPACING .0.1_in   -60                           : 
FIELD-NAME         .         WILDCAT                       : 
FILE-ID            .         BPBLIS.001                    : 
FILE-NUMBER        .         1                             : 
FILE-SET-NAME      .         LIS-TO-DLIS-CONVERSION        : 
FILE-SET-NUMBER    .         5992                          : 
FILE-TYPE          .                                       : 
INDEX-TYPE         .         BOREHOLE-DEPTH                : 
NAME-SPACE-NAME    .                                       : 
NAME-SPACE-VERSION .         0                             : 
OriginalDatasetName .         1                             : 
PRODUCER-CODE      .         440                           : 
PRODUCER-NAME      .         Schlumberger                  : 
PRODUCT            .         DLIS/U                        : 
PROGRAMS           .         LIS-TO-DLIS                   : 
TLFamily_AVOL      .                                       : 
TLFamily_BS        .         Bit Size                      : 
TLFamily_CALI      .         Caliper                       : 
TLFamily_DCRF      .                                       : 
TLFamily_DCRN      .                                       : 
TLFamily_DEPT      .         Measured Depth                : 
TLFamily_DPHI      .                                       : 
TLFamily_DRHO      .         Bulk Density Correction       : 
TLFamily_FCNL      .                                       : 
TLFamily_GR        .         Gamma Ray                     : 
TLFamily_HVOL      .         Hydrocarbon Volume Fraction   : 
TLFamily_LLD       .         Resistivity - Deep Laterolog  : 
TLFamily_LLS       .         Resistivity - Shallow Laterolog: 
TLFamily_MLL       .         Resistivity - Micro           : 
TLFamily_NCNL      .                                       : 
TLFamily_NPHI      .         Neutron Porosity              : 
TLFamily_NRAT      .         Thermal Neutron Near Far Ratio: 
TLFamily_RHOB      .         Bulk Density                  : 
TLFamily_SP        .         Spontaneous Potential         : 
TLFamily_TEMP      .         Temperature                   : 
TLFamily_TENS      .         Tension                       : 
TLFamily_TIME      .         Date Time                     : 
VERSION            .         0.1                           : 
WELL-NAME          .                                       : 
~Curve Information
#_______________________________________________________________________________
#
#LOGNAME           .UNIT     LOG_ID                        : DESCRIPTION
#_______________________________________________________________________________
DEPT               .ft                                     :  {F}
AVOL               .m3                                     :  {F}
BS                 .in                                     :  {F}
CALI               .in                                     :  {F}
DCRF               .SDU                                    :  {F}
DCRN               .SDU                                    :  {F}
DPHI               .%                                      :  {F}
DRHO               .g/cm3                                  :  {F}
FCNL               .1/s                                    :  {F}
GR                 .gAPI                                   :  {F}
HVOL               .m3                                     :  {F}
LLD                .ohm.m                                  :  {F}
LLS                .ohm.m                                  :  {F}
MLL                .ohm.m                                  :  {F}
NCNL               .1/s                                    :  {F}
NPHI               .%                                      :  {F}
NRAT               .                                       :  {F}
RHOB               .g/cm3                                  :  {F}
SP                 .mV                                     :  {F}
TEMP               .degC                                   :  {F}
TENS               .lbm                                    :  {F}
TIME               .ms                                     : {F}
~Ascii
# ...
6216       0          8.5        8.679663   2591.119   16709.04   22.45452   0.03660111 1465.083   144.1019   0.005893221 6.38955    6.479356   5.825613   6079.467   41.5061    4.16386    2.326027   199.2664   65.1123    2814.927   1360      
6216.5     0          8.5        8.76329    2759.638   16567.32   23.53816   0.03611036 1555.542   147.5374   0.005889605 7.216043   7.258414   5.874012   6276.54    41.97474   4.174618   2.307498   198.8597   65.1123    2824.508   1420      
6217       0          8.5        8.707861   2923.45    17451.9    24.42805   0.03351394 1627.895   151.321    0.005799802 7.649542   7.669138   5.910871   6631.635   40.89969   4.16343    2.29228    198.8054   65.1123    2830.56    1520      
6217.5     0          8.5        8.644333   2888.32    16631.4    24.85574   0.03071218 1672.132   156.1729   0.005776607 8.119411   8.140907   7.360777   6644.598   36.68826   4.107794   2.284967   198.7439   65.1123    2826.021   1460      
6218       0          8.5        8.653498   2737.033   16365.32   24.47871   0.03232646 1606.145   157.7856   0.005782073 8.032221   8.060871   7.348652   6717.65    35.47436   4.09126    2.291414   198.6487   65.1123    2831.063   1380      
6218.5     0          8.5        8.65337    2833.867   16826.46   24.33333   0.0366611  1483.781   156.7107   0.00579711 7.646586   7.677341   6.988362   6414.884   37.14323   4.116555   2.2939     199.0251   65.1123    2843.167   1500      
6219       0          8.5        8.671576   2919.635   17598.23   24.81943   0.0362903  1551.735   155.6601   0.00584362 7.361307   7.400534   6.73777    6354.423   39.2685    4.146841   2.285588   199.2345   65.1123    2815.935   1500      
6219.5     0          8.5        8.72563    2944.394   16740.13   25.08372   0.03314944 1485.463   152.7648   0.00588875 6.910711   6.952205   6.871557   6283.776   43.37711   4.207906   2.281068   199.1738   65.1123    2850.731   1460      
6220       0          8.5        8.735331   2817.304   16695.92   24.67596   0.03290586 1494.188   151.1128   0.00592494 6.812243   6.850852   6.363895   6507.584   44.40229   4.223742   2.288041   198.8842   65.1123    2896.117   1360      
6220.5     0          8.5        8.751017   2710.699   16578.11   24.74652   0.03322481 1476.195   157.3985   0.005886139 7.073682   7.05488    6.727509   6229.186   44.39639   4.218777   2.286834   198.6178   65.1123    2822.995   1460      
6221       0          8.5        8.722179   2891.031   17309.56   25.52106   0.03143946 1539.81    160.1815   0.005800766 7.321994   7.268975   6.533761   6288.935   43.62215   4.201121   2.27359    198.682    65.1123    2796.772   1440      
6221.5     0          8.5        8.664118   3019.154   17266.04   27.58101   0.02103691 1537.902   155.5946   0.005824218 7.729411   7.6408     6.732754   6331.397   41.88322   4.165475   2.238365   198.1082   65.1123    2836.106   1440      
6222       0          8.5        8.691486   3037.973   16775.27   28.13248   0.01656855 1529.861   148.0314   0.005879687 7.826992   7.7428     6.591057   6164.113   41.40556   4.157671   2.228934   197.7583   65.1123    2875.945   1360      
6222.5     0          8.5        8.740959   2994.071   16520.26   28.40116   0.01540205 1566.667   129.8697   0.005907857 7.806742   7.751374   6.828412   6541.587   41.07983   4.16032    2.22434    196.4427   65.1123    3021.684   1480      
6223       0          8.5        8.748705   3016.995   17216.37   28.35345   0.0174864  1580.277   125.5803   0.00592921 7.785173   7.735648   7.349811   6507.394   41.1848    4.167997   2.225156   195.5168   65.1123    2960.161   1500      
6223.5     0          8.5        8.774464   3023.225   17388.8    27.861     0.02162808 1508.454   123.1578   0.005957867 7.746681   7.695707   7.948384   6451.715   41.53517   4.181624   2.233577   193.937    65.1123    2814.927   1440      
6224       0          8.5        8.798569   2882.95    16601.77   27.10423   0.02501373 1538.485   124.7101   0.00598924 7.640501   7.601707   7.688194   6387.406   41.48768   4.181513   2.246518   193.0897   65.1123    2811.9     1340      
6224.5     0          8.5        8.827402   2972.036   17030      26.59063   0.02732736 1543.137   126.8803   0.006096835 7.565913   7.525192   7.479161   6360.362   41.08205   4.173803   2.2553     193.0075   65.1123    2822.491   1440      
6225       0          8.5        8.951908   2889.125   17239.38   25.01519   0.03337152 1566.667   132.1939   0.006197713 7.44072    7.398819   7.136607   6422.65    38.88544   4.138194   2.28224    193.4677   65.1123    2811.901   1500      
6225.5     0          8.5        8.994326   2786.475   16737.59   23.80867   0.03595231 1627.743   135.2983   0.006255771 7.393211   7.349523   7.199115   6624.389   37.28609   4.114458   2.302872   193.7398   65.1123    2795.764   1420      
6226       0          8.5        9.003647   2586.446   16510.72   21.68492   0.03626849 1627.208   135.9246   0.006259085 7.327938   7.291201   7.601989   6612.246   35.10604   4.087445   2.339188   193.9922   65.1123    2810.388   1400      
6226.5     0          8.5        9.003647   2580.476   16244.5    21.11595   0.03588405 1590.911   135.0593   0.006259678 7.294519   7.260942   7.77087    6626.588   34.94453   4.090103   2.348917   193.8568   65.1123    2776.601   1460      
6227       0          8.5        9.003452   2608.898   16365.6    20.82144   0.0365565  1657.462   132.8187   0.006267626 7.233403   7.192421   7.724703   6802.733   34.70989   4.094725   2.353953   193.9219   65.1123    2748.361   1500      
6227.5     0          8.5        9.015686   2623.23    16432.52   20.91081   0.03715985 1689.688   131.8233   0.006296375 7.204141   7.153358   7.713233   6605.708   34.05018   4.085402   2.352425   194.005    65.1123    2797.276   1420      
6228       0          8.5        9.046474   2637.786   16477.79   21.09937   0.03845324 1612.614   137.3003   0.006318983 7.160999   7.089054   7.617937   6565.574   32.49773   4.058478   2.349201   194.1572   65.1123    2935.955   1380      
6228.5     0          8.5        9.050013   2638.109   16505.33   21.27679   0.03808473 1634.376   141.1075   0.006331677 7.143696   7.063564   7.586557   6574.423   32.10927   4.04963    2.346167   194.2871   65.1123    2975.29    1420      
6229       0          8.5        9.050692   2651.519   16595.62   21.52681   0.03811086 1669.795   144.4619   0.006324154 7.1205     7.021609   7.547091   6708.698   32.12885   4.045284   2.341891   193.9905   65.1123    2962.178   1520      
6229.5     0          8.5        9.050034   2675.482   16502.19   21.48171   0.03960296 1660.852   144.3101   0.006324087 7.116401   7.011351   7.56326    6554.352   31.92038   4.03914    2.342663   193.8658   65.1123    2915.279   1460      
6230       0          8.5        9.050089   2649.746   16791.02   21.47765   0.04219002 1665.621   144.4565   0.006323884 7.107192   6.998375   7.528992   6550.159   31.02953   4.020608   2.342732   193.1671   65.1123    2890.065   1420      
6230.5     0          8.5        9.050167   2654.853   16618.52   21.59264   0.04279496 1603.947   144.272    0.006325013 7.09975    6.994494   7.478887   6573.023   31.25028   4.024439   2.340766   192.8107   65.1123    2875.441   1480      
6231       0          8.5        9.050848   2715.51    16724.9    22.22028   0.04070403 1667.139   140.1846   0.006326382 7.130761   7.013792   7.50391    6529.824   33.16492   4.061051   2.330033   192.0467   65.1123    2866.868   1520      
6231.5     0          8.5        9.052692   2720.426   16810.11   22.59259   0.03853648 1620.928   137.9691   0.006330546 7.162848   7.035151   7.48916    6653.739   34.29356   4.083786   2.323667   191.6746   65.1123    2894.604   1460      
6232       0          8.5        9.058229   2728.417   16480.85   22.95944   0.03803636 1579.245   138.0586   0.006337323 7.247382   7.103074   7.46322    6790.483   35.99267   4.118305   2.317393   190.9889   65.1123    2898.638   1340      
