~Version
 VERS              .         3.0                           : CWLS LOG ASCII STANDARD - VERSION 3.0
 WRAP              .         NO                            : ONE LINE PER DEPTH STEP
 DLM               .         SPACE                         : DELIMITING CHARACTER(SPACE TAB OR COMMA)
~Well Information
#_______________________________________________________________________________
#
#PARAMETER_NAME    .UNIT     VALUE                         : DESCRIPTION
#_______________________________________________________________________________
STRT               .ft       5984                          : First reference value
STOP               .ft       6354                          : Last reference value
STEP               .ft       0.5                           : Step increment
NULL               .         -9999                         : Missing value
COMP               .                                       : Company
WELL               .         EGBM-009-ST1                  : Well name
FLD                .         WILDCAT                       : Field
LOC                .                                       : Location
SRVC               .                                       : Service Company
CTRY               .                                       : Country
DATE               .                                       : Service Date
X                  .                                       : X or East-West coordinate
Y                  .                                       : Y or North South coordinate
GDAT               .                                       : Geodetic Datum
HZCS               .                                       : Horizontal Co-ordinate System
CREATION-TIME      .         1992/3/5 0_0                  : 
FIELD-NAME         .         WILDCAT                       : 
FILE-ID            .         BPBLIS.003                    : 
FILE-NUMBER        .         3                             : 
FILE-SET-NAME      .         EGBEMA-9                      : 
FILE-SET-NUMBER    .         0                             : 
FILE-TYPE          .                                       : 
NAME-SPACE-NAME    .         LIS                           : 
NAME-SPACE-VERSION .         0                             : 
PRODUCER-CODE      .         440                           : 
PRODUCER-NAME      .         Schlumberger                  : 
PRODUCT            .         LIS                           : 
PROGRAMS           .                                       : 
VERSION            .                                       : 
WELL-NAME          .                                       : 
~Parameter Information Block
#_______________________________________________________________________________
#
#PARAMETER_NAME    .UNIT     VALUE                         : DESCRIPTION
#_______________________________________________________________________________
SET                .         BPBLIS_001_1                  : 
ACQUISITION-PRODUCT .         DLIS/U                        : 
CREATION-TIME      .         2026/5/15 11_47               : 
DLIS_FRAME_DIRECTION .         DECREASING                    : 
DLIS_FRAME_NAME    .         1                             : 
DLIS_FRAME_SPACING .0.1_in   -60                           : 
FIELD-NAME         .         WILDCAT                       : 
FILE-ID            .         BPBLIS.001                    : 
FILE-NUMBER        .         1                             : 
FILE-SET-NAME      .         LIS-TO-DLIS-CONVERSION        : 
FILE-SET-NUMBER    .         5992                          : 
FILE-TYPE          .                                       : 
INDEX-TYPE         .         BOREHOLE-DEPTH                : 
NAME-SPACE-NAME    .                                       : 
NAME-SPACE-VERSION .         0                             : 
OriginalDatasetName .         1                             : 
PRODUCER-CODE      .         440                           : 
PRODUCER-NAME      .         Schlumberger                  : 
PRODUCT            .         DLIS/U                        : 
PROGRAMS           .         LIS-TO-DLIS                   : 
TLFamily_AVOL      .                                       : 
TLFamily_BS        .         Bit Size                      : 
TLFamily_CALI      .         Caliper                       : 
TLFamily_DCRF      .                                       : 
TLFamily_DCRN      .                                       : 
TLFamily_DEPT      .         Measured Depth                : 
TLFamily_DPHI      .                                       : 
TLFamily_DRHO      .         Bulk Density Correction       : 
TLFamily_FCNL      .                                       : 
TLFamily_GR        .         Gamma Ray                     : 
TLFamily_HVOL      .         Hydrocarbon Volume Fraction   : 
TLFamily_LLD       .         Resistivity - Deep Laterolog  : 
TLFamily_LLS       .         Resistivity - Shallow Laterolog: 
TLFamily_MLL       .         Resistivity - Micro           : 
TLFamily_NCNL      .                                       : 
TLFamily_NPHI      .         Neutron Porosity              : 
TLFamily_NRAT      .         Thermal Neutron Near Far Ratio: 
TLFamily_RHOB      .         Bulk Density                  : 
TLFamily_SP        .         Spontaneous Potential         : 
TLFamily_TEMP      .         Temperature                   : 
TLFamily_TENS      .         Tension                       : 
TLFamily_TIME      .         Date Time                     : 
VERSION            .         0.1                           : 
WELL-NAME          .                                       : 
~Curve Information
#_______________________________________________________________________________
#
#LOGNAME           .UNIT     LOG_ID                        : DESCRIPTION
#_______________________________________________________________________________
DEPT               .ft                                     :  {F}
AVOL               .m3                                     :  {F}
BS                 .in                                     :  {F}
CALI               .in                                     :  {F}
DCRF               .SDU                                    :  {F}
DCRN               .SDU                                    :  {F}
DPHI               .%                                      :  {F}
DRHO               .g/cm3                                  :  {F}
FCNL               .1/s                                    :  {F}
GR                 .gAPI                                   :  {F}
HVOL               .m3                                     :  {F}
LLD                .ohm.m                                  :  {F}
LLS                .ohm.m                                  :  {F}
MLL                .ohm.m                                  :  {F}
NCNL               .1/s                                    :  {F}
NPHI               .%                                      :  {F}
NRAT               .                                       :  {F}
RHOB               .g/cm3                                  :  {F}
SP                 .mV                                     :  {F}
TEMP               .degC                                   :  {F}
TENS               .lbm                                    :  {F}
TIME               .ms                                     : {F}
~Ascii
# ...
6232.5     0          8.5        9.061556   2725.41    16581.25   23.08398   0.03936396 1598.024   138.9372   0.006335686 7.300881   7.150019   7.476662   6671.108   35.82048   4.116057   2.315264   190.5075   65.1123    2852.244   1460      
6233       0          8.5        9.05418    2802.887   17116.72   23.44459   0.04084092 1722.934   142.1244   0.006335003 7.404513   7.228493   7.528807   6678.118   33.65907   4.071938   2.309097   189.1046   65.1123    2812.909   1460      
6233.5     0          8.5        9.050367   2826.168   17260.26   23.64553   0.04036652 1659.064   142.6475   0.006343503 7.455611   7.260513   7.638295   6713.175   32.15405   4.043025   2.305661   188.118    65.1123    2843.671   1420      
6234       0          8.5        9.076227   2705.939   16767.76   24.34924   0.03566667 1666.687   138.4719   0.006388382 7.514853   7.288143   7.674681   6760.411   30.48247   4.015241   2.293628   186.6198   65.1123    2838.124   1360      
6234.5     0          8.5        9.120199   2890.396   17076.71   25.19822   0.03174542 1651.621   132.0669   0.006424479 7.502234   7.27917    7.304686   6646.057   32.07791   4.049676   2.27911    185.0757   65.1123    2800.807   1480      
6235       0          8.5        9.133194   2931.279   16986.84   25.55984   0.03101161 1633.953   129.3707   0.006443177 7.499683   7.274443   7.108075   6735.557   32.96786   4.066961   2.272927   184.5843   65.1123    2742.813   1500      
6235.5     0          8.5        9.135412   2859.266   17055.71   25.90967   0.03052672 1601.869   130.174    0.00644352 7.515193   7.282399   6.907718   6655.816   33.98852   4.081322   2.266944   183.8522   65.1123    2759.455   1400      
6236       0          8.5        9.13516    2902.853   16939.39   26.00567   0.03005956 1618.086   130.5942   0.006445742 7.543551   7.297512   6.93293    6690.311   34.34916   4.085994   2.265303   183.9565   65.1123    2813.918   1360      
6236.5     0          8.5        9.138372   2947.719   16960.09   26.477     0.02754448 1645.456   130.6626   0.006448727 7.613209   7.338301   6.998641   6608.043   35.40877   4.100927   2.257243   183.7744   65.1123    2841.149   1420      
6237       0          8.5        9.140221   2962.448   16929.41   26.69528   0.02640092 1599.726   129.4433   0.00646608 7.635661   7.354705   6.989887   6691.71    35.86775   4.107217   2.25351    183.6433   65.1123    2845.184   1520      
6237.5     0          8.5        9.160986   2888.32    17143.49   26.85384   0.02486322 1679.144   131.0948   0.006501716 7.638084   7.366558   6.973051   6493.689   35.11864   4.092134   2.250799   183.8588   65.1123    2806.354   1400      
6238       0          8.5        9.195536   2942.316   17005.94   26.90908   0.02398574 1612.565   131.8546   0.006569234 7.614739   7.363223   6.952535   6545.873   34.35521   4.077779   2.249855   183.9111   65.1123    2838.124   1380      
6238.5     0          8.5        9.245594   2947.205   16890.02   27.20144   0.0204429  1620.281   126.874    0.006597678 7.572424   7.365005   6.89595    6461.041   33.46333   4.060629   2.244855   184.3373   65.1123    2803.328   1500      
6239       0          8.5        9.245794   2984.523   16974.61   27.27157   0.01896036 1622.675   124.0208   0.006600362 7.558356   7.37569    6.852107   6585.202   33.3383    4.057558   2.243656   184.7476   65.1123    2764.498   1500      
6239.5     0          8.5        9.246014   2866.708   16798.36   27.05671   0.0190159  1586.305   124.4756   0.006600877 7.580657   7.440501   6.921139   6674.932   33.95492   4.066401   2.24733    186.2968   65.1123    2770.045   1400      
6240       0          8.5        9.246548   2942.789   16815.86   26.86137   0.01983328 1609.016   126.4074   0.006602171 7.615131   7.487265   6.937614   6372.476   33.98832   4.066511   2.25067    187.3785   65.1123    2876.449   1380      
6240.5     0          8.5        9.246759   2914.065   16902.74   26.34242   0.02162746 1572.293   126.9717   0.006602509 7.483412   7.390846   6.996469   6554.446   33.99279   4.066189   2.259544   190.2807   65.1123    2918.306   1440      
6241       0          8.5        9.246225   2908.192   16919.43   25.79097   0.02336323 1596.145   128.0039   0.006622013 7.038695   6.960858   6.982171   6552.166   34.12808   4.066319   2.268974   191.4548   65.08179   2852.748   1480      
6241.5     0          8.5        9.265446   2805.844   16659.86   23.6687    0.03043256 1558.416   133.7414   0.006710807 5.750559   5.726245   7.264486   6588.939   36.16674   4.088364   2.305265   193.5605   65.1123    2809.884   1440      
6242       0          8.5        9.35092    2694.701   16529.58   22.19545   0.03518747 1397.007   138.0286   0.006841515 5.026587   5.042123   6.351222   6132.954   38.84265   4.127567   2.330458   194.5799   65.1123    2824.508   1360      
6242.5     0          8.5        9.440865   2526.158   16453.95   19.27057   0.04273238 1418.855   142.9921   0.006804336 4.216228   4.228213   4.858088   6075.648   44.72765   4.218992   2.380473   196.4931   65.08179   2799.798   1500      
6243       0          8.5        9.36684    2454.138   16058.32   18.29193   0.04316252 1412.645   142.9902   0.006702183 4.093554   4.094841   4.361765   5964.611   47.23253   4.260234   2.397208   197.1873   65.07161   2794.755   1500      
6243.5     0          8.5        9.294762   2470.533   15948.34   17.86414   0.03637927 1350.506   146.2309   0.006691017 4.077204   4.056604   3.763417   5898.339   49.90984   4.305893   2.404523   198.6639   65.07161   2797.276   1420      
6244       0          8.5        9.312685   2456.11    15703.48   18.00934   0.03368867 1399.333   147.0185   0.006765412 4.122834   4.107578   4.045369   6023.63    49.94645   4.301809   2.40204    199.207    65.05127   2831.063   1380      
6244.5     0          8.5        9.431908   2459.894   15821.79   17.98047   0.03720129 1401.907   144.652    0.006932848 4.032134   4.059889   3.930256   5875.153   48.97789   4.268417   2.402534   200.0513   65.08179   2831.568   1460      
6245       0          8.5        9.483099   2486.39    16391.27   17.55214   0.04734915 1462.026   139.6119   0.006898593 3.895848   3.945022   4.088573   5986.194   46.96223   4.213895   2.409858   200.8722   64.99023   2831.063   1520      
6245.5     0          8.5        9.378502   2488.954   16209.24   17.40269   0.0511662  1427.253   137.2257   0.006687336 3.836256   3.889252   3.814777   6056.139   46.55267   4.205895   2.412414   200.9155   65.08179   2829.046   1460      
6246       0          8.5        9.257214   2514.793   16326.86   17.63217   0.05198626 1340.872   136.2915   0.0066075  3.740991   3.800057   3.691373   5962.821   47.90646   4.247519   2.40849    201.3222   65.05127   2867.876   1380      
6246.5     0          8.5        9.233778   2470.945   16297.44   17.84442   0.05153195 1391.39    135.2397   0.006569999 3.702643   3.761801   3.559494   6084.011   49.09362   4.278321   2.40486    201.6566   64.99023   2885.022   1500      
6247       0          8.5        9.212999   2528.711   16377.97   17.99504   0.05389733 1353.863   131.6465   0.006550532 3.648571   3.697737   3.546538   5884.032   50.40711   4.304397   2.402285   201.9838   64.99023   2800.807   1480      
6247.5     0          8.5        9.20405    2522.657   16740.13   17.78859   0.05795817 1412.322   130.5811   0.006558128 3.632688   3.674163   3.673138   5846.707   49.81245   4.283827   2.405815   202.0658   65.02075   2794.755   1400      
6248       0          8.5        9.237957   2501.453   16810.82   17.13683   0.06553246 1424.183   129.9705   0.006592629 3.632353   3.658372   3.753618   5862.114   48.04125   4.232619   2.41696    202.0062   65.07161   2855.27    1340      
6248.5     0          8.5        9.252182   2502.483   16975.43   16.91122   0.06551051 1374.073   131.8895   0.00658829 3.640982   3.663796   3.517182   5977.396   48.02345   4.23388    2.420818   202.1246   64.99023   2872.415   1440      
