~Version
 VERS              .         3.0                           : CWLS LOG ASCII STANDARD - VERSION 3.0
 WRAP              .         NO                            : ONE LINE PER DEPTH STEP
 DLM               .         SPACE                         : DELIMITING CHARACTER(SPACE TAB OR COMMA)
~Well Information
#_______________________________________________________________________________
#
#PARAMETER_NAME    .UNIT     VALUE                         : DESCRIPTION
#_______________________________________________________________________________
STRT               .ft       5984                          : First reference value
STOP               .ft       6354                          : Last reference value
STEP               .ft       0.5                           : Step increment
NULL               .         -9999                         : Missing value
COMP               .                                       : Company
WELL               .         EGBM-009-ST1                  : Well name
FLD                .         WILDCAT                       : Field
LOC                .                                       : Location
SRVC               .                                       : Service Company
CTRY               .                                       : Country
DATE               .                                       : Service Date
X                  .                                       : X or East-West coordinate
Y                  .                                       : Y or North South coordinate
GDAT               .                                       : Geodetic Datum
HZCS               .                                       : Horizontal Co-ordinate System
CREATION-TIME      .         1992/3/5 0_0                  : 
FIELD-NAME         .         WILDCAT                       : 
FILE-ID            .         BPBLIS.003                    : 
FILE-NUMBER        .         3                             : 
FILE-SET-NAME      .         EGBEMA-9                      : 
FILE-SET-NUMBER    .         0                             : 
FILE-TYPE          .                                       : 
NAME-SPACE-NAME    .         LIS                           : 
NAME-SPACE-VERSION .         0                             : 
PRODUCER-CODE      .         440                           : 
PRODUCER-NAME      .         Schlumberger                  : 
PRODUCT            .         LIS                           : 
PROGRAMS           .                                       : 
VERSION            .                                       : 
WELL-NAME          .                                       : 
~Parameter Information Block
#_______________________________________________________________________________
#
#PARAMETER_NAME    .UNIT     VALUE                         : DESCRIPTION
#_______________________________________________________________________________
SET                .         BPBLIS_001_1                  : 
ACQUISITION-PRODUCT .         DLIS/U                        : 
CREATION-TIME      .         2026/5/15 11_47               : 
DLIS_FRAME_DIRECTION .         DECREASING                    : 
DLIS_FRAME_NAME    .         1                             : 
DLIS_FRAME_SPACING .0.1_in   -60                           : 
FIELD-NAME         .         WILDCAT                       : 
FILE-ID            .         BPBLIS.001                    : 
FILE-NUMBER        .         1                             : 
FILE-SET-NAME      .         LIS-TO-DLIS-CONVERSION        : 
FILE-SET-NUMBER    .         5992                          : 
FILE-TYPE          .                                       : 
INDEX-TYPE         .         BOREHOLE-DEPTH                : 
NAME-SPACE-NAME    .                                       : 
NAME-SPACE-VERSION .         0                             : 
OriginalDatasetName .         1                             : 
PRODUCER-CODE      .         440                           : 
PRODUCER-NAME      .         Schlumberger                  : 
PRODUCT            .         DLIS/U                        : 
PROGRAMS           .         LIS-TO-DLIS                   : 
TLFamily_AVOL      .                                       : 
TLFamily_BS        .         Bit Size                      : 
TLFamily_CALI      .         Caliper                       : 
TLFamily_DCRF      .                                       : 
TLFamily_DCRN      .                                       : 
TLFamily_DEPT      .         Measured Depth                : 
TLFamily_DPHI      .                                       : 
TLFamily_DRHO      .         Bulk Density Correction       : 
TLFamily_FCNL      .                                       : 
TLFamily_GR        .         Gamma Ray                     : 
TLFamily_HVOL      .         Hydrocarbon Volume Fraction   : 
TLFamily_LLD       .         Resistivity - Deep Laterolog  : 
TLFamily_LLS       .         Resistivity - Shallow Laterolog: 
TLFamily_MLL       .         Resistivity - Micro           : 
TLFamily_NCNL      .                                       : 
TLFamily_NPHI      .         Neutron Porosity              : 
TLFamily_NRAT      .         Thermal Neutron Near Far Ratio: 
TLFamily_RHOB      .         Bulk Density                  : 
TLFamily_SP        .         Spontaneous Potential         : 
TLFamily_TEMP      .         Temperature                   : 
TLFamily_TENS      .         Tension                       : 
TLFamily_TIME      .         Date Time                     : 
VERSION            .         0.1                           : 
WELL-NAME          .                                       : 
~Curve Information
#_______________________________________________________________________________
#
#LOGNAME           .UNIT     LOG_ID                        : DESCRIPTION
#_______________________________________________________________________________
DEPT               .ft                                     :  {F}
AVOL               .m3                                     :  {F}
BS                 .in                                     :  {F}
CALI               .in                                     :  {F}
DCRF               .SDU                                    :  {F}
DCRN               .SDU                                    :  {F}
DPHI               .%                                      :  {F}
DRHO               .g/cm3                                  :  {F}
FCNL               .1/s                                    :  {F}
GR                 .gAPI                                   :  {F}
HVOL               .m3                                     :  {F}
LLD                .ohm.m                                  :  {F}
LLS                .ohm.m                                  :  {F}
MLL                .ohm.m                                  :  {F}
NCNL               .1/s                                    :  {F}
NPHI               .%                                      :  {F}
NRAT               .                                       :  {F}
RHOB               .g/cm3                                  :  {F}
SP                 .mV                                     :  {F}
TEMP               .degC                                   :  {F}
TENS               .lbm                                    :  {F}
TIME               .ms                                     : {F}
~Ascii
# ...
6183       0          8.5        8.725035   2771.804   16126.19   24.54331   0.01100243 1577.582   158.9605   0.005872494 8.783817   8.71759    6.01701    6444.969   35.05901   4.067061   2.290309   203.0107   65.23438   2740.796   1520      
6183.5     0          8.5        8.711378   2753.146   16579.68   25.15189   0.01291728 1580.36    160.0744   0.005830548 8.821608   8.750534   5.953602   6372.476   33.91508   4.045455   2.279902   203.003    65.23438   2716.086   1440      
6184       0          8.5        8.669792   2893.934   16756.7    25.2803    0.02157448 1594.984   160.5593   0.005794494 9.07757    9.004986   5.81179    6507.487   33.44502   4.039098   2.277707   203.2725   65.23438   2715.582   1360      
6184.5     0          8.5        8.650061   2837.875   17396.14   24.71999   0.02650073 1621.735   159.6824   0.005756399 9.305006   9.22331    6.253086   6571.594   33.64427   4.045818   2.287288   203.4361   65.23438   2749.874   1400      
6185       0          8.5        8.615175   2653.22    16150.75   24.1212    0.03136916 1525.901   160.5366   0.005736237 9.895439   9.804655   6.573492   6573.023   34.49867   4.065761   2.297527   203.9808   65.23438   2758.951   1480      
6185.5     0          8.5        8.615145   2711.135   16633.61   24.86018   0.02832931 1563.176   159.4296   0.005777244 10.19173   10.0796    7.19106    6539.537   35.34002   4.080534   2.284891   204.4756   65.23438   2770.045   1460      
6186       0          8.5        8.679869   3059.875   17155.01   27.9224    0.01862631 1507.525   152.4449   0.005834669 10.49369   10.38198   6.88499    6212.096   37.93054   4.123783   2.232527   205.1952   65.23438   2764.498   1380      
6186.5     0          8.5        8.714354   3165.067   16954.03   29.44108   0.01530606 1592.773   146.8433   0.00586289 10.4935    10.38651   6.278075   6561.819   38.78071   4.139549   2.206557   205.5036   65.23438   2757.942   1460      
6187       0          8.5        8.723448   3265.274   17372.29   30.25353   0.01314623 1636.047   137.6103   0.005895875 10.36958   10.29528   5.686351   6762.422   38.44334   4.14038    2.192665   205.5626   65.23438   2710.539   1500      
6187.5     0          8.5        8.750244   3166.665   17797.54   29.79394   0.01177324 1555.004   140.5513   0.005888856 10.30323   10.24471   5.709704   6610.378   37.98771   4.136065   2.200523   205.5368   65.23438   2691.881   1440      
6188       0          8.5        8.718164   2925.791   16236.46   28.36673   0.006180572 1565.306   148.8967   0.005848678 10.36163   10.2875    5.823314   6391.115   37.8028    4.139503   2.224929   205.3242   65.23438   2731.215   1380      
6188.5     0          8.5        8.682945   2909.612   16087.56   27.9208    0.003680706 1591.151   149.3585   0.005860189 10.32102   10.23433   5.757172   6629.062   37.89018   4.144156   2.232554   205.093    65.23438   2779.626   1380      
6189       0          8.5        8.733904   2941.018   16534.86   26.4669    0.01122683 1660.707   148.4128   0.005901867 9.985445   9.893042   6.320936   6743.232   36.41611   4.121189   2.257416   205.0653   65.23438   2789.208   1500      
6189.5     0          8.5        8.751743   3009.108   17257.64   24.98566   0.02174981 1666.218   150.9167   0.005917308 9.738865   9.652641   6.843369   6690.311   34.56466   4.084124   2.282745   204.9798   65.23438   2804.841   1420      
6190       0          8.5        8.756386   2542.417   16392.81   21.86344   0.04294122 1595.057   165.0747   0.005906601 9.037664   8.991318   7.665413   6370.289   30.996     4.007113   2.336135   204.842    65.23438   2757.942   1400      
6190.5     0          8.5        8.743139   2619.511   16815.36   20.66078   0.0504294  1594.635   171.7035   0.005880834 8.75351    8.736187   8.161825   6347.784   30.55134   3.994357   2.3567     204.5069   65.23438   2770.549   1480      
6191       0          8.5        8.714348   2660.814   16811.22   20.49496   0.05125768 1608.804   177.7708   0.005872516 8.472139   8.491713   8.063259   6507.487   32.35954   4.031982   2.359536   204.3675   65.23438   2708.018   1520      
6191.5     0          8.5        8.716646   2659.643   16872.22   21.03301   0.0450018  1643.763   176.4588   0.005871181 8.684029   8.744886   7.308772   6868.786   33.31001   4.059657   2.350336   204.3775   65.23438   2690.368   1440      
6192       0          8.5        8.720896   2570.003   16208.85   22.21004   0.02657076 1758.695   156.3213   0.005866543 9.950785   9.961924   6.838489   6726.895   33.14138   4.085658   2.330208   205.0976   65.23438   2741.805   1400      
6192.5     0          8.5        8.674574   2666.511   15862.09   24.45555   0.0100917  1792.088   105.9715   0.005795918 11.48897   11.43219   7.922525   7251.256   31.12478   4.090876   2.29181    205.7332   65.23438   2773.575   1420      
6193       0          8.5        8.62005    2736.857   16267.18   26.13422   0.00563968 1907.886   78.48048   0.005678612 11.87552   11.77028   8.604771   7513.974   30.07526   4.089616   2.263105   205.8773   65.23438   2746.848   1500      
6193.5     0          8.5        8.550241   3131.205   16971.09   29.76493   0.003743585 1947.99    43.31684   0.005647048 11.3417    11.30127   9.358639   7912.309   28.43956   4.074855   2.20102    206.2971   65.23438   2734.241   1480      
6194       0          8.5        8.551537   3228.245   17454.85   31.32672   0.003060786 1946.492   40.36852   0.00570117 10.89944   10.89632   8.496054   7825.968   27.78286   4.057326   2.174313   206.4031   65.23438   2722.138   1360      
6194.5     0          8.5        8.704678   3330.501   17346.84   32.52894   0.003397767 1790.584   62.43412   0.005844423 10.15642   10.18622   6.94738    7792.192   27.23445   4.019405   2.153755   206.109    65.23438   2727.685   1460      
6195       0          8.5        8.735315   3339.759   17307.05   32.4885    0.003634675 1724.85    77.51781   0.005877191 10.08703   10.11448   6.67969    7593.517   28.02707   4.019631   2.154447   205.8703   65.23438   2725.164   1500      
6195.5     0          8.5        8.654049   3175.497   17180.76   31.16476   0.006244183 1560.349   101.751    0.005803817 10.3272    10.32864   6.811517   6312.79    31.93497   4.062787   2.177083   205.0187   65.23438   2743.318   1440      
6196       0          8.5        8.65493    3304.987   17445.69   29.82156   0.00901885 1580.472   109.2197   0.005790534 10.39714   10.40453   6.782376   6451.715   34.28069   4.095042   2.200051   204.4535   65.23438   2739.788   1360      
6196.5     0          8.5        8.671217   2837.485   16258.22   26.94526   0.01539389 1629.799   123.2493   0.005813252 10.24386   10.26803   7.25344    6738.422   37.0654    4.131151   2.249236   203.5265   65.23438   2790.217   1400      
6197       0          8.5        8.684731   2764.735   16420.04   25.78189   0.01765748 1622.011   134.3017   0.005841967 9.892727   9.928331   7.26128    6838.579   37.14805   4.128297   2.26913    203.1428   65.17334   2811.901   1520      
6197.5     0          8.5        8.712719   2789.624   16651.36   24.57688   0.01810246 1579.888   151.4222   0.005871893 8.958534   9.010202   7.120885   6369.512   36.86846   4.11601    2.289735   202.7476   65.23438   2757.942   1480      
6198       0          8.5        8.730873   2813.64    16300.89   24.22313   0.01694393 1507.598   154.3428   0.005884444 8.415852   8.471972   6.99424    6476.223   37.36945   4.115655   2.295784   202.6924   65.23438   2755.421   1360      
6198.5     0          8.5        8.72217    2608.355   15917.77   23.48555   0.01392747 1531.516   156.8845   0.005870075 7.577484   7.639406   6.870914   6293.3     39.25257   4.124737   2.308397   201.9922   65.23438   2769.541   1460      
6199       0          8.5        8.714413   2647.411   16000.51   23.02199   0.01405783 1493.488   158.596    0.005871057 7.360805   7.419333   6.970413   6159.661   40.19063   4.131189   2.316324   201.6039   65.23438   2786.182   1480      
