~Version
 VERS              .         3.0                           : CWLS LOG ASCII STANDARD - VERSION 3.0
 WRAP              .         NO                            : ONE LINE PER DEPTH STEP
 DLM               .         SPACE                         : DELIMITING CHARACTER(SPACE TAB OR COMMA)
~Well Information
#_______________________________________________________________________________
#
#PARAMETER_NAME    .UNIT     VALUE                         : DESCRIPTION
#_______________________________________________________________________________
STRT               .ft       5984                          : First reference value
STOP               .ft       6354                          : Last reference value
STEP               .ft       0.5                           : Step increment
NULL               .         -9999                         : Missing value
COMP               .                                       : Company
WELL               .         EGBM-009-ST1                  : Well name
FLD                .         WILDCAT                       : Field
LOC                .                                       : Location
SRVC               .                                       : Service Company
CTRY               .                                       : Country
DATE               .                                       : Service Date
X                  .                                       : X or East-West coordinate
Y                  .                                       : Y or North South coordinate
GDAT               .                                       : Geodetic Datum
HZCS               .                                       : Horizontal Co-ordinate System
CREATION-TIME      .         1992/3/5 0_0                  : 
FIELD-NAME         .         WILDCAT                       : 
FILE-ID            .         BPBLIS.003                    : 
FILE-NUMBER        .         3                             : 
FILE-SET-NAME      .         EGBEMA-9                      : 
FILE-SET-NUMBER    .         0                             : 
FILE-TYPE          .                                       : 
NAME-SPACE-NAME    .         LIS                           : 
NAME-SPACE-VERSION .         0                             : 
PRODUCER-CODE      .         440                           : 
PRODUCER-NAME      .         Schlumberger                  : 
PRODUCT            .         LIS                           : 
PROGRAMS           .                                       : 
VERSION            .                                       : 
WELL-NAME          .                                       : 
~Parameter Information Block
#_______________________________________________________________________________
#
#PARAMETER_NAME    .UNIT     VALUE                         : DESCRIPTION
#_______________________________________________________________________________
SET                .         BPBLIS_001_1                  : 
ACQUISITION-PRODUCT .         DLIS/U                        : 
CREATION-TIME      .         2026/5/15 11_47               : 
DLIS_FRAME_DIRECTION .         DECREASING                    : 
DLIS_FRAME_NAME    .         1                             : 
DLIS_FRAME_SPACING .0.1_in   -60                           : 
FIELD-NAME         .         WILDCAT                       : 
FILE-ID            .         BPBLIS.001                    : 
FILE-NUMBER        .         1                             : 
FILE-SET-NAME      .         LIS-TO-DLIS-CONVERSION        : 
FILE-SET-NUMBER    .         5992                          : 
FILE-TYPE          .                                       : 
INDEX-TYPE         .         BOREHOLE-DEPTH                : 
NAME-SPACE-NAME    .                                       : 
NAME-SPACE-VERSION .         0                             : 
OriginalDatasetName .         1                             : 
PRODUCER-CODE      .         440                           : 
PRODUCER-NAME      .         Schlumberger                  : 
PRODUCT            .         DLIS/U                        : 
PROGRAMS           .         LIS-TO-DLIS                   : 
TLFamily_AVOL      .                                       : 
TLFamily_BS        .         Bit Size                      : 
TLFamily_CALI      .         Caliper                       : 
TLFamily_DCRF      .                                       : 
TLFamily_DCRN      .                                       : 
TLFamily_DEPT      .         Measured Depth                : 
TLFamily_DPHI      .                                       : 
TLFamily_DRHO      .         Bulk Density Correction       : 
TLFamily_FCNL      .                                       : 
TLFamily_GR        .         Gamma Ray                     : 
TLFamily_HVOL      .         Hydrocarbon Volume Fraction   : 
TLFamily_LLD       .         Resistivity - Deep Laterolog  : 
TLFamily_LLS       .         Resistivity - Shallow Laterolog: 
TLFamily_MLL       .         Resistivity - Micro           : 
TLFamily_NCNL      .                                       : 
TLFamily_NPHI      .         Neutron Porosity              : 
TLFamily_NRAT      .         Thermal Neutron Near Far Ratio: 
TLFamily_RHOB      .         Bulk Density                  : 
TLFamily_SP        .         Spontaneous Potential         : 
TLFamily_TEMP      .         Temperature                   : 
TLFamily_TENS      .         Tension                       : 
TLFamily_TIME      .         Date Time                     : 
VERSION            .         0.1                           : 
WELL-NAME          .                                       : 
~Curve Information
#_______________________________________________________________________________
#
#LOGNAME           .UNIT     LOG_ID                        : DESCRIPTION
#_______________________________________________________________________________
DEPT               .ft                                     :  {F}
AVOL               .m3                                     :  {F}
BS                 .in                                     :  {F}
CALI               .in                                     :  {F}
DCRF               .SDU                                    :  {F}
DCRN               .SDU                                    :  {F}
DPHI               .%                                      :  {F}
DRHO               .g/cm3                                  :  {F}
FCNL               .1/s                                    :  {F}
GR                 .gAPI                                   :  {F}
HVOL               .m3                                     :  {F}
LLD                .ohm.m                                  :  {F}
LLS                .ohm.m                                  :  {F}
MLL                .ohm.m                                  :  {F}
NCNL               .1/s                                    :  {F}
NPHI               .%                                      :  {F}
NRAT               .                                       :  {F}
RHOB               .g/cm3                                  :  {F}
SP                 .mV                                     :  {F}
TEMP               .degC                                   :  {F}
TENS               .lbm                                    :  {F}
TIME               .ms                                     : {F}
~Ascii
# ...
6282       0          8.5        9.246424   2649.918   16610.23   20.98259   0.04543807 1264.675   133.3923   0.006626396 2.083942   1.965925   1.900479   5512.766   57.07063   4.395422   2.351198   208.4743   64.99023   2894.1     1380      
6282.5     0          8.5        9.297281   2668.41    16563.77   21.10677   0.04560879 1299.011   132.5854   0.006677992 2.074567   1.956087   1.901493   5450.069   54.19519   4.314503   2.349074   208.1923   64.99023   2847.201   1520      
6283       0          8.5        9.307558   2651.725   16818.84   20.92243   0.04535758 1244.461   130.5189   0.006615441 2.070282   1.955845   1.947516   5410.108   53.41517   4.292782   2.352226   207.4306   64.99023   2844.68    1500      
6283.5     0          8.5        9.206484   2584.783   16494.5    20.119     0.04510369 1226.75    124.6137   0.006544244 2.052481   1.93873    1.991743   5614.687   53.62991   4.299766   2.365965   206.0902   64.99023   2858.295   1400      
6284       0          8.5        9.195139   2520.012   16199.63   19.67539   0.0454607  1288.249   123.2057   0.006577219 2.030173   1.916794   1.972527   5558.34    54.08613   4.311795   2.373551   206.2065   64.99023   2881.997   1380      
6284.5     0          8.5        9.253813   2556.178   16473.8    19.64024   0.0448242  1202.384   125.0718   0.006634193 1.961878   1.847913   1.887676   5307.331   55.44542   4.340836   2.374152   205.8215   64.94954   2904.185   1500      
6285       0          8.5        9.273989   2550.829   16436      20.10737   0.04395141 1194.166   127.2735   0.00668016 1.930351   1.816292   1.852169   5428.43    56.23289   4.356683   2.366164   205.891    64.99023   2913.263   1540      
6285.5     0          8.5        9.316366   2659.643   16628.81   20.98468   0.04250994 1256.338   128.8165   0.006739155 1.88667    1.773168   1.840679   5482.892   57.50059   4.386031   2.351162   205.4254   64.94954   2878.971   1420      
6286       0          8.5        9.344368   2668.121   16763.94   21.16871   0.04185186 1213.145   127.0123   0.006841002 1.879127   1.765305   1.840641   5420.569   57.9981    4.401643   2.348015   -9999      64.99023   2867.876   1400      
6286.5     0          8.5        9.471735   2606.497   16494.39   21.04982   0.04172366 1196.085   123.3288   0.006987292 1.851497   1.737083   1.83721    5603.008   58.79875   4.431715   2.350048   -9999      64.86816   2844.175   1540      
6287       0          8.5        9.53396    2629.957   16456.47   21.04853   0.04232192 1239.057   122.6446   0.007014492 1.80417    1.687063   1.757647   5418.082   59.91122   4.460586   2.35007    -9999      64.89868   2809.379   1480      
6287.5     0          8.5        9.515722   2655.985   16785.12   21.21504   0.04206128 1217.025   123.54     0.006977674 1.771011   1.659954   1.707199   5323.516   60.28246   4.464559   2.347223   -9999      64.94954   2819.465   1440      
6288       0          8.5        9.510689   2653.705   16800.95   21.48853   0.04056907 1219.06    124.0789   0.006978433 1.720699   1.618539   1.673067   5305.083   60.03454   4.443464   2.342546   -9999      64.86816   2920.827   1340      
6288.5     0          8.5        9.506241   2691.092   16368.07   21.3816    0.04111116 1259.789   122.7708   0.006969254 1.703111   1.60615    1.689764   5396.41    59.60908   4.426224   2.344375   -9999      64.89868   2914.775   1460      
6289       0          8.5        9.493914   2610.834   16681.78   20.81356   0.0456889  1185.562   118.5544   0.006961548 1.680296   1.590703   1.698013   5286.456   59.29758   4.411756   2.354088   -9999      64.86816   2884.518   1480      
6289.5     0          8.5        9.495384   2649.918   16874.98   20.49206   0.04913773 1213.934   116.6315   0.006968454 1.676898   1.58547    1.652771   5363.913   59.28296   4.410672   2.359586   -9999      64.86816   2865.355   1400      
6290       0          8.5        9.503805   2626.95    16635.19   20.49487   0.05172198 1193.177   115.9516   0.006973757 1.668113   1.577425   1.625261   5356.923   59.77162   4.424063   2.359538   -9999      64.86816   2861.825   1360      
6290.5     0          8.5        9.504524   2643.69    16849.64   20.79601   0.05069324 1179.809   116.2546   0.006976112 1.666875   1.574796   1.613716   5331.592   60.15678   4.434826   2.354388   -9999      64.86816   2882.501   1520      
6291       0          8.5        9.505779   2715.098   16597.78   21.34492   0.05208822 1211.833   120.2035   0.006985315 1.678929   1.57982    1.63302    5288.026   60.34084   4.44101    2.345002   -9999      64.86816   2835.098   1460      
6291.5     0          8.5        9.50857    2693.525   17029.14   21.46411   0.05491237 1229.117   122.8553   0.006975023 1.689833   1.585545   1.634641   5331.303   60.19194   4.437551   2.342964   -9999      64.86816   2836.611   1400      
6292       0          8.5        9.499914   2717.451   17327.69   21.24106   0.06213854 1172.839   124.8716   0.00696587 1.719497   1.601382   1.695654   5378.189   59.43126   4.417893   2.346778   -9999      64.86816   2862.33    1360      
6292.5     0          8.5        9.496498   2733.015   17260.26   21.07957   0.06534678 1235.78    124.6838   0.006964688 1.731717   1.605706   1.7013     5390.901   58.92224   4.406631   2.349539   -9999      64.86816   2902.672   1480      
6293       0          8.5        9.499481   2719.391   17187.2    20.96077   0.07086755 1316.066   118.6957   0.006970803 1.721972   1.593657   1.720345   5318.795   57.90546   4.402742   2.351571   -9999      64.86816   2889.057   1480      
6293.5     0          8.5        9.504368   2769.355   17589.98   20.96046   0.07424617 1330.755   115.6991   0.006963853 1.702362   1.577406   1.720417   5381.966   57.35007   4.415222   2.351576   -9999      64.86816   2868.885   1400      
6294       0          8.5        9.480799   2771.051   17671.9    21.22799   0.07968919 1359.424   115.7972   0.006942742 1.730569   1.631476   1.715476   6360.362   56.36479   4.479587   2.347001   -9999      64.86816   2852.244   1380      
6294.5     0          8.5        9.48217    2793.885   17842.82   21.28205   0.08150254 1403.763   118.2781   0.00691831 1.871276   1.765494   1.713973   6482.028   56.25468   4.530742   2.346077   -9999      64.86816   2859.304   1500      
6295       0          8.5        9.425278   2826.168   17922.82   19.59523   0.08633102 1406.829   119.8622   0.006832073 2.370139   2.215515   1.788753   6480.689   56.1013    4.612061   2.374921   -9999      64.86816   2848.209   1500      
6295.5     0          8.5        9.386539   2728.84    17769.16   18.26099   0.08605425 1461.59    119.337    0.006829106 2.699204   2.49675    1.978883   6641.481   55.0593    4.599007   2.397737   -9999      64.86816   2838.124   1380      
6296       0          8.5        9.452927   2293.585   15647.11   16.43634   0.07946542 1475.976   122.2641   0.00693574 3.096041   2.842937   2.460407   6696.346   50.74123   4.452779   2.428938   -9999      64.86816   2809.884   1360      
6296.5     0          8.5        9.487871   2550.751   16610.36   16.27236   0.07513191 1471.859   125.1457   0.006980722 2.981906   2.766882   2.544503   6237.731   48.65027   4.361571   2.431743   -9999      64.86816   2826.525   1460      
6297       0          8.5        9.522299   2539.42    16887.02   17.2036    0.06982218 1362.944   130.1486   0.006996214 2.495092   2.349095   2.561292   5755.365   47.00978   4.242797   2.415818   -9999      64.86816   3024.206   1480      
6297.5     0          8.5        9.484892   2498.45    16901.71   17.58225   0.07112747 1334.216   134.6937   0.00692486 2.028492   1.907694   2.235123   5804.151   48.66429   4.236282   2.409343   -9999      64.86816   3005.547   1440      
6298       0          8.5        9.430628   2541.157   16737.42   18.00619   0.06895351 1340.872   139.1707   0.006829934 1.906978   1.779841   2.092968   5696.476   49.86192   4.250603   2.402094   -9999      64.86816   2932.93    1420      
