~Version
 VERS              .         3.0                           : CWLS LOG ASCII STANDARD - VERSION 3.0
 WRAP              .         NO                            : ONE LINE PER DEPTH STEP
 DLM               .         SPACE                         : DELIMITING CHARACTER(SPACE TAB OR COMMA)
~Well Information
#_______________________________________________________________________________
#
#PARAMETER_NAME    .UNIT     VALUE                         : DESCRIPTION
#_______________________________________________________________________________
STRT               .ft       5984                          : First reference value
STOP               .ft       6354                          : Last reference value
STEP               .ft       0.5                           : Step increment
NULL               .         -9999                         : Missing value
COMP               .                                       : Company
WELL               .         EGBM-009-ST1                  : Well name
FLD                .         WILDCAT                       : Field
LOC                .                                       : Location
SRVC               .                                       : Service Company
CTRY               .                                       : Country
DATE               .                                       : Service Date
X                  .                                       : X or East-West coordinate
Y                  .                                       : Y or North South coordinate
GDAT               .                                       : Geodetic Datum
HZCS               .                                       : Horizontal Co-ordinate System
CREATION-TIME      .         1992/3/5 0_0                  : 
FIELD-NAME         .         WILDCAT                       : 
FILE-ID            .         BPBLIS.003                    : 
FILE-NUMBER        .         3                             : 
FILE-SET-NAME      .         EGBEMA-9                      : 
FILE-SET-NUMBER    .         0                             : 
FILE-TYPE          .                                       : 
NAME-SPACE-NAME    .         LIS                           : 
NAME-SPACE-VERSION .         0                             : 
PRODUCER-CODE      .         440                           : 
PRODUCER-NAME      .         Schlumberger                  : 
PRODUCT            .         LIS                           : 
PROGRAMS           .                                       : 
VERSION            .                                       : 
WELL-NAME          .                                       : 
~Parameter Information Block
#_______________________________________________________________________________
#
#PARAMETER_NAME    .UNIT     VALUE                         : DESCRIPTION
#_______________________________________________________________________________
SET                .         BPBLIS_001_1                  : 
ACQUISITION-PRODUCT .         DLIS/U                        : 
CREATION-TIME      .         2026/5/15 11_47               : 
DLIS_FRAME_DIRECTION .         DECREASING                    : 
DLIS_FRAME_NAME    .         1                             : 
DLIS_FRAME_SPACING .0.1_in   -60                           : 
FIELD-NAME         .         WILDCAT                       : 
FILE-ID            .         BPBLIS.001                    : 
FILE-NUMBER        .         1                             : 
FILE-SET-NAME      .         LIS-TO-DLIS-CONVERSION        : 
FILE-SET-NUMBER    .         5992                          : 
FILE-TYPE          .                                       : 
INDEX-TYPE         .         BOREHOLE-DEPTH                : 
NAME-SPACE-NAME    .                                       : 
NAME-SPACE-VERSION .         0                             : 
OriginalDatasetName .         1                             : 
PRODUCER-CODE      .         440                           : 
PRODUCER-NAME      .         Schlumberger                  : 
PRODUCT            .         DLIS/U                        : 
PROGRAMS           .         LIS-TO-DLIS                   : 
TLFamily_AVOL      .                                       : 
TLFamily_BS        .         Bit Size                      : 
TLFamily_CALI      .         Caliper                       : 
TLFamily_DCRF      .                                       : 
TLFamily_DCRN      .                                       : 
TLFamily_DEPT      .         Measured Depth                : 
TLFamily_DPHI      .                                       : 
TLFamily_DRHO      .         Bulk Density Correction       : 
TLFamily_FCNL      .                                       : 
TLFamily_GR        .         Gamma Ray                     : 
TLFamily_HVOL      .         Hydrocarbon Volume Fraction   : 
TLFamily_LLD       .         Resistivity - Deep Laterolog  : 
TLFamily_LLS       .         Resistivity - Shallow Laterolog: 
TLFamily_MLL       .         Resistivity - Micro           : 
TLFamily_NCNL      .                                       : 
TLFamily_NPHI      .         Neutron Porosity              : 
TLFamily_NRAT      .         Thermal Neutron Near Far Ratio: 
TLFamily_RHOB      .         Bulk Density                  : 
TLFamily_SP        .         Spontaneous Potential         : 
TLFamily_TEMP      .         Temperature                   : 
TLFamily_TENS      .         Tension                       : 
TLFamily_TIME      .         Date Time                     : 
VERSION            .         0.1                           : 
WELL-NAME          .                                       : 
~Curve Information
#_______________________________________________________________________________
#
#LOGNAME           .UNIT     LOG_ID                        : DESCRIPTION
#_______________________________________________________________________________
DEPT               .ft                                     :  {F}
AVOL               .m3                                     :  {F}
BS                 .in                                     :  {F}
CALI               .in                                     :  {F}
DCRF               .SDU                                    :  {F}
DCRN               .SDU                                    :  {F}
DPHI               .%                                      :  {F}
DRHO               .g/cm3                                  :  {F}
FCNL               .1/s                                    :  {F}
GR                 .gAPI                                   :  {F}
HVOL               .m3                                     :  {F}
LLD                .ohm.m                                  :  {F}
LLS                .ohm.m                                  :  {F}
MLL                .ohm.m                                  :  {F}
NCNL               .1/s                                    :  {F}
NPHI               .%                                      :  {F}
NRAT               .                                       :  {F}
RHOB               .g/cm3                                  :  {F}
SP                 .mV                                     :  {F}
TEMP               .degC                                   :  {F}
TENS               .lbm                                    :  {F}
TIME               .ms                                     : {F}
~Ascii
# ...
6100.5     0          8.5        8.588085   3259.823   17376.44   32.60792   0.006615209 1878.926   36.29392   0.005794789 13.39619   12.67735   6.595222   7558.157   25.10816   3.92664    2.152404   184.9337   65.35645   2832.072   1360      
6101       0          8.5        8.771307   3326.736   17792.27   32.37763   0.0113413  1852.504   39.58125   0.005940181 13.00701   12.32814   6.076946   7456.565   26.7161    3.983479   2.156343   185.5428   65.35645   2846.192   1480      
6101.5     0          8.5        8.813641   3285.105   17586      32.15389   0.01446384 1873.376   39.55363   0.005874084 13.13181   12.42971   6.177949   7438.331   27.06109   3.991629   2.160168   185.3919   65.35645   2816.439   1480      
6102       0          8.5        8.595219   3263.184   17608.01   31.90901   0.01828257 1876.996   36.31456   0.005682194 13.72735   12.9636    7.447149   7327.848   26.30809   3.953387   2.164356   183.6601   65.39713   2831.063   1420      
6102.5     0          8.5        8.526039   3261.356   17747.91   32.06823   0.01679397 1988.979   34.64117   0.005607052 14.07054   13.27595   7.781788   7411.075   25.40978   3.915839   2.161633   182.7884   65.39713   2833.585   1400      
6103       0          8.5        8.519032   3310.065   17549.42   32.83257   0.008420913 1979.636   31.94827   0.005604266 14.57878   13.7333    7.724375   7544.899   23.98173   3.864021   2.148563   181.6401   65.35645   2826.525   1480      
6103.5     0          8.5        8.520187   3322.651   17167.83   33.22034   0.003802776 1953.995   32.0485    0.005610425 14.58595   13.73968   7.732239   7558.157   23.82826   3.864159   2.141932   181.8027   65.35645   2767.02    1480      
6104       0          8.5        8.517651   3273.11    17322.94   33.48074   0.001703119 1915.122   33.88752   0.005597714 14.45779   13.59784   7.715889   7707.717   24.78003   3.916557   2.137479   182.576    65.35645   2737.771   1380      
6104.5     0          8.5        8.512493   3369.841   17433.25   33.28783   0.005939754 1869.765   34.49752   0.005588799 14.4328    13.55563   7.694165   7686.396   25.47845   3.949328   2.140778   182.7309   65.35645   2728.189   1340      
6105       0          8.5        8.504753   3375.395   17873.77   32.97161   0.01733759 1918.643   35.73614   0.005584938 14.33529   13.42246   8.011612   7483.057   26.35746   3.984293   2.146185   182.7936   65.35645   2756.934   1460      
6105.5     0          8.5        8.504158   3352.329   18106.4    32.9987    0.02095342 1880.648   36.82442   0.005590751 14.3714    13.42501   8.023249   7472.441   26.55001   3.990227   2.145722   183.0353   65.35645   2804.336   1480      
6106       0          8.5        8.514563   3424.292   18046.38   33.2421    0.01923713 1906.37    37.91097   0.005601706 14.29957   13.32833   7.951091   7751.178   26.65572   3.995201   2.14156    184.164    65.38696   2849.723   1400      
6106.5     0          8.5        8.520113   3394.788   18006.41   33.42097   0.01473821 1966.951   38.14474   0.005603905 14.20152   13.23703   7.703975   7702.503   26.5723    3.993291   2.138501   184.8908   65.35645   2856.278   1420      
6107       0          8.5        8.511984   3346.564   17377.07   33.77116   0.006851275 1926.793   37.79398   0.005583958 13.99408   13.07083   7.482063   7664.273   26.34355   3.982365   2.132513   185.5103   65.38696   2843.167   1480      
6107.5     0          8.5        8.501352   3345.643   17467.29   33.90906   0.005685568 1841.345   37.88009   0.005567089 13.93375   13.02377   7.402102   7461.364   26.36139   3.97893    2.130155   185.102    65.35645   2790.721   1500      
6108       0          8.5        8.488029   3418.625   17904.35   33.97455   0.008759117 1855.89    39.76536   0.005569229 14.02435   13.12832   7.430373   7476.233   26.60891   3.978415   2.129035   183.5078   65.35645   2800.302   1400      
6108.5     0          8.5        8.487415   3414.34    17739.43   33.87436   0.01062134 1914.152   39.99561   0.005575025 14.20228   13.29375   7.471105   7452.15    26.69643   3.979121   2.130748   182.9427   65.35645   2826.021   1340      
6109       0          8.5        8.50771    3360.017   17837.01   33.52494   0.00985066 1907.163   38.55011   0.005621521 14.52321   13.59167   7.863631   7510.549   26.62498   3.980599   2.136724   183.9541   65.35645   2843.671   1500      
6109.5     0          8.5        8.571249   3323.217   17472.04   32.85186   0.008406034 1982.638   37.35739   0.005693972 14.65643   13.70764   8.025843   7765.88    26.1121    3.973082   2.148233   185.8697   65.35645   2884.518   1480      
6110       0          8.5        8.628746   3265.274   17252.99   32.35142   0.01121921 1981.464   37.81715   0.005888543 14.62357   13.67314   7.888207   7945.425   25.68253   3.959498   2.156791   186.3183   65.38696   2826.525   1400      
6110.5     0          8.5        8.888454   3225.63    17813.66   31.19273   0.02462252 2015.3     38.60313   0.006137704 14.4629    13.52292   7.176093   7626.059   24.49755   3.904583   2.176604   185.9217   65.35645   2761.472   1400      
6111       0          8.5        9.010084   3274.05    18064.98   30.55145   0.03287369 1880.648   38.10674   0.006328868 14.45602   13.50266   6.74391    7244.873   24.179     3.882133   2.18757    185.4048   65.35645   2768.532   1520      
6111.5     0          8.5        9.092495   3200.583   18016.27   29.66087   0.04219896 1824.323   35.91043   0.006373457 14.71726   13.7101    6.941644   7250.08    24.50271   3.874572   2.202799   185.1927   65.35645   2723.651   1500      
6112       0          8.5        9.088896   3150.468   17956.62   29.4927    0.04195191 1897.074   34.55842   0.006325215 14.93584   13.89443   7.385126   7178.008   24.75907   3.87982    2.205675   185.4643   65.35645   2731.215   1400      
6112.5     0          8.5        8.981167   3185.017   17722.23   29.5011    0.03777251 1879.112   32.91191   0.006195591 15.41135   14.32095   9.043541   7242.54    25.15639   3.896876   2.205531   185.7751   65.35645   2853.252   1380      
6113       0          8.5        8.919174   3202.625   17716.02   29.75071   0.03432994 1846.615   31.8294    0.006061462 15.48589   14.39492   9.031395   7268.522   25.21844   3.904375   2.201263   186.2046   65.35645   2853.252   1500      
6113.5     0          8.5        8.776999   3174.654   17779.12   30.41991   0.02616877 1919.865   31.09985   0.005882218 15.29789   14.23025   8.610607   7507.445   25.30359   3.924603   2.189819   186.4835   65.35645   2810.892   1480      
6114       0          8.5        8.671329   3238.924   17378.11   30.70215   0.02212736 1966.193   32.65118   0.005702658 15.06028   14.03022   8.248476   7746.349   25.28949   3.932884   2.184993   186.3109   65.38696   2810.893   1400      
6114.5     0          8.5        8.535297   3196.989   17481.8    31.22479   0.01554998 2005.791   34.98292   0.005622743 14.52515   13.5385    7.699178   7855.562   24.75125   3.926157   2.176056   185.5757   65.35645   2833.585   1380      
6115       0          8.5        8.525032   3189.208   17244.39   31.41763   0.01402461 1974.415   35.05574   0.005609697 14.33238   13.36222   7.547712   7651.003   24.47285   3.920029   2.172759   185.2407   65.35645   2804.841   1520      
6115.5     0          8.5        8.523241   3251.648   17713.39   31.75366   0.0106087  1993.954   33.95482   0.005608927 14.15148   13.17752   7.518036   7836.652   24.45061   3.928432   2.167012   184.0475   65.35645   2741.301   1460      
6116       0          8.5        8.523401   3275.722   17446.66   31.92425   0.008599313 1950.087   32.36424   0.005614523 14.1706    13.18725   7.747172   7954.889   24.63712   3.941029   2.164095   183.3914   65.35645   2747.856   1380      
6116.5     0          8.5        8.522018   3233.94    17100.01   31.82516   0.009126902 2030.421   30.28967   0.005606808 14.22309   13.23253   7.964537   8074.615   24.75136   3.951007   2.16579    182.8096   65.35645   2774.583   1340      
