~Version
 VERS              .         3.0                           : CWLS LOG ASCII STANDARD - VERSION 3.0
 WRAP              .         NO                            : ONE LINE PER DEPTH STEP
 DLM               .         SPACE                         : DELIMITING CHARACTER(SPACE TAB OR COMMA)
~Well Information
#_______________________________________________________________________________
#
#PARAMETER_NAME    .UNIT     VALUE                         : DESCRIPTION
#_______________________________________________________________________________
STRT               .ft       5984                          : First reference value
STOP               .ft       6354                          : Last reference value
STEP               .ft       0.5                           : Step increment
NULL               .         -9999                         : Missing value
COMP               .                                       : Company
WELL               .         EGBM-009-ST1                  : Well name
FLD                .         WILDCAT                       : Field
LOC                .                                       : Location
SRVC               .                                       : Service Company
CTRY               .                                       : Country
DATE               .                                       : Service Date
X                  .                                       : X or East-West coordinate
Y                  .                                       : Y or North South coordinate
GDAT               .                                       : Geodetic Datum
HZCS               .                                       : Horizontal Co-ordinate System
CREATION-TIME      .         1992/3/5 0_0                  : 
FIELD-NAME         .         WILDCAT                       : 
FILE-ID            .         BPBLIS.003                    : 
FILE-NUMBER        .         3                             : 
FILE-SET-NAME      .         EGBEMA-9                      : 
FILE-SET-NUMBER    .         0                             : 
FILE-TYPE          .                                       : 
NAME-SPACE-NAME    .         LIS                           : 
NAME-SPACE-VERSION .         0                             : 
PRODUCER-CODE      .         440                           : 
PRODUCER-NAME      .         Schlumberger                  : 
PRODUCT            .         LIS                           : 
PROGRAMS           .                                       : 
VERSION            .                                       : 
WELL-NAME          .                                       : 
~Parameter Information Block
#_______________________________________________________________________________
#
#PARAMETER_NAME    .UNIT     VALUE                         : DESCRIPTION
#_______________________________________________________________________________
SET                .         BPBLIS_001_1                  : 
ACQUISITION-PRODUCT .         DLIS/U                        : 
CREATION-TIME      .         2026/5/15 11_47               : 
DLIS_FRAME_DIRECTION .         DECREASING                    : 
DLIS_FRAME_NAME    .         1                             : 
DLIS_FRAME_SPACING .0.1_in   -60                           : 
FIELD-NAME         .         WILDCAT                       : 
FILE-ID            .         BPBLIS.001                    : 
FILE-NUMBER        .         1                             : 
FILE-SET-NAME      .         LIS-TO-DLIS-CONVERSION        : 
FILE-SET-NUMBER    .         5992                          : 
FILE-TYPE          .                                       : 
INDEX-TYPE         .         BOREHOLE-DEPTH                : 
NAME-SPACE-NAME    .                                       : 
NAME-SPACE-VERSION .         0                             : 
OriginalDatasetName .         1                             : 
PRODUCER-CODE      .         440                           : 
PRODUCER-NAME      .         Schlumberger                  : 
PRODUCT            .         DLIS/U                        : 
PROGRAMS           .         LIS-TO-DLIS                   : 
TLFamily_AVOL      .                                       : 
TLFamily_BS        .         Bit Size                      : 
TLFamily_CALI      .         Caliper                       : 
TLFamily_DCRF      .                                       : 
TLFamily_DCRN      .                                       : 
TLFamily_DEPT      .         Measured Depth                : 
TLFamily_DPHI      .                                       : 
TLFamily_DRHO      .         Bulk Density Correction       : 
TLFamily_FCNL      .                                       : 
TLFamily_GR        .         Gamma Ray                     : 
TLFamily_HVOL      .         Hydrocarbon Volume Fraction   : 
TLFamily_LLD       .         Resistivity - Deep Laterolog  : 
TLFamily_LLS       .         Resistivity - Shallow Laterolog: 
TLFamily_MLL       .         Resistivity - Micro           : 
TLFamily_NCNL      .                                       : 
TLFamily_NPHI      .         Neutron Porosity              : 
TLFamily_NRAT      .         Thermal Neutron Near Far Ratio: 
TLFamily_RHOB      .         Bulk Density                  : 
TLFamily_SP        .         Spontaneous Potential         : 
TLFamily_TEMP      .         Temperature                   : 
TLFamily_TENS      .         Tension                       : 
TLFamily_TIME      .         Date Time                     : 
VERSION            .         0.1                           : 
WELL-NAME          .                                       : 
~Curve Information
#_______________________________________________________________________________
#
#LOGNAME           .UNIT     LOG_ID                        : DESCRIPTION
#_______________________________________________________________________________
DEPT               .ft                                     :  {F}
AVOL               .m3                                     :  {F}
BS                 .in                                     :  {F}
CALI               .in                                     :  {F}
DCRF               .SDU                                    :  {F}
DCRN               .SDU                                    :  {F}
DPHI               .%                                      :  {F}
DRHO               .g/cm3                                  :  {F}
FCNL               .1/s                                    :  {F}
GR                 .gAPI                                   :  {F}
HVOL               .m3                                     :  {F}
LLD                .ohm.m                                  :  {F}
LLS                .ohm.m                                  :  {F}
MLL                .ohm.m                                  :  {F}
NCNL               .1/s                                    :  {F}
NPHI               .%                                      :  {F}
NRAT               .                                       :  {F}
RHOB               .g/cm3                                  :  {F}
SP                 .mV                                     :  {F}
TEMP               .degC                                   :  {F}
TENS               .lbm                                    :  {F}
TIME               .ms                                     : {F}
~Ascii
# ...
6199.5     0          8.5        8.723288   2643.852   16184.12   22.64936   0.01306693 1463.883   162.5003   0.005869478 7.309894   7.346403   6.701336   6307.267   41.75048   4.150634   2.322696   200.8662   65.20386   2721.129   1440      
6200       0          8.5        8.714785   2617.032   15968.64   22.66307   0.01228196 1497.16    161.7473   0.005813323 7.419887   7.448295   6.901973   6259.974   42.29747   4.161666   2.322462   200.587    65.23438   2716.591   1340      
6200.5     0          8.5        8.640915   2626.33    15827.13   22.80928   0.0134253  1535.075   153.0212   0.005730854 7.980264   7.981246   6.442163   6246.278   42.66272   4.175886   2.319961   200.6048   65.17334   2760.968   1400      
6201       0          8.5        8.599037   2636.135   16128.87   23.20266   0.01547179 1527.799   146.9595   0.005689596 8.319624   8.30369    6.84404    6310.759   42.12024   4.171611   2.313234   200.7779   65.20386   2793.242   1500      
6201.5     0          8.5        8.576033   2794.231   16313.98   24.9107    0.01976388 1557.82    136.6684   0.005678626 8.87064    8.845766   6.989211   6521.683   39.71336   4.139139   2.284027   201.6542   65.20386   2795.764   1440      
6202       0          8.5        8.57605    2871.716   17171.08   26.05795   0.01958213 1565.306   133.0845   0.005678199 9.009363   8.995512   7.335877   6503.02    38.69742   4.125475   2.264409   202.1557   65.1123    2769.541   1400      
6202.5     0          8.5        8.575661   3018.829   17141.41   28.53247   0.01376615 1505.546   128.2206   0.005676406 8.990114   9.036047   6.920625   6368.749   38.20144   4.122901   2.222095   202.6595   65.14282   2763.994   1460      
6203       0          8.5        8.574091   3097.058   16714.75   31.53093   0.00706706 1594.156   126.1453   0.005675477 9.09269    9.145498   6.609587   6425.465   38.47628   4.130941   2.170821   202.8718   65.17334   2714.574   1520      
6203.5     0          8.5        8.57295    3380.536   17508.71   32.8531    0.00628926 1572.698   125.3398   0.005687581 9.159731   9.18919    6.440494   6484.766   38.61775   4.13721    2.148212   202.6921   65.14282   2750.378   1440      
6204       0          8.5        8.587351   3569.043   17939.21   34.43703   0.008061154 1611.398   125.9976   0.005700189 8.972776   8.974291   6.414227   6713.175   38.87201   4.154838   2.121127   202.4728   65.1123    2834.089   1360      
6204.5     0          8.5        8.602571   3398.63    17907.96   34.29379   0.009153476 1598.981   128.0326   0.005744671 8.680992   8.672493   6.494675   6653.086   38.98478   4.162781   2.123576   202.0125   65.14282   2815.935   1440      
6205       0          8.5        8.658382   3348.69    17593.55   30.85623   0.01517871 1567.315   137.2298   0.005799139 8.024679   8.029613   6.814772   6659.478   39.22697   4.166838   2.182358   201.1359   65.14282   2808.371   1520      
6205.5     0          8.5        8.686731   3155.682   17404.83   28.1314    0.02017217 1536.737   143.956    0.005844652 7.76728    7.780696   6.712104   6576.067   39.48643   4.163488   2.228953   200.9331   65.1123    2796.772   1460      
6206       0          8.5        8.705542   2535.066   16202.43   23.47783   0.02797511 1496.602   156.5179   0.005848556 7.262886   7.271465   6.602398   6243.031   40.4126    4.156043   2.308529   200.7804   65.1123    2748.361   1380      
6206.5     0          8.5        8.699095   2595.343   16226.12   22.2392    0.02935687 1541.276   159.9752   0.005862222 6.997499   7.019687   6.507852   6109.614   40.7375    4.151025   2.32971    200.8701   65.1123    2746.344   1460      
6207       0          8.5        8.733746   2740.863   16355.71   21.82035   0.02661988 1559.024   162.1825   0.005906066 6.760331   6.797847   5.937757   6404.799   40.93468   4.144482   2.336872   200.6271   65.1123    2789.208   1480      
6207.5     0          8.5        8.763281   2649.918   16552.52   21.84572   0.02531913 1484.653   160.41     0.005932434 6.894894   6.936722   5.693336   6264.734   40.76692   4.140876   2.336438   200.3696   65.1123    2780.131   1420      
6208       0          8.5        8.753756   2618.582   15937.94   21.27518   0.02777953 1512.616   158.0712   0.00590132 7.400463   7.443663   5.675423   6457.392   39.60732   4.119722   2.346194   200.3484   65.1123    2776.601   1340      
6208.5     0          8.5        8.728615   2607.673   16429.94   21.4717    0.0272322  1551.238   157.701    0.005817523 7.6749     7.710027   6.131886   6250.552   39.00659   4.107614   2.342834   200.2791   65.1123    2780.131   1420      
6209       0          8.5        8.64216    2632.142   16315.09   23.66392   0.02244597 1529.212   153.2131   0.005748857 7.738009   7.782694   6.388604   6197.321   38.9124    4.102926   2.305347   200.7021   65.1123    2797.781   1480      
6209.5     0          8.5        8.612223   2814.257   15974.99   25.19171   0.01930017 1528.671   153.1357   0.005739774 7.665285   7.713237   6.416103   6097.95    39.1256    4.10709    2.279222   200.847    65.1123    2778.114   1420      
6210       0          8.5        8.639      3112.945   17387.07   26.87566   0.0137935  1589.365   155.787    0.005796793 7.19615    7.284785   5.767488   6485.884   38.45397   4.098062   2.250426   200.8078   65.1123    2818.961   1380      
6210.5     0          8.5        8.680971   3022.727   17064.22   26.08749   0.01562074 1540.036   155.781    0.005851319 6.821146   6.926802   6.083691   6468.751   37.94441   4.089423   2.263904   200.5422   65.1123    2838.628   1460      
6211       0          8.5        8.718185   2531.841   15845.69   22.46345   0.02543041 1521.203   153.6597   0.005865752 6.145359   6.27555    5.617276   6088.459   38.43933   4.092965   2.325875   199.594    65.1123    2835.602   1500      
6211.5     0          8.5        8.719543   2530.729   16123.68   20.82272   0.03084971 1452.377   152.7867   0.005843273 5.922851   6.053689   5.667316   6190.926   39.635     4.11074    2.353931   199.3829   65.1123    2774.079   1440      
6212       0          8.5        8.682167   2561.559   16349.25   19.57946   0.03929834 1491.81    152.476    0.005804195 5.953839   6.057168   5.487542   6293.299   41.99522   4.150565   2.375191   198.7072   65.1123    2795.259   1360      
6212.5     0          8.5        8.654228   2579.224   16123.97   19.88475   0.04066692 1519.574   152.131    0.005791801 6.10834    6.20568    5.885983   6217.905   42.42551   4.161114   2.369971   199.0196   65.1123    2824.004   1420      
6213       0          8.5        8.665895   2599.061   16499.45   21.37669   0.03876602 1535.571   147.9258   0.005817933 6.573957   6.650248   5.882625   6333.425   42.63864   4.175877   2.344459   199.3913   65.1123    2859.808   1500      
6213.5     0          8.5        8.702755   2795.706   17010.54   23.09566   0.03533752 1491.216   143.7584   0.005840046 6.877285   6.93802    6.143189   6535.683   43.24751   4.199713   2.315064   200.1609   65.1123    2860.313   1440      
6214       0          8.5        8.696457   2765.978   16462.24   23.94785   0.03337175 1534.024   144.4585   0.00579997 6.872929   6.939279   6.190202   6223.488   43.42533   4.207707   2.300492   200.1756   65.1123    2848.209   1380      
6214.5     0          8.5        8.623234   2908.192   16797.35   24.53231   0.03216557 1558.131   147.6764   0.005741675 6.530186   6.616062   6.170506   6507.305   42.48904   4.194814   2.290497   200.4411   65.1123    2807.867   1440      
6215       0          8.5        8.608376   2896.234   17385.25   24.25001   0.03243685 1557.036   147.4276   0.005724449 6.337319   6.438945   6.481598   6494.087   41.59055   4.177106   2.295325   200.286    65.1123    2755.925   1520      
6215.5     0          8.5        8.618507   2728.564   16273.41   22.84187   0.03527725 1479.639   145.3102   0.0057706  6.127504   6.237285   6.091254   6426.707   40.92786   4.156583   2.319404   199.73     65.1123    2783.661   1440      
