~Version
 VERS              .         3.0                           : CWLS LOG ASCII STANDARD - VERSION 3.0
 WRAP              .         NO                            : ONE LINE PER DEPTH STEP
 DLM               .         SPACE                         : DELIMITING CHARACTER(SPACE TAB OR COMMA)
~Well Information
#_______________________________________________________________________________
#
#PARAMETER_NAME    .UNIT     VALUE                         : DESCRIPTION
#_______________________________________________________________________________
STRT               .ft       5984                          : First reference value
STOP               .ft       6354                          : Last reference value
STEP               .ft       0.5                           : Step increment
NULL               .         -9999                         : Missing value
COMP               .                                       : Company
WELL               .         EGBM-009-ST1                  : Well name
FLD                .         WILDCAT                       : Field
LOC                .                                       : Location
SRVC               .                                       : Service Company
CTRY               .                                       : Country
DATE               .                                       : Service Date
X                  .                                       : X or East-West coordinate
Y                  .                                       : Y or North South coordinate
GDAT               .                                       : Geodetic Datum
HZCS               .                                       : Horizontal Co-ordinate System
CREATION-TIME      .         1992/3/5 0_0                  : 
FIELD-NAME         .         WILDCAT                       : 
FILE-ID            .         BPBLIS.003                    : 
FILE-NUMBER        .         3                             : 
FILE-SET-NAME      .         EGBEMA-9                      : 
FILE-SET-NUMBER    .         0                             : 
FILE-TYPE          .                                       : 
NAME-SPACE-NAME    .         LIS                           : 
NAME-SPACE-VERSION .         0                             : 
PRODUCER-CODE      .         440                           : 
PRODUCER-NAME      .         Schlumberger                  : 
PRODUCT            .         LIS                           : 
PROGRAMS           .                                       : 
VERSION            .                                       : 
WELL-NAME          .                                       : 
~Parameter Information Block
#_______________________________________________________________________________
#
#PARAMETER_NAME    .UNIT     VALUE                         : DESCRIPTION
#_______________________________________________________________________________
SET                .         BPBLIS_001_1                  : 
ACQUISITION-PRODUCT .         DLIS/U                        : 
CREATION-TIME      .         2026/5/15 11_47               : 
DLIS_FRAME_DIRECTION .         DECREASING                    : 
DLIS_FRAME_NAME    .         1                             : 
DLIS_FRAME_SPACING .0.1_in   -60                           : 
FIELD-NAME         .         WILDCAT                       : 
FILE-ID            .         BPBLIS.001                    : 
FILE-NUMBER        .         1                             : 
FILE-SET-NAME      .         LIS-TO-DLIS-CONVERSION        : 
FILE-SET-NUMBER    .         5992                          : 
FILE-TYPE          .                                       : 
INDEX-TYPE         .         BOREHOLE-DEPTH                : 
NAME-SPACE-NAME    .                                       : 
NAME-SPACE-VERSION .         0                             : 
OriginalDatasetName .         1                             : 
PRODUCER-CODE      .         440                           : 
PRODUCER-NAME      .         Schlumberger                  : 
PRODUCT            .         DLIS/U                        : 
PROGRAMS           .         LIS-TO-DLIS                   : 
TLFamily_AVOL      .                                       : 
TLFamily_BS        .         Bit Size                      : 
TLFamily_CALI      .         Caliper                       : 
TLFamily_DCRF      .                                       : 
TLFamily_DCRN      .                                       : 
TLFamily_DEPT      .         Measured Depth                : 
TLFamily_DPHI      .                                       : 
TLFamily_DRHO      .         Bulk Density Correction       : 
TLFamily_FCNL      .                                       : 
TLFamily_GR        .         Gamma Ray                     : 
TLFamily_HVOL      .         Hydrocarbon Volume Fraction   : 
TLFamily_LLD       .         Resistivity - Deep Laterolog  : 
TLFamily_LLS       .         Resistivity - Shallow Laterolog: 
TLFamily_MLL       .         Resistivity - Micro           : 
TLFamily_NCNL      .                                       : 
TLFamily_NPHI      .         Neutron Porosity              : 
TLFamily_NRAT      .         Thermal Neutron Near Far Ratio: 
TLFamily_RHOB      .         Bulk Density                  : 
TLFamily_SP        .         Spontaneous Potential         : 
TLFamily_TEMP      .         Temperature                   : 
TLFamily_TENS      .         Tension                       : 
TLFamily_TIME      .         Date Time                     : 
VERSION            .         0.1                           : 
WELL-NAME          .                                       : 
~Curve Information
#_______________________________________________________________________________
#
#LOGNAME           .UNIT     LOG_ID                        : DESCRIPTION
#_______________________________________________________________________________
DEPT               .ft                                     :  {F}
AVOL               .m3                                     :  {F}
BS                 .in                                     :  {F}
CALI               .in                                     :  {F}
DCRF               .SDU                                    :  {F}
DCRN               .SDU                                    :  {F}
DPHI               .%                                      :  {F}
DRHO               .g/cm3                                  :  {F}
FCNL               .1/s                                    :  {F}
GR                 .gAPI                                   :  {F}
HVOL               .m3                                     :  {F}
LLD                .ohm.m                                  :  {F}
LLS                .ohm.m                                  :  {F}
MLL                .ohm.m                                  :  {F}
NCNL               .1/s                                    :  {F}
NPHI               .%                                      :  {F}
NRAT               .                                       :  {F}
RHOB               .g/cm3                                  :  {F}
SP                 .mV                                     :  {F}
TEMP               .degC                                   :  {F}
TENS               .lbm                                    :  {F}
TIME               .ms                                     : {F}
~Ascii
# ...
6018       0          8.5        8.72278    3217.236   17402.97   36.28246   0.0001366854 1189.787   58.51159   0.00591302 -9999      -9999      -9999      4886.683   53.97272   4.354161   -9999      191.6544   -9999      -9999      0         
6018.5     0          8.5        8.805883   3560.213   17231.02   39.57855   0.004611436 1207.115   62.5285    0.00604743 -9999      -9999      -9999      4897.538   54.51714   4.29074    -9999      190.7812   -9999      -9999      0         
6019       0          8.5        8.875671   4621.064   21137.65   44.85254   0.02655384 1114.891   76.59979   0.006105503 -9999      -9999      -9999      5023.724   54.97954   4.217838   -9999      189.3262   -9999      -9999      0         
6019.5     0          8.5        8.894472   4965.837   21165.39   46.20639   0.03795487 1110.335   83.70937   0.006292387 -9999      -9999      -9999      4854.864   57.11733   4.263637   -9999      188.8488   -9999      -9999      0         
6020       0          8.5        9.13862    5254.774   21023.71   47.58675   0.04551255 1152.138   99.89211   0.006438817 -9999      -9999      -9999      5071.604   61.92094   4.395586   1.896266   188.4083   -9999      -9999      0         
6020.5     0          8.5        9.146257   5302.363   20913.04   48.13292   0.0405808  1161.982   108.853    0.00638643 -9999      -9999      -9999      5237.332   63.82882   4.458406   1.886927   188.0717   -9999      -9999      0         
6021       0          8.5        9.099272   5623.556   21521.28   44.60931   0.03190553 1144.5     124.1075   0.006393357 -9999      -9999      -9999      5367.343   66.9276    4.577159   1.947181   187.2933   -9999      -9999      0         
6021.5     0          8.5        9.104429   4319.344   20060.75   40.49696   0.02926325 1180.453   129.2893   0.006410709 -9999      -9999      -9999      5369.716   67.49387   4.615138   2.017502   186.864    -9999      -9999      0         
6022       0          8.5        9.125883   2915.447   17002.57   30.43819   0.02523462 1326.819   133.8488   0.006591777 -9999      -9999      -9999      5514.151   64.59196   4.587864   2.189507   186.3099   -9999      -9999      0         
6022.5     0          8.5        9.284378   2753.551   16637.47   26.38117   0.0233519  1308.687   134.2339   0.00695776 -9999      -9999      -9999      5707.472   61.7963    4.535926   2.258882   186.2124   -9999      -9999      0         
6023       0          8.5        9.587824   2598.188   15721.2    22.46291   0.02511959 1235.109   135.5269   0.007209193 -9999      -9999      -9999      5779.225   58.10867   4.461328   2.325884   185.9689   -9999      -9999      0         
6023.5     0          8.5        9.720282   2602.778   16010.6    21.9437    0.02748551 1258.302   135.0234   0.007298669 -9999      -9999      -9999      5506.355   57.56847   4.446702   2.334763   185.7382   -9999      -9999      0         
6024       0          8.5        9.720654   2679.442   16787.77   21.61087   0.03398184 1271.73    134.2366   0.007099241 -9999      -9999      -9999      5562.674   56.87123   4.423651   2.340454   184.8397   -9999      -9999      0         
6024.5     0          8.5        9.544983   2677.777   16205.12   21.35557   0.03825707 1282.203   136.8575   0.006803074 -9999      -9999      -9999      5647.8     55.18081   4.383082   2.34482    184.7086   -9999      -9999      0         
6025       0          8.5        9.297762   2677.906   16762.23   20.43948   0.04666989 1484.868   140.8738   0.006653183 -9999      -9999      -9999      5792.6     47.16352   4.224653   2.360485   184.4582   -9999      -9999      0         
6025.5     0          8.5        9.279673   2552.685   16879.85   19.92291   0.05158143 1537.852   141.7166   0.006614077 -9999      -9999      -9999      6672.898   42.1974    4.139174   2.369318   184.4314   -9999      -9999      0         
6026       0          8.5        9.247141   2627.979   16923.1    19.49413   0.05628665 1595.057   145.4772   0.006621535 -9999      -9999      -9999      6020.4     33.56779   3.992217   2.37665    184.7482   -9999      -9999      0         
6026.5     0          8.5        9.323092   2636.017   16615.88   20.22935   0.05068946 1435.969   150.2607   0.006745478 -9999      -9999      -9999      6104.921   31.35874   3.943677   2.364078   185.3735   -9999      -9999      0         
6027       0          8.5        9.415339   2630.669   16665.03   21.15976   0.04543624 1418.462   152.3749   0.006968121 -9999      -9999      -9999      6045.616   33.49327   3.964722   2.348168   185.7349   -9999      -9999      0         
6027.5     0          8.5        9.597548   2719.061   16640.22   23.80919   0.03843714 1218.764   148.7326   0.007186211 -9999      -9999      -9999      5375.647   42.6114    4.098197   2.302863   185.9577   -9999      -9999      0         
6028       0          8.5        9.736326   2970.328   16824.84   25.0325    0.03962064 1160.824   147.7216   0.007562345 -9999      -9999      -9999      5251.155   48.29539   4.194359   2.281944   185.9956   -9999      -9999      0         
6028.5     0          8.5        10.06799   3054.625   18054.29   26.51654   0.04799564 1229.117   152.6809   0.007864911 -9999      -9999      -9999      5320.299   56.31941   4.342677   2.256567   185.7328   -9999      -9999      0         
6029       0          8.5        10.15228   3060.038   17893.9    26.5206    0.05413692 1204.273   157.2627   0.007950246 -9999      -9999      -9999      5425.486   58.00101   4.38201    2.256498   185.5866   -9999      -9999      0         
6029.5     0          8.5        10.0596    2990.252   18062.39   25.93232   0.06225377 1280.548   159.6633   0.007844465 -9999      -9999      -9999      5359.4     57.39686   4.380191   2.266557   185.0777   -9999      -9999      0         
6030       0          8.5        10.07378   3044.969   18021.01   25.47218   0.06409429 1331.119   154.9778   0.007903172 -9999      -9999      -9999      5611.218   55.93304   4.353434   2.274426   184.7951   -9999      -9999      0         
6030.5     0          8.5        10.24072   2929.67    17947.32   22.60328   0.0689614  1342.23    145.4702   0.008161718 -9999      -9999      -9999      5727.983   52.84483   4.29639    2.323484   184.4231   -9999      -9999      0         
6031       0          8.5        10.332     2828.153   17482.18   20.67238   0.06920549 1337.601   143.8039   0.0084335  -9999      -9999      -9999      5666.726   51.78404   4.279478   2.356502   184.111    -9999      -9999      0         
6031.5     0          8.5        10.55264   2487.021   15762.29   17.89178   0.0646586  1337.725   148.5858   0.008342085 -9999      -9999      -9999      5781.974   51.5621    4.289282   2.40405    184.0055   -9999      -9999      0         
6032       0          8.5        10.30554   2515.317   16633.98   17.54848   0.06067924 1317.83    153.6809   0.007810025 -9999      -9999      -9999      5775.624   52.21294   4.309212   2.409921   183.8266   -9999      -9999      0         
6032.5     0          8.5        9.815693   2529.904   16517.21   19.23763   0.051688   1236.738   156.0348   0.007396146 -9999      -9999      -9999      5418.946   54.0741    4.350332   2.381036   183.3485   -9999      -9999      0         
6033       0          8.5        9.744955   2560.266   16556.66   21.19767   0.04669156 1288.249   152.6819   0.007206542 -9999      -9999      -9999      5569.04    54.88692   4.360924   2.34752    182.9494   -9999      -9999      0         
6033.5     0          8.5        9.597994   3050.948   16908.73   26.53331   0.04027128 1246.79    143.2776   0.00713277 -9999      -9999      -9999      5424.103   56.09962   4.36292    2.25628    182.1724   -9999      -9999      0         
6034       0          8.5        9.618132   3364.72    18046.38   28.84547   0.04363562 1211.229   138.041    0.00712821 -9999      -9999      -9999      5237.92    56.49874   4.355953   2.216743   182.0883   -9999      -9999      0         
