~Version
 VERS              .         3.0                           : CWLS LOG ASCII STANDARD - VERSION 3.0
 WRAP              .         NO                            : ONE LINE PER DEPTH STEP
 DLM               .         SPACE                         : DELIMITING CHARACTER(SPACE TAB OR COMMA)
~Well Information
#_______________________________________________________________________________
#
#PARAMETER_NAME    .UNIT     VALUE                         : DESCRIPTION
#_______________________________________________________________________________
STRT               .ft       5984                          : First reference value
STOP               .ft       6354                          : Last reference value
STEP               .ft       0.5                           : Step increment
NULL               .         -9999                         : Missing value
COMP               .                                       : Company
WELL               .         EGBM-009-ST1                  : Well name
FLD                .         WILDCAT                       : Field
LOC                .                                       : Location
SRVC               .                                       : Service Company
CTRY               .                                       : Country
DATE               .                                       : Service Date
X                  .                                       : X or East-West coordinate
Y                  .                                       : Y or North South coordinate
GDAT               .                                       : Geodetic Datum
HZCS               .                                       : Horizontal Co-ordinate System
CREATION-TIME      .         1992/3/5 0_0                  : 
FIELD-NAME         .         WILDCAT                       : 
FILE-ID            .         BPBLIS.003                    : 
FILE-NUMBER        .         3                             : 
FILE-SET-NAME      .         EGBEMA-9                      : 
FILE-SET-NUMBER    .         0                             : 
FILE-TYPE          .                                       : 
NAME-SPACE-NAME    .         LIS                           : 
NAME-SPACE-VERSION .         0                             : 
PRODUCER-CODE      .         440                           : 
PRODUCER-NAME      .         Schlumberger                  : 
PRODUCT            .         LIS                           : 
PROGRAMS           .                                       : 
VERSION            .                                       : 
WELL-NAME          .                                       : 
~Parameter Information Block
#_______________________________________________________________________________
#
#PARAMETER_NAME    .UNIT     VALUE                         : DESCRIPTION
#_______________________________________________________________________________
SET                .         BPBLIS_001_1                  : 
ACQUISITION-PRODUCT .         DLIS/U                        : 
CREATION-TIME      .         2026/5/15 11_47               : 
DLIS_FRAME_DIRECTION .         DECREASING                    : 
DLIS_FRAME_NAME    .         1                             : 
DLIS_FRAME_SPACING .0.1_in   -60                           : 
FIELD-NAME         .         WILDCAT                       : 
FILE-ID            .         BPBLIS.001                    : 
FILE-NUMBER        .         1                             : 
FILE-SET-NAME      .         LIS-TO-DLIS-CONVERSION        : 
FILE-SET-NUMBER    .         5992                          : 
FILE-TYPE          .                                       : 
INDEX-TYPE         .         BOREHOLE-DEPTH                : 
NAME-SPACE-NAME    .                                       : 
NAME-SPACE-VERSION .         0                             : 
OriginalDatasetName .         1                             : 
PRODUCER-CODE      .         440                           : 
PRODUCER-NAME      .         Schlumberger                  : 
PRODUCT            .         DLIS/U                        : 
PROGRAMS           .         LIS-TO-DLIS                   : 
TLFamily_AVOL      .                                       : 
TLFamily_BS        .         Bit Size                      : 
TLFamily_CALI      .         Caliper                       : 
TLFamily_DCRF      .                                       : 
TLFamily_DCRN      .                                       : 
TLFamily_DEPT      .         Measured Depth                : 
TLFamily_DPHI      .                                       : 
TLFamily_DRHO      .         Bulk Density Correction       : 
TLFamily_FCNL      .                                       : 
TLFamily_GR        .         Gamma Ray                     : 
TLFamily_HVOL      .         Hydrocarbon Volume Fraction   : 
TLFamily_LLD       .         Resistivity - Deep Laterolog  : 
TLFamily_LLS       .         Resistivity - Shallow Laterolog: 
TLFamily_MLL       .         Resistivity - Micro           : 
TLFamily_NCNL      .                                       : 
TLFamily_NPHI      .         Neutron Porosity              : 
TLFamily_NRAT      .         Thermal Neutron Near Far Ratio: 
TLFamily_RHOB      .         Bulk Density                  : 
TLFamily_SP        .         Spontaneous Potential         : 
TLFamily_TEMP      .         Temperature                   : 
TLFamily_TENS      .         Tension                       : 
TLFamily_TIME      .         Date Time                     : 
VERSION            .         0.1                           : 
WELL-NAME          .                                       : 
~Curve Information
#_______________________________________________________________________________
#
#LOGNAME           .UNIT     LOG_ID                        : DESCRIPTION
#_______________________________________________________________________________
DEPT               .ft                                     :  {F}
AVOL               .m3                                     :  {F}
BS                 .in                                     :  {F}
CALI               .in                                     :  {F}
DCRF               .SDU                                    :  {F}
DCRN               .SDU                                    :  {F}
DPHI               .%                                      :  {F}
DRHO               .g/cm3                                  :  {F}
FCNL               .1/s                                    :  {F}
GR                 .gAPI                                   :  {F}
HVOL               .m3                                     :  {F}
LLD                .ohm.m                                  :  {F}
LLS                .ohm.m                                  :  {F}
MLL                .ohm.m                                  :  {F}
NCNL               .1/s                                    :  {F}
NPHI               .%                                      :  {F}
NRAT               .                                       :  {F}
RHOB               .g/cm3                                  :  {F}
SP                 .mV                                     :  {F}
TEMP               .degC                                   :  {F}
TENS               .lbm                                    :  {F}
TIME               .ms                                     : {F}
~Ascii
# ...
6034.5     0          8.5        9.596529   3405.119   19164.23   30.73104   0.06274703 1169.393   135.1334   0.007127352 -9999      -9999      -9999      5247.008   57.3749    4.350199   2.184499   182.1208   -9999      -9999      0         
6035       0          8.5        9.626516   3454.89    19223.07   30.50179   0.07217836 1180.734   136.2679   0.007086548 -9999      -9999      -9999      5217.307   57.80379   4.356097   2.188419   181.8714   -9999      -9999      0         
6035.5     0          8.5        9.561724   3363.861   19067.95   29.35521   0.07623501 1206.249   141.6119   0.006963943 -9999      -9999      -9999      5186.376   58.04444   4.37766    2.208026   181.4894   -9999      -9999      0         
6036       0          8.5        9.452869   3445.248   18852.05   28.13325   0.07228771 1290.641   144.6705   0.006977111 -9999      -9999      -9999      5537.254   57.43313   4.381291   2.228921   181.3433   -9999      -9999      0         
6036.5     0          8.5        9.557878   2823.912   17644.22   24.68513   0.05748483 1426.469   145.7455   0.007094255 4.191162   3.723666   -9999      5857.013   54.1895    4.340455   2.287884   181.0289   -9999      -9999      0         
6037       0          8.5        9.576494   2599.061   16159.69   20.56795   0.05018819 1401.154   142.649    0.007092364 4.538207   4.116446   -9999      5798.538   50.33643   4.266401   2.358288   181.1788   -9999      -9999      0         
6037.5     0          8.5        9.566517   2584.913   16358.18   18.87886   0.0510159  1350.004   140.7108   0.007243328 4.610741   4.20543    -9999      5724.333   49.17802   4.239871   2.387171   181.1707   -9999      -9999      0         
6038       0          8.5        9.922846   2373.761   16623.97   17.25718   0.05635878 1383.148   142.7632   0.007676017 4.491364   4.132513   -9999      5837.227   48.94867   4.233357   2.414902   180.579    -9999      -9999      0         
6038.5     0          8.5        10.11492   2454.094   15747.04   17.26025   0.05668706 1352.901   144.9844   0.008050358 4.400798   4.064914   -9999      5640.702   49.41808   4.246507   2.41485    180.395    -9999      -9999      0         
6039       0          8.5        10.2028    2550.751   16477.29   18.62669   0.04646021 1468.829   146.9887   0.007867111 4.353069   4.037146   -9999      5811.303   49.43361   4.258963   2.391483   179.8718   -9999      -9999      0         
6039.5     0          8.5        9.972176   2564.057   16261.79   19.73043   0.03954604 1399.545   144.9135   0.007192305 4.468742   4.114297   -9999      6111.285   48.97739   4.254624   2.37261    179.6462   -9999      -9999      0         
6040       0          8.5        9.33148    2578.448   16058.27   22.64126   0.036451   1349.925   140.8483   0.006673014 4.791065   4.26707    -9999      6084.011   49.32558   4.269562   2.322834   179.8138   -9999      -9999      0         
6040.5     0          8.5        9.188498   2848.893   16236.09   24.28399   0.04153924 1255.155   140.1558   0.006548299 4.867033   4.26711    -9999      5534.313   50.61964   4.301957   2.294744   179.8775   -9999      -9999      0         
6041       0          8.5        9.243023   3216.043   19408.31   24.94769   0.05649871 1367.03    139.9824   0.0067872  4.624883   4.044818   -9999      5764.506   53.76124   4.385845   2.283394   179.5575   -9999      -9999      0         
6041.5     0          8.5        9.472368   3118.155   18067.57   23.32696   0.05982297 1364.503   141.1783   0.007216649 4.500463   3.965968   -9999      6058.413   54.35246   4.408188   2.311109   179.2962   -9999      -9999      0         
6042       0          8.5        9.81978    2367.415   15726.95   18.72625   0.05031272 1440.719   137.6997   0.007257999 4.560181   4.055636   -9999      6120.378   52.31081   4.368903   2.389781   178.8138   -9999      -9999      0         
6042.5     0          8.5        9.656353   2344.967   15181.22   16.87256   0.04525245 1381.309   135.9981   0.006790132 4.711361   4.187074   -9999      6049.882   50.93919   4.335414   2.421479   178.4884   -9999      -9999      0         
6043       0          8.5        9.167315   2361.587   16121.16   15.84774   0.04303676 1382.278   139.7177   0.006544039 4.80932    4.266617   -9999      5779.225   49.75187   4.296873   2.439003   177.9896   -9999      -9999      0         
6043.5     0          8.5        9.186911   2391.817   16111.11   16.17402   0.04486769 1418.462   142.7316   0.006719484 4.76895    4.239733   -9999      6044.817   49.82127   4.291824   2.433424   178.0601   -9999      -9999      0         
6044       0          8.5        9.423624   2484.96    16103.2    16.74743   0.0486852  1345.858   151.2039   0.0067816  4.57463    4.085498   -9999      5800.997   50.12959   4.284832   2.423619   177.95     -9999      -9999      0         
6044.5     0          8.5        9.349684   2468.753   16195.14   16.90873   0.04947311 1380.775   153.343    0.006702222 4.562652   4.077125   -9999      5814.897   50.10143   4.276664   2.420861   177.8083   -9999      -9999      0         
6045       0          8.5        9.297388   2459.894   16123.84   16.47227   0.05277562 1320.918   154.0106   0.006759449 4.624124   4.150039   -9999      5649.73    50.11951   4.268749   2.428324   177.6817   -9999      -9999      0         
6045.5     0          8.5        9.379507   2435.302   16413.52   16.17987   0.05316234 1395.198   152.9577   0.006816613 4.97324    4.450701   -9999      5858.123   49.88888   4.264577   2.433324   177.6872   -9999      -9999      0         
6046       0          8.5        9.397991   2371.525   15825.54   16.21782   0.05333794 1414.888   147.2638   0.006779372 6.518242   5.753247   -9999      5902.977   48.41002   4.252278   2.432675   177.4196   -9999      -9999      0         
6046.5     0          8.5        9.386374   2418.196   15763.14   16.65929   0.05360477 1544.136   145.1259   0.006598454 7.564216   6.613216   -9999      6123.22    46.31561   4.229501   2.425126   177.2543   -9999      -9999      0         
6047       0          8.5        9.150696   2560.266   16747.89   17.91348   0.05498362 1725.651   141.6203   0.006345252 9.485472   8.155674   -9999      6794.78    39.21712   4.134227   2.403679   176.0095   -9999      -9999      540       
6047.5     0          8.5        9.037964   2561.008   16752.81   18.18117   0.05642992 1611.398   139.9322   0.006335187 9.324966   8.074345   -9999      6745.904   33.45732   4.050765   2.399102   175.7138   -9999      -9999      1500      
6048       0          8.5        9.094978   2520.64    16637.47   17.64196   0.05819479 1545.921   136.7944   0.006503312 8.646374   7.580144   -9999      6461.041   32.31693   4.0314     2.408322   175.5639   -9999      -9999      1440      
6048.5     0          8.5        9.273485   2418.196   16373.69   16.18021   0.06556085 1622.119   131.1191   0.006621566 7.423521   6.628293   -9999      6387.406   32.25215   4.02354    2.433318   175.6353   -9999      -9999      1360      
6049       0          8.5        9.275927   2420.891   16491.86   16.016     0.06818685 1569.541   129.2469   0.006560082 6.988234   6.28339    -9999      6331.018   32.53194   4.02492    2.436126   175.7609   -9999      -9999      1460      
6049.5     0          8.5        9.160866   2511.005   16547.52   17.63308   0.06869218 1591.1     125.4082   0.006471292 7.073297   6.315798   -9999      6388.987   32.2411    4.020271   2.408474   175.7618   65.23438   2750.378   1500      
6050       0          8.5        9.124481   2619.592   16935.82   19.17948   0.0662604  1697.226   122.8202   0.006405479 7.381782   6.570511   -9999      6488.707   31.91624   4.020008   2.382031   175.492    65.23438   2734.241   1380      
6050.5     0          8.5        9.064465   2849.105   17479.45   21.46434   0.06118846 1680.142   114.473    0.006336681 8.220947   7.324828   -9999      6769.003   31.48432   4.027122   2.34296    175.4149   65.23438   2773.575   1380      
