~Version
 VERS              .         3.0                           : CWLS LOG ASCII STANDARD - VERSION 3.0
 WRAP              .         NO                            : ONE LINE PER DEPTH STEP
 DLM               .         SPACE                         : DELIMITING CHARACTER(SPACE TAB OR COMMA)
~Well Information
#_______________________________________________________________________________
#
#PARAMETER_NAME    .UNIT     VALUE                         : DESCRIPTION
#_______________________________________________________________________________
STRT               .ft       5984                          : First reference value
STOP               .ft       6354                          : Last reference value
STEP               .ft       0.5                           : Step increment
NULL               .         -9999                         : Missing value
COMP               .                                       : Company
WELL               .         EGBM-009-ST1                  : Well name
FLD                .         WILDCAT                       : Field
LOC                .                                       : Location
SRVC               .                                       : Service Company
CTRY               .                                       : Country
DATE               .                                       : Service Date
X                  .                                       : X or East-West coordinate
Y                  .                                       : Y or North South coordinate
GDAT               .                                       : Geodetic Datum
HZCS               .                                       : Horizontal Co-ordinate System
CREATION-TIME      .         1992/3/5 0_0                  : 
FIELD-NAME         .         WILDCAT                       : 
FILE-ID            .         BPBLIS.003                    : 
FILE-NUMBER        .         3                             : 
FILE-SET-NAME      .         EGBEMA-9                      : 
FILE-SET-NUMBER    .         0                             : 
FILE-TYPE          .                                       : 
NAME-SPACE-NAME    .         LIS                           : 
NAME-SPACE-VERSION .         0                             : 
PRODUCER-CODE      .         440                           : 
PRODUCER-NAME      .         Schlumberger                  : 
PRODUCT            .         LIS                           : 
PROGRAMS           .                                       : 
VERSION            .                                       : 
WELL-NAME          .                                       : 
~Parameter Information Block
#_______________________________________________________________________________
#
#PARAMETER_NAME    .UNIT     VALUE                         : DESCRIPTION
#_______________________________________________________________________________
SET                .         BPBLIS_001_1                  : 
ACQUISITION-PRODUCT .         DLIS/U                        : 
CREATION-TIME      .         2026/5/15 11_47               : 
DLIS_FRAME_DIRECTION .         DECREASING                    : 
DLIS_FRAME_NAME    .         1                             : 
DLIS_FRAME_SPACING .0.1_in   -60                           : 
FIELD-NAME         .         WILDCAT                       : 
FILE-ID            .         BPBLIS.001                    : 
FILE-NUMBER        .         1                             : 
FILE-SET-NAME      .         LIS-TO-DLIS-CONVERSION        : 
FILE-SET-NUMBER    .         5992                          : 
FILE-TYPE          .                                       : 
INDEX-TYPE         .         BOREHOLE-DEPTH                : 
NAME-SPACE-NAME    .                                       : 
NAME-SPACE-VERSION .         0                             : 
OriginalDatasetName .         1                             : 
PRODUCER-CODE      .         440                           : 
PRODUCER-NAME      .         Schlumberger                  : 
PRODUCT            .         DLIS/U                        : 
PROGRAMS           .         LIS-TO-DLIS                   : 
TLFamily_AVOL      .                                       : 
TLFamily_BS        .         Bit Size                      : 
TLFamily_CALI      .         Caliper                       : 
TLFamily_DCRF      .                                       : 
TLFamily_DCRN      .                                       : 
TLFamily_DEPT      .         Measured Depth                : 
TLFamily_DPHI      .                                       : 
TLFamily_DRHO      .         Bulk Density Correction       : 
TLFamily_FCNL      .                                       : 
TLFamily_GR        .         Gamma Ray                     : 
TLFamily_HVOL      .         Hydrocarbon Volume Fraction   : 
TLFamily_LLD       .         Resistivity - Deep Laterolog  : 
TLFamily_LLS       .         Resistivity - Shallow Laterolog: 
TLFamily_MLL       .         Resistivity - Micro           : 
TLFamily_NCNL      .                                       : 
TLFamily_NPHI      .         Neutron Porosity              : 
TLFamily_NRAT      .         Thermal Neutron Near Far Ratio: 
TLFamily_RHOB      .         Bulk Density                  : 
TLFamily_SP        .         Spontaneous Potential         : 
TLFamily_TEMP      .         Temperature                   : 
TLFamily_TENS      .         Tension                       : 
TLFamily_TIME      .         Date Time                     : 
VERSION            .         0.1                           : 
WELL-NAME          .                                       : 
~Curve Information
#_______________________________________________________________________________
#
#LOGNAME           .UNIT     LOG_ID                        : DESCRIPTION
#_______________________________________________________________________________
DEPT               .ft                                     :  {F}
AVOL               .m3                                     :  {F}
BS                 .in                                     :  {F}
CALI               .in                                     :  {F}
DCRF               .SDU                                    :  {F}
DCRN               .SDU                                    :  {F}
DPHI               .%                                      :  {F}
DRHO               .g/cm3                                  :  {F}
FCNL               .1/s                                    :  {F}
GR                 .gAPI                                   :  {F}
HVOL               .m3                                     :  {F}
LLD                .ohm.m                                  :  {F}
LLS                .ohm.m                                  :  {F}
MLL                .ohm.m                                  :  {F}
NCNL               .1/s                                    :  {F}
NPHI               .%                                      :  {F}
NRAT               .                                       :  {F}
RHOB               .g/cm3                                  :  {F}
SP                 .mV                                     :  {F}
TEMP               .degC                                   :  {F}
TENS               .lbm                                    :  {F}
TIME               .ms                                     : {F}
~Ascii
# ...
6249       0          8.5        9.227364   2499.522   16141.29   16.82029   0.05957501 1367.423   136.0808   0.006561321 3.653687   3.656907   3.647787   6012.862   49.7703    4.288373   2.422373   202.1159   64.99023   2906.707   1500      
6249.5     0          8.5        9.20863    2446.248   16047.79   16.97256   0.05561261 1377.821   137.45     0.006548562 3.664378   3.654346   3.783632   5908.353   50.86424   4.320449   2.419769   202.0913   64.99023   2851.739   1420      
6250       0          8.5        9.202265   2456.11    16261.34   17.22606   0.05318014 1415.519   138.4136   0.006560038 3.5944     3.567252   3.729014   5966.998   51.7367    4.343422   2.415434   202.0591   64.99023   2808.371   1400      
6250.5     0          8.5        9.229021   2501.537   16349.65   17.22969   0.05477963 1337.601   138.1663   0.006598252 3.494123   3.467691   3.616525   6041.352   51.53181   4.332829   2.415372   202.226    64.99023   2806.858   1460      
6251       0          8.5        9.255741   2505.324   16224.76   17.38349   0.05752242 1334.483   136.0735   0.006633066 3.244009   3.229846   3.20704    5768.669   51.17895   4.301632   2.412742   202.1955   64.99023   2795.259   1500      
6251.5     0          8.5        9.272356   2468.204   16517.15   17.60753   0.05777658 1288.854   135.1017   0.006698851 3.144963   3.1285     3.093236   5523.392   51.22743   4.289623   2.408911   202.0315   64.99023   2762.48    1420      
6252       0          8.5        9.345793   2534.452   16516.65   18.13531   0.05725131 1300.342   133.1736   0.006730012 3.082711   3.053804   2.977424   5554.007   51.63929   4.282349   2.399886   201.8753   64.99023   2814.927   1340      
6252.5     0          8.5        9.336468   2580.476   16569      18.32786   0.05645753 1327.244   131.433    0.00668618 3.090437   3.052339   2.984634   5712.543   51.81795   4.284787   2.396594   201.9597   64.99023   2837.619   1440      
6253       0          8.5        9.268179   2522.369   16529.04   18.33603   0.05423675 1350.004   133.6962   0.006668873 3.106388   3.06756    3.142056   5730.115   52.20803   4.299753   2.396454   201.9718   64.99023   2861.321   1500      
6253.5     0          8.5        9.309893   2509.393   16403.42   18.2154    0.05338898 1301.342   136.2838   0.006698514 3.091099   3.058278   3.128393   5798.076   52.46841   4.309654   2.398517   201.9928   65.02075   2863.842   1420      
6254       0          8.5        9.322355   2502.483   16335.1    18.25579   0.05037573 1386.707   141.0697   0.006685219 3.068988   3.045605   3.081063   5687.974   52.83456   4.320756   2.397826   202.0477   64.99023   2832.072   1400      
6254.5     0          8.5        9.30055    2543.323   16424.78   18.42065   0.04812668 1259.736   140.7464   0.00663552 3.072323   3.048781   3.023503   5558.513   53.27408   4.332974   2.395007   202.0692   64.99023   2808.371   1460      
6255       0          8.5        9.237356   2516.016   16212.41   18.68176   0.04443537 1291.272   137.5106   0.006594161 3.123486   3.091831   3.160965   5725.586   54.15245   4.359402   2.390542   202.2753   65.02075   2768.028   1520      
6255.5     0          8.5        9.266512   2523.575   16297.06   18.49844   0.04547866 1306.081   132.9313   0.006631963 3.174767   3.136104   3.095692   5768.463   53.94718   4.35344    2.393677   202.3504   64.99023   2752.395   1400      
6256       0          8.5        9.285822   2515.887   16275.38   18.37469   0.04764933 1340.049   131.6348   0.006621063 3.193235   3.149299   3.108643   5511.793   53.01844   4.326324   2.395792   202.4859   64.99023   2786.687   1360      
6256.5     0          8.5        9.239544   2526.158   16693.5    18.14364   0.05318137 1380.93    130.8133   0.006609519 3.164798   3.110527   3.014966   5800.07    50.89116   4.265128   2.399744   202.8436   64.99023   2840.646   1480      
6257       0          8.5        9.264215   2544.943   16317.61   18.08113   0.05513144 1309.333   130.8963   0.006677856 3.120595   3.061912   3.031804   5759.801   50.71682   4.261069   2.400813   202.8395   64.99023   2864.851   1520      
6257.5     0          8.5        9.326174   2508.81    16711.02   18.35692   0.05507213 1308.45    131.3727   0.006699632 3.009785   2.947638   2.985441   5713.006   51.74192   4.289742   2.396097   202.5565   64.99023   2853.757   1460      
6258       0          8.5        9.296909   2538.578   16458.08   18.54609   0.05516313 1313.783   131.2791   0.006651233 2.94113    2.884261   2.86663    5745.878   52.48672   4.308135   2.392862   202.5237   64.99023   2868.885   1400      
6258.5     0          8.5        9.295443   2594.395   16934.4    19.16951   0.05392486 1301.367   133.4709   0.006677674 2.874132   2.812267   2.876012   5526.599   52.8738    4.310141   2.382201   202.3708   64.99023   2836.106   1520      
6259       0          8.5        9.31234    2580.515   16806.14   19.28628   0.05387838 1340.952   135.2049   0.006665084 2.862267   2.798185   2.821817   5746.499   52.57895   4.298126   2.380205   202.5127   64.99023   2810.388   1500      
6259.5     0          8.5        9.221115   2600.507   16539.33   19.14498   0.0516935  1287.789   137.9991   0.006555549 2.870645   2.800023   2.836169   5643.594   52.14085   4.28164    2.382621   203.0796   64.99023   2855.773   1400      
6260       0          8.5        9.193499   2494.932   16740.13   19.21281   0.04783525 1355.273   136.28     0.006521588 2.876338   2.802833   2.810253   5580.762   51.91116   4.273386   2.381461   203.1601   64.99023   2863.842   1360      
6260.5     0          8.5        9.225109   2580.476   15898.18   19.11533   0.0455962  1297.447   132.7459   0.006560797 2.852447   2.784388   2.777798   5569.04    51.93463   4.271304   2.383128   203.4816   64.99023   2902.672   1480      
6261       0          8.5        9.222656   2543.091   16355.71   19.16789   0.04650663 1269.349   133.1926   0.006535198 2.829001   2.76442    2.631606   5520.64    52.23298   4.278371   2.382229   204.0528   64.99023   2886.031   1500      
6261.5     0          8.5        9.166807   2575.144   16723.9    19.35673   0.05071536 1293.013   134.9335   0.006509084 2.776887   2.726218   2.639263   5615.843   53.55504   4.31407    2.379      205.9318   64.99023   2877.962   1440      
6262       0          8.5        9.183949   2599.568   16688.78   19.44907   0.05219757 1230.3     135.1865   0.006577065 2.756014   2.705372   2.595731   5662.477   54.60297   4.342961   2.377421   206.8492   64.99023   2864.347   1360      
6262.5     0          8.5        9.277763   2582.334   16747.74   19.73121   0.05190965 1232.628   133.9977   0.006681502 2.718046   2.666839   2.643512   5496.898   56.01355   4.379812   2.372596   208.0154   64.99023   2827.534   1520      
6263       0          8.5        9.324167   2586.809   16519.13   19.58772   0.05418186 1305.784   132.9689   0.006701249 2.70789    2.651376   2.639194   5575.674   56.24079   4.3853     2.37505    208.0354   64.99023   2826.021   1480      
6263.5     0          8.5        9.285194   2606.703   16883.55   19.26008   0.06037112 1297.923   133.8098   0.006595815 2.700989   2.641748   2.719539   5449.283   56.17043   4.384192   2.380652   207.7314   64.99023   2808.371   1400      
6264       0          8.5        9.217627   2583.458   17078.11   19.19304   0.06237318 1271.138   134.82     0.006555337 2.702848   2.643562   2.756129   5560.362   55.93758   4.37899    2.381799   207.6201   64.99023   2855.27    1360      
6264.5     0          8.5        9.235077   2600.085   16785.12   19.17899   0.06242824 1300.105   134.2636   0.006658917 2.699885   2.641608   2.559464   5552.062   55.09977   4.356835   2.382039   207.1918   64.99023   2914.271   1440      
6265       0          8.5        9.30233    2582.334   16928.19   19.19374   0.06076466 1308.688   133.1684   0.006748518 2.691129   2.631968   2.558122   5621.473   54.76224   4.344603   2.381787   206.878    64.99023   2874.432   1520      
