~Version
 VERS              .         3.0                           : CWLS LOG ASCII STANDARD - VERSION 3.0
 WRAP              .         NO                            : ONE LINE PER DEPTH STEP
 DLM               .         SPACE                         : DELIMITING CHARACTER(SPACE TAB OR COMMA)
~Well Information
#_______________________________________________________________________________
#
#PARAMETER_NAME    .UNIT     VALUE                         : DESCRIPTION
#_______________________________________________________________________________
STRT               .ft       5984                          : First reference value
STOP               .ft       6354                          : Last reference value
STEP               .ft       0.5                           : Step increment
NULL               .         -9999                         : Missing value
COMP               .                                       : Company
WELL               .         EGBM-009-ST1                  : Well name
FLD                .         WILDCAT                       : Field
LOC                .                                       : Location
SRVC               .                                       : Service Company
CTRY               .                                       : Country
DATE               .                                       : Service Date
X                  .                                       : X or East-West coordinate
Y                  .                                       : Y or North South coordinate
GDAT               .                                       : Geodetic Datum
HZCS               .                                       : Horizontal Co-ordinate System
CREATION-TIME      .         1992/3/5 0_0                  : 
FIELD-NAME         .         WILDCAT                       : 
FILE-ID            .         BPBLIS.003                    : 
FILE-NUMBER        .         3                             : 
FILE-SET-NAME      .         EGBEMA-9                      : 
FILE-SET-NUMBER    .         0                             : 
FILE-TYPE          .                                       : 
NAME-SPACE-NAME    .         LIS                           : 
NAME-SPACE-VERSION .         0                             : 
PRODUCER-CODE      .         440                           : 
PRODUCER-NAME      .         Schlumberger                  : 
PRODUCT            .         LIS                           : 
PROGRAMS           .                                       : 
VERSION            .                                       : 
WELL-NAME          .                                       : 
~Parameter Information Block
#_______________________________________________________________________________
#
#PARAMETER_NAME    .UNIT     VALUE                         : DESCRIPTION
#_______________________________________________________________________________
SET                .         BPBLIS_001_1                  : 
ACQUISITION-PRODUCT .         DLIS/U                        : 
CREATION-TIME      .         2026/5/15 11_47               : 
DLIS_FRAME_DIRECTION .         DECREASING                    : 
DLIS_FRAME_NAME    .         1                             : 
DLIS_FRAME_SPACING .0.1_in   -60                           : 
FIELD-NAME         .         WILDCAT                       : 
FILE-ID            .         BPBLIS.001                    : 
FILE-NUMBER        .         1                             : 
FILE-SET-NAME      .         LIS-TO-DLIS-CONVERSION        : 
FILE-SET-NUMBER    .         5992                          : 
FILE-TYPE          .                                       : 
INDEX-TYPE         .         BOREHOLE-DEPTH                : 
NAME-SPACE-NAME    .                                       : 
NAME-SPACE-VERSION .         0                             : 
OriginalDatasetName .         1                             : 
PRODUCER-CODE      .         440                           : 
PRODUCER-NAME      .         Schlumberger                  : 
PRODUCT            .         DLIS/U                        : 
PROGRAMS           .         LIS-TO-DLIS                   : 
TLFamily_AVOL      .                                       : 
TLFamily_BS        .         Bit Size                      : 
TLFamily_CALI      .         Caliper                       : 
TLFamily_DCRF      .                                       : 
TLFamily_DCRN      .                                       : 
TLFamily_DEPT      .         Measured Depth                : 
TLFamily_DPHI      .                                       : 
TLFamily_DRHO      .         Bulk Density Correction       : 
TLFamily_FCNL      .                                       : 
TLFamily_GR        .         Gamma Ray                     : 
TLFamily_HVOL      .         Hydrocarbon Volume Fraction   : 
TLFamily_LLD       .         Resistivity - Deep Laterolog  : 
TLFamily_LLS       .         Resistivity - Shallow Laterolog: 
TLFamily_MLL       .         Resistivity - Micro           : 
TLFamily_NCNL      .                                       : 
TLFamily_NPHI      .         Neutron Porosity              : 
TLFamily_NRAT      .         Thermal Neutron Near Far Ratio: 
TLFamily_RHOB      .         Bulk Density                  : 
TLFamily_SP        .         Spontaneous Potential         : 
TLFamily_TEMP      .         Temperature                   : 
TLFamily_TENS      .         Tension                       : 
TLFamily_TIME      .         Date Time                     : 
VERSION            .         0.1                           : 
WELL-NAME          .                                       : 
~Curve Information
#_______________________________________________________________________________
#
#LOGNAME           .UNIT     LOG_ID                        : DESCRIPTION
#_______________________________________________________________________________
DEPT               .ft                                     :  {F}
AVOL               .m3                                     :  {F}
BS                 .in                                     :  {F}
CALI               .in                                     :  {F}
DCRF               .SDU                                    :  {F}
DCRN               .SDU                                    :  {F}
DPHI               .%                                      :  {F}
DRHO               .g/cm3                                  :  {F}
FCNL               .1/s                                    :  {F}
GR                 .gAPI                                   :  {F}
HVOL               .m3                                     :  {F}
LLD                .ohm.m                                  :  {F}
LLS                .ohm.m                                  :  {F}
MLL                .ohm.m                                  :  {F}
NCNL               .1/s                                    :  {F}
NPHI               .%                                      :  {F}
NRAT               .                                       :  {F}
RHOB               .g/cm3                                  :  {F}
SP                 .mV                                     :  {F}
TEMP               .degC                                   :  {F}
TENS               .lbm                                    :  {F}
TIME               .ms                                     : {F}
~Ascii
# ...
6117       0          8.5        8.521267   3249.605   17451.1    31.68816   0.01140502 2020.77    30.1078    0.005607245 14.19258   13.22038   7.994532   7961.554   24.59734   3.944117   2.168132   182.8562   65.35645   2815.431   1480      
6117.5     0          8.5        8.522392   3206.538   17557.13   31.68293   0.01662121 1990.789   29.47596   0.005608745 13.98675   13.06878   7.71186    7813.022   24.33452   3.925691   2.168222   183.4386   65.35645   2828.542   1460      
6118       0          8.5        8.523144   3306.851   17624.1    31.87041   0.01685432 1941.875   29.19014   0.005612228 13.8506    12.9621    7.627308   7770.5     24.58277   3.931549   2.165016   183.87     65.35645   2796.268   1380      
6118.5     0          8.5        8.527081   3302.269   17759.13   32.4267    0.01209558 1892.743   29.33731   0.005615414 13.68159   12.81965   7.398741   7712.947   25.71528   3.974293   2.155503   184.5837   65.35645   2752.899   1400      
6119       0          8.5        8.529175   3315.442   17354.72   32.51489   0.01017466 1949.266   29.11205   0.005614853 13.64375   12.78451   7.400212   7685.511   26.29916   3.998926   2.153995   185.0316   65.35645   2747.856   1480      
6119.5     0          8.5        8.525887   3294.664   17380.45   32.60679   0.00885655 1906.582   30.00627   0.005609964 13.53404   12.67822   7.425901   7844.463   27.07028   4.034838   2.152424   185.6993   65.35645   2722.138   1460      
6120       0          8.5        8.522623   3369.366   17610.5    32.83012   0.01118763 1938.817   29.94843   0.005613829 13.30271   12.47323   7.381363   7661.914   26.87202   4.024147   2.148605   185.4509   65.35645   2736.258   1360      
6120.5     0          8.5        8.521839   3321.171   17750.91   33.13442   0.01101045 1904.586   29.41204   0.005616079 13.19067   12.38006   7.234977   7761.998   26.74596   4.01551    2.143401   185.0983   65.35645   2794.755   1400      
6121       0          8.5        8.542458   3350.407   17618.74   33.56629   0.007785129 1849.337   28.03009   0.005641347 13.18577   12.3836    7.050773   7558.157   26.70441   4.008137   2.136016   184.5469   65.35645   2842.662   1480      
6121.5     0          8.5        8.560841   3403.07    17413.44   33.42377   0.005823835 1974.16    27.43592   0.005671974 13.38649   12.56237   7.085353   7701.21    26.55431   4.002514   2.138453   184.6806   65.35645   2824.508   1440      
6122       0          8.5        8.576561   3262.425   17422.08   32.33218   0.004627577 2088.643   28.07449   0.005678995 14.03362   13.13233   7.545557   7862.962   25.5455    3.966352   2.15712    185.2555   65.35645   2753.403   1420      
6122.5     0          8.5        8.576752   3147.862   16963.77   31.51385   0.006485636 2038.571   28.50452   0.005679461 14.36806   13.42935   7.850674   7961.554   24.67907   3.931002   2.171113   185.4449   65.35645   2745.335   1400      
6123       0          8.5        8.575993   3079.482   17114.22   29.94281   0.01375165 2103.906   29.37327   0.00567873 14.73741   13.77081   8.374342   7899.006   22.94758   3.853344   2.197978   186.4371   65.35645   2777.609   1520      
6123.5     0          8.5        8.576193   3108.777   17163.73   29.59363   0.01669591 2076.225   29.70973   0.00568024 14.79303   13.83296   8.552126   7960.628   22.43816   3.827832   2.203949   186.9571   65.35645   2792.233   1500      
6124       0          8.5        8.579165   3102.526   17353.61   29.71709   0.01661588 2114.376   30.11378   0.005689758 14.91566   13.94707   8.204262   7992.97    22.08148   3.809894   2.201838   188.0851   65.35645   2807.867   1400      
6124.5     0          8.5        8.588871   3167.924   17328.52   29.89185   0.01336074 2120.48    29.85611   0.005715907 15.02128   14.02942   8.427773   8145.3     21.91184   3.80332    2.198849   188.0892   65.35645   2806.354   1380      
6125       0          8.5        8.60829    3108.777   16938.37   30.15977   0.005149905 2253.013   29.61569   0.00571989 15.26291   14.23135   8.48361    8218.297   21.16259   3.769608   2.194268   186.8941   65.35645   2768.028   1480      
6125.5     0          8.5        8.608337   2990.252   16517.15   30.05523   0.004555686 2183.632   29.89605   0.005714907 15.33879   14.29107   8.472149   8332.85    20.85975   3.75559    2.196055   186.1881   65.35645   2751.386   1460      
6126       0          8.5        8.599152   3110.861   17233.81   29.53064   0.01084275 2077.882   31.72331   0.005701551 15.4254    14.3663    8.524286   8059.05    20.99188   3.762685   2.205026   185.1855   65.35645   2763.994   1420      
6126.5     0          8.5        8.589197   3050.948   17286.71   29.35114   0.0141324  2123.159   33.30921   0.005685797 15.38604   14.3199    8.6604     8119.701   21.4175    3.784422   2.208096   184.9926   65.35645   2768.532   1420      
6127       0          8.5        8.570353   3026.319   16926.91   29.40811   0.01427592 2104.314   35.10231   0.005667984 15.2126    14.13005   8.630865   8080.962   22.34989   3.834209   2.207121   185.1998   65.35645   2802.824   1500      
6127.5     0          8.5        8.565165   3056.928   17054.23   29.77976   0.01075026 2111.003   35.25573   0.005667549 15.06747   14.00356   8.564613   8122.298   22.55595   3.846676   2.200766   185.6832   65.35645   2779.122   1500      
6128       0          8.5        8.572344   3176.419   16986.58   30.82368   0.003577757 2096.715   34.52936   0.005679112 15.01828   13.95924   8.137592   8152.864   22.71274   3.85769    2.182915   185.8965   65.35645   2758.446   1360      
6128.5     0          8.5        8.57884    3198.45    17128.76   31.11461   0.002577655 2074.353   34.78302   0.005691288 15.10028   14.0476    8.143881   8196.514   22.8185    3.862826   2.17794    186.052    65.35645   2762.48    1360      
6129       0          8.5        8.581291   3124.408   17101.71   31.17309   0.003797245 2062.586   39.60458   0.005691546 15.37613   14.32601   8.504604   8008.851   23.12868   3.87341    2.17694    185.7095   65.35645   2762.985   1480      
6129.5     0          8.5        8.584877   3114.639   17166.34   31.0686    0.004655917 2002.722   40.96789   0.005726757 15.46457   14.44342   8.642487   7641.195   23.31832   3.879149   2.178727   185.8473   65.35645   2750.378   1460      
6130       0          8.5        8.647015   3153.549   17157.72   30.84806   0.005884949 1974.055   39.59377   0.005848184 15.7525    14.79075   8.637751   7862.332   23.50158   3.879954   2.182498   185.7561   65.35645   2811.901   1400      
6130.5     0          8.5        8.778528   3114.519   16954.03   30.214     0.007230091 2040.812   37.35445   0.0059516  16.30024   15.30105   8.729246   7774.839   23.3349    3.86455    2.19334    185.3931   65.35645   2797.781   1400      
6131       0          8.5        8.809738   3070.517   17408.32   29.64246   0.008473745 2005.393   38.08314   0.006005018 16.46978   15.43643   8.919254   7589.097   23.18666   3.854092   2.203114   184.8708   65.35645   2773.071   1520      
6131.5     0          8.5        8.829275   2981.232   16608.12   28.69833   0.01389891 2047.694   40.28909   0.006024701 16.20213   15.14801   9.53627    7930.049   22.82066   3.828089   2.219258   184.8852   65.35645   2666.667   1480      
6132       0          8.5        8.840792   2939.832   16936.2    28.35349   0.01886525 1975.854   40.95119   0.006094673 15.70757   14.69652   8.490482   7731.86    22.65541   3.814352   2.225155   185.0501   65.35645   2668.684   1380      
6132.5     0          8.5        8.977793   3045.049   17782.46   27.99862   0.02885977 1935.188   40.87978   0.006283565 14.34495   13.47881   6.67572    7264.205   22.58998   3.797584   2.231224   185.3039   65.35645   2720.121   1360      
6133       0          8.5        9.095497   3009.467   17568.38   27.99515   0.03114835 1852.504   39.30251   0.0064882  13.93718   13.1077    5.641559   7060.002   22.76261   3.80056    2.231283   185.6267   65.35645   2778.618   1480      
