~Version
 VERS              .         3.0                           : CWLS LOG ASCII STANDARD - VERSION 3.0
 WRAP              .         NO                            : ONE LINE PER DEPTH STEP
 DLM               .         SPACE                         : DELIMITING CHARACTER(SPACE TAB OR COMMA)
~Well Information
#_______________________________________________________________________________
#
#PARAMETER_NAME    .UNIT     VALUE                         : DESCRIPTION
#_______________________________________________________________________________
STRT               .ft       5984                          : First reference value
STOP               .ft       6354                          : Last reference value
STEP               .ft       0.5                           : Step increment
NULL               .         -9999                         : Missing value
COMP               .                                       : Company
WELL               .         EGBM-009-ST1                  : Well name
FLD                .         WILDCAT                       : Field
LOC                .                                       : Location
SRVC               .                                       : Service Company
CTRY               .                                       : Country
DATE               .                                       : Service Date
X                  .                                       : X or East-West coordinate
Y                  .                                       : Y or North South coordinate
GDAT               .                                       : Geodetic Datum
HZCS               .                                       : Horizontal Co-ordinate System
CREATION-TIME      .         1992/3/5 0_0                  : 
FIELD-NAME         .         WILDCAT                       : 
FILE-ID            .         BPBLIS.003                    : 
FILE-NUMBER        .         3                             : 
FILE-SET-NAME      .         EGBEMA-9                      : 
FILE-SET-NUMBER    .         0                             : 
FILE-TYPE          .                                       : 
NAME-SPACE-NAME    .         LIS                           : 
NAME-SPACE-VERSION .         0                             : 
PRODUCER-CODE      .         440                           : 
PRODUCER-NAME      .         Schlumberger                  : 
PRODUCT            .         LIS                           : 
PROGRAMS           .                                       : 
VERSION            .                                       : 
WELL-NAME          .                                       : 
~Parameter Information Block
#_______________________________________________________________________________
#
#PARAMETER_NAME    .UNIT     VALUE                         : DESCRIPTION
#_______________________________________________________________________________
SET                .         BPBLIS_001_1                  : 
ACQUISITION-PRODUCT .         DLIS/U                        : 
CREATION-TIME      .         2026/5/15 11_47               : 
DLIS_FRAME_DIRECTION .         DECREASING                    : 
DLIS_FRAME_NAME    .         1                             : 
DLIS_FRAME_SPACING .0.1_in   -60                           : 
FIELD-NAME         .         WILDCAT                       : 
FILE-ID            .         BPBLIS.001                    : 
FILE-NUMBER        .         1                             : 
FILE-SET-NAME      .         LIS-TO-DLIS-CONVERSION        : 
FILE-SET-NUMBER    .         5992                          : 
FILE-TYPE          .                                       : 
INDEX-TYPE         .         BOREHOLE-DEPTH                : 
NAME-SPACE-NAME    .                                       : 
NAME-SPACE-VERSION .         0                             : 
OriginalDatasetName .         1                             : 
PRODUCER-CODE      .         440                           : 
PRODUCER-NAME      .         Schlumberger                  : 
PRODUCT            .         DLIS/U                        : 
PROGRAMS           .         LIS-TO-DLIS                   : 
TLFamily_AVOL      .                                       : 
TLFamily_BS        .         Bit Size                      : 
TLFamily_CALI      .         Caliper                       : 
TLFamily_DCRF      .                                       : 
TLFamily_DCRN      .                                       : 
TLFamily_DEPT      .         Measured Depth                : 
TLFamily_DPHI      .                                       : 
TLFamily_DRHO      .         Bulk Density Correction       : 
TLFamily_FCNL      .                                       : 
TLFamily_GR        .         Gamma Ray                     : 
TLFamily_HVOL      .         Hydrocarbon Volume Fraction   : 
TLFamily_LLD       .         Resistivity - Deep Laterolog  : 
TLFamily_LLS       .         Resistivity - Shallow Laterolog: 
TLFamily_MLL       .         Resistivity - Micro           : 
TLFamily_NCNL      .                                       : 
TLFamily_NPHI      .         Neutron Porosity              : 
TLFamily_NRAT      .         Thermal Neutron Near Far Ratio: 
TLFamily_RHOB      .         Bulk Density                  : 
TLFamily_SP        .         Spontaneous Potential         : 
TLFamily_TEMP      .         Temperature                   : 
TLFamily_TENS      .         Tension                       : 
TLFamily_TIME      .         Date Time                     : 
VERSION            .         0.1                           : 
WELL-NAME          .                                       : 
~Curve Information
#_______________________________________________________________________________
#
#LOGNAME           .UNIT     LOG_ID                        : DESCRIPTION
#_______________________________________________________________________________
DEPT               .ft                                     :  {F}
AVOL               .m3                                     :  {F}
BS                 .in                                     :  {F}
CALI               .in                                     :  {F}
DCRF               .SDU                                    :  {F}
DCRN               .SDU                                    :  {F}
DPHI               .%                                      :  {F}
DRHO               .g/cm3                                  :  {F}
FCNL               .1/s                                    :  {F}
GR                 .gAPI                                   :  {F}
HVOL               .m3                                     :  {F}
LLD                .ohm.m                                  :  {F}
LLS                .ohm.m                                  :  {F}
MLL                .ohm.m                                  :  {F}
NCNL               .1/s                                    :  {F}
NPHI               .%                                      :  {F}
NRAT               .                                       :  {F}
RHOB               .g/cm3                                  :  {F}
SP                 .mV                                     :  {F}
TEMP               .degC                                   :  {F}
TENS               .lbm                                    :  {F}
TIME               .ms                                     : {F}
~Ascii
# ...
6315       0          8.5        9.459303   2490.382   16450.57   17.78087   0.04905043 -9999      -9999      0.006956187 2.58715    2.406271   2.344734   -9999      -9999      -9999      2.405947   -9999      64.74609   2789.208   1460      
6315.5     0          8.5        9.510691   2470.861   16059.58   17.5666    0.04931454 -9999      -9999      0.007004709 2.679145   2.482613   2.468789   -9999      -9999      -9999      2.409611   -9999      64.74609   2821.986   1380      
6316       0          8.5        9.542603   2493.601   16135.17   17.17293   0.05036548 -9999      -9999      0.007010888 3.038477   2.774904   2.50485    -9999      -9999      -9999      2.416343   -9999      64.74609   2912.758   1400      
6316.5     0          8.5        9.512159   2504.417   16178.87   16.37729   0.05299202 -9999      -9999      0.006972624 3.297524   2.974586   2.630129   -9999      -9999      -9999      2.429948   -9999      64.74609   2916.792   1480      
6317       0          8.5        9.470957   2355.599   16239.36   13.83781   0.05805192 -9999      -9999      0.006840564 3.764969   3.332967   3.375239   -9999      -9999      -9999      2.473373   -9999      64.74609   2894.604   1520      
6317.5     0          8.5        9.312477   2197.531   15182.06   12.51366   0.06081025 -9999      -9999      0.006746565 3.81811    3.375536   3.730018   -9999      -9999      -9999      2.496017   -9999      64.74609   2897.629   1440      
6318       0          8.5        9.369026   2278.536   15344.26   12.85468   0.06055176 -9999      -9999      0.006895554 3.756633   3.329939   3.82197    -9999      -9999      -9999      2.490185   -9999      64.74609   2871.911   1420      
6318.5     0          8.5        9.56357    2406.938   16489.43   14.29934   0.0593955  -9999      -9999      0.007050216 3.808491   3.410742   3.420167   -9999      -9999      -9999      2.465481   -9999      64.74609   2871.407   1500      
6319       0          8.5        9.583015   2378.589   15689.98   14.72343   0.05895689 -9999      -9999      0.007079672 4.073329   3.634103   3.222057   -9999      -9999      -9999      2.458229   -9999      64.74609   2884.014   1500      
6319.5     0          8.5        9.530714   2416.979   15965.97   15.07812   0.05514286 -9999      -9999      0.006978791 4.774563   4.233678   3.375029   -9999      -9999      -9999      2.452164   -9999      64.74609   2916.288   1400      
6320       0          8.5        9.466532   2381.588   16137.6    15.02167   0.05447758 -9999      -9999      0.006753623 5.133682   4.519454   3.354253   -9999      -9999      -9999      2.453129   -9999      64.74609   2895.612   1400      
6320.5     0          8.5        9.233765   2389.927   15870.14   13.60105   0.05794682 -9999      -9999      0.006539197 5.409953   4.718662   4.299535   -9999      -9999      -9999      2.477422   -9999      64.74609   2916.288   1500      
6321       0          8.5        9.128359   2269.025   16106.08   12.5048    0.06046823 -9999      -9999      0.006405724 5.486988   4.77434    4.815312   -9999      -9999      -9999      2.496168   -9999      64.74609   2935.451   1500      
6321.5     0          8.5        -9999      2206.743   15390.99   -13.29669  0.1688647  -9999      -9999      0.006395319 5.105185   4.50472    5.583129   -9999      -9999      -9999      2.937373   -9999      64.74609   2921.835   1440      
6322       -739.2202  8.5        -9999      2212.908   16000.72   -37.68936  0.2737536  -9999      -9999      -739.2169  4.689006   4.182196   5.468137   -9999      -9999      -9999      3.354488   -9999      64.74609   2895.108   1420      
6322.5     -523.3573  -9999      -9999      -9999      -9999      -9999      -9999      -9999      -9999      -523.3573  3.745049   3.43563    4.057279   -9999      -9999      -9999      -9999      -9999      64.74609   2847.201   1520      
6323       -1522.732  -9999      -9999      -9999      -9999      -9999      -9999      -9999      -9999      -1522.732  3.404785   3.150567   3.589412   -9999      -9999      -9999      -9999      -9999      64.74609   2804.841   1460      
6323.5     -523.3572  -9999      -9999      -9999      -9999      -9999      -9999      -9999      -9999      -523.3572  3.187222   2.934035   3.0361     -9999      -9999      -9999      -9999      -9999      64.7054    2843.167   1380      
6324       -1522.732  -9999      -9999      -9999      -9999      -9999      -9999      -9999      -9999      -1522.732  3.182322   2.909199   2.875172   -9999      -9999      -9999      -9999      -9999      64.68506   2926.374   1380      
6324.5     -524.9435  -9999      -9999      -9999      -9999      -9999      -9999      -9999      -9999      -524.9435  3.108626   2.819939   2.668033   -9999      -9999      -9999      -9999      -9999      64.62402   3036.308   1500      
6325       -1522.732  -9999      -9999      -9999      -9999      -9999      -9999      -9999      -9999      -1522.732  2.951025   2.687283   2.530267   -9999      -9999      -9999      -9999      -9999      64.62402   3033.787   1480      
6325.5     -523.3572  -9999      -9999      -9999      -9999      -9999      -9999      -9999      -9999      -523.3572  2.620068   2.423722   2.538643   -9999      -9999      -9999      -9999      -9999      64.62402   2976.803   1400      
6326       -1522.732  -9999      -9999      -9999      -9999      -9999      -9999      -9999      -9999      -1522.732  2.479921   2.310373   2.73487    -9999      -9999      -9999      -9999      -9999      64.62402   2910.741   1400      
6326.5     -523.3572  -9999      -9999      -9999      -9999      -9999      -9999      -9999      -9999      -523.3572  2.392551   2.237959   2.81986    -9999      -9999      -9999      -9999      -9999      64.62402   2844.175   1500      
6327       -1522.732  -9999      -9999      -9999      -9999      -9999      -9999      -9999      -9999      -1522.732  2.348006   2.203269   2.709364   -9999      -9999      -9999      -9999      -9999      64.62402   2801.311   1460      
6327.5     -523.3572  -9999      -9999      -9999      -9999      -9999      -9999      -9999      -9999      -523.3572  2.304831   2.18895    2.2528     -9999      -9999      -9999      -9999      -9999      64.62402   2823.5     1400      
6328       -523.3572  -9999      -9999      -9999      -9999      -9999      -9999      -9999      -9999      -523.3572  2.382017   2.320567   2.713286   -9999      -9999      -9999      -9999      -9999      64.62402   2957.135   1340      
6328.5     -1524.319  -9999      -9999      -9999      -9999      -9999      -9999      -9999      -9999      -1524.319  2.493078   2.447762   3.104832   -9999      -9999      -9999      -9999      -9999      64.62402   3139.687   1500      
6329       -523.3573  -9999      -9999      -9999      -9999      -9999      -9999      -9999      -9999      -523.3573  2.690278   2.676805   3.928361   -9999      -9999      -9999      -9999      -9999      64.62402   3170.953   1520      
6329.5     -1522.732  -9999      -9999      -9999      -9999      -9999      -9999      -9999      -9999      -1522.732  2.74061    2.735577   3.690104   -9999      -9999      -9999      -9999      -9999      64.62402   3106.908   1420      
6330       -523.3572  -9999      -9999      -9999      -9999      -9999      -9999      -9999      -9999      -523.3572  2.734391   2.766887   2.868748   -9999      -9999      -9999      -9999      -9999      64.62402   2944.024   1460      
6330.5     -1522.732  -9999      -9999      -9999      -9999      -9999      -9999      -9999      -9999      -1522.732  2.67829    2.734125   2.568774   -9999      -9999      -9999      -9999      -9999      64.62402   2906.202   1520      
6331       -523.3572  -9999      -9999      -9999      -9999      -9999      -9999      -9999      -9999      -523.3572  2.475118   2.567755   2.297802   -9999      -9999      -9999      -9999      -9999      64.62402   2880.988   1460      
