~Version
 VERS              .         3.0                           : CWLS LOG ASCII STANDARD - VERSION 3.0
 WRAP              .         NO                            : ONE LINE PER DEPTH STEP
 DLM               .         SPACE                         : DELIMITING CHARACTER(SPACE TAB OR COMMA)
~Well Information
#_______________________________________________________________________________
#
#PARAMETER_NAME    .UNIT     VALUE                         : DESCRIPTION
#_______________________________________________________________________________
STRT               .ft       3360                          : First reference value
STOP               .ft       6444                          : Last reference value
STEP               .ft       0.4                           : Step increment
NULL               .         -9999                         : Missing value
COMP               .                                       : Company
WELL               .         EGBM-009                      : Well name
FLD                .         WILDCAT                       : Field
LOC                .                                       : Location
SRVC               .                                       : Service Company
CTRY               .                                       : Country
DATE               .                                       : Service Date
X                  .                                       : X or East-West coordinate
Y                  .                                       : Y or North South coordinate
GDAT               .                                       : Geodetic Datum
HZCS               .                                       : Horizontal Co-ordinate System
CREATION-TIME      .         2000/8/10 0_0                 : 
FIELD-NAME         .         WILDCAT                       : 
FILE-ID            .         SHELL.001                     : 
FILE-NUMBER        .         1                             : 
FILE-SET-NAME      .                                       : 
FILE-SET-NUMBER    .         0                             : 
FILE-TYPE          .         SHELL                         : 
NAME-SPACE-NAME    .         LIS                           : 
NAME-SPACE-VERSION .         0                             : 
PRODUCER-CODE      .         440                           : 
PRODUCER-NAME      .         Schlumberger                  : 
PRODUCT            .                                       : 
PROGRAMS           .                                       : 
VERSION            .         REV 2.00                      : 
WELL-NAME          .                                       : 
~Parameter Information Block
#_______________________________________________________________________________
#
#PARAMETER_NAME    .UNIT     VALUE                         : DESCRIPTION
#_______________________________________________________________________________
SET                .         SHELL_001_1                   : 
ACQUISITION-PRODUCT .         DLIS/U                        : 
CREATION-TIME      .         2026/5/13 12_40               : 
DLIS_FRAME_DIRECTION .         INCREASING                    : 
DLIS_FRAME_NAME    .         1                             : 
DLIS_FRAME_SPACING .0.1_in   48                            : 
FIELD-NAME         .         WILDCAT                       : 
FILE-ID            .         SHELL.001                     : 
FILE-NUMBER        .         1                             : 
FILE-SET-NAME      .         LIS-TO-DLIS-CONVERSION        : 
FILE-SET-NUMBER    .         12959                         : 
FILE-TYPE          .         SHELL                         : 
INDEX-TYPE         .         BOREHOLE-DEPTH                : 
NAME-SPACE-NAME    .                                       : 
NAME-SPACE-VERSION .         0                             : 
OriginalDatasetName .         1                             : 
PRODUCER-CODE      .         440                           : 
PRODUCER-NAME      .         Schlumberger                  : 
PRODUCT            .         DLIS/U                        : 
PROGRAMS           .         LIS-TO-DLIS                   : 
TLFamily_CALF      .         Caliper                       : 
TLFamily_CGR       .         Gamma Ray                     : 
TLFamily_DEPT      .         Measured Depth                : 
TLFamily_DRHO      .         Bulk Density Correction       : 
TLFamily_NPOR      .         Neutron Porosity              : 
TLFamily_RHOB      .         Bulk Density                  : 
TLFamily_SGR       .         Gamma Ray                     : 
VERSION            .         0.1                           : 
WELL-NAME          .                                       : 
~Curve Information
#_______________________________________________________________________________
#
#LOGNAME           .UNIT     LOG_ID                        : DESCRIPTION
#_______________________________________________________________________________
DEPT               .ft                                     :  {F}
CALF               .in                                     :  {F}
CGR                .gAPI                                   :  {F}
DRHO               .g/cm3                                  :  {F}
NPOR               .                                       :  {F}
RHOB               .g/cm3                                  :  {F}
SGR                .gAPI                                   :  {F}
~Ascii
# ...
5190.4     8.543962   95.54439   0.05089249 53.57879   2.193644   119.3387  
5190.8     8.505011   98.78169   0.05128809 52.80926   2.19664    120.7138  
5191.2     8.48497    100.1002   0.04889246 51.87909   2.203055   121.4429  
5191.6     8.48497    100.4008   0.04460647 50.49283   2.213549   121.1423  
5192       8.54509    99.59505   0.0429101  49.98199   2.22476    120.8506  
5192.4     8.605209   98.29659   0.04091238 49.57306   2.231094   121.1423  
5192.8     8.578957   96.68082   0.05126818 49.47359   2.230992   118.6502  
5193.2     8.525049   97.14388   0.04688254 49.39368   2.220971   117.8357  
5193.6     8.48497    97.99599   0.05185668 49.68699   2.206579   117.45    
5194       8.505011   96.01059   0.04886457 50.1568    2.195349   116.841   
5194.4     8.505011   94.68938   0.04388057 50.89452   2.187885   115.4735  
5194.8     8.525049   93.03625   0.04088847 51.36436   2.193156   115.1303  
5195.2     8.547606   92.97595   0.04028458 50.7822    2.20544    115.5952  
5195.6     8.655277   95.59119   0.04584894 49.51495   2.221615   117.0244  
5196       8.757957   95.6481    0.05382559 46.89056   2.241994   118.1168  
5196.4     8.853172   93.68066   0.06258689 45.86108   2.261238   117.5351  
5196.8     8.845692   91.51804   0.08089444 45.7412    2.282048   116.7215  
5197.2     8.845692   89.75774   0.09863934 46.04092   2.296112   115.1303  
5197.6     8.954828   89.57916   0.09663853 47.23975   2.300865   114.5291  
5198       9.035723   91.06143   0.08468127 48.82432   2.289984   114.8297  
5198.4     9.046093   91.68336   0.07391928 49.81755   2.265337   114.8297  
5198.8     8.858915   91.98396   0.06375837 49.93639   2.242093   114.0488  
5199.2     8.765221   89.57916   0.0518009  49.92155   2.228092   112.3309  
5199.6     8.745491   89.57916   0.0517969  49.26904   2.223653   110.7692  
5200       8.745491   91.36887   0.05079693 48.37859   2.231411   112.2024  
5200.4     8.745491   93.09171   0.05079693 47.23975   2.2437     113.026   
5200.8     8.745491   94.08818   0.05079693 46.46053   2.256145   114.161   
5201.2     8.745491   94.08818   0.05079693 46.34064   2.26859    114.2285  
5201.6     8.745491   91.38277   0.05079693 46.46053   2.280795   114.8297  
5202       8.756844   89.60063   0.05079693 47.11706   2.291002   115.7315  
5202.4     8.772505   88.6134    0.04780892 47.45285   2.296515   116.0321  
5202.8     8.780226   88.50232   0.05179298 48.75877   2.295408   116.1327  
5203.2     8.605209   87.35115   0.05179298 49.67518   2.280879   115.5881  
5203.6     8.528275   86.57315   0.05087847 50.25842   2.262369   115.1303  
5204       8.48497    85.96127   0.05374419 50.2345    2.246242   115.7315  
5204.4     8.48497    86.27254   0.05478099 49.99924   2.236076   116.0321  
5204.8     8.525049   86.63979   0.05478099 49.15508   2.231589   115.8421  
5205.2     8.505011   85.84814   0.05144963 46.10085   2.233686   114.9653  
5205.6     8.525049   86.43549   0.05165435 43.68599   2.236588   114.4511  
5206       8.525049   88.94495   0.04482079 42.60136   2.237588   114.5291  
5206.4     8.525049   90.48096   0.03884476 42.54804   2.241587   114.7779  
5206.8     8.525049   91.79701   0.03784871 43.40335   2.242588   116.204   
5207.2     8.54509    94.41254   0.03784871 47.53949   2.242589   118.1363  
5207.6     8.605209   96.37828   0.03896708 50.35236   2.237965   119.6393  
5208       8.56513    97.69539   0.04880485 53.00944   2.224597   120.1863  
5208.4     8.54509    98.09537   0.04880485 53.36761   2.214073   120.5411  
5208.8     8.54509    99.17279   0.04232205 53.64865   2.201911   119.8164  
5209.2     8.56513    95.90483   0.04053039 53.58849   2.194642   118.2844  
5209.6     8.697163   92.01279   0.03784871 53.58828   2.198545   116.2992  
5210       8.745491   89.21426   0.04361515 53.52812   2.207337   114.5541  
5210.4     8.865732   87.47495   0.04850021 53.28178   2.214089   113.6272  
5210.8     8.897409   88.31458   0.0498009  52.82539   2.215629   115.7328  
5211.2     8.913092   90.87633   0.05079693 52.13783   2.214632   118.9055  
5211.6     8.826778   94.48738   0.04083675 51.39474   2.217443   122.7689  
5212       8.719202   95.90381   0.0399631  49.98846   2.230251   125.709   
5212.4     8.62525    97.99599   0.03884476 47.54264   2.25194    128.3632  
5212.8     8.56513    98.60544   0.04230108 46.45036   2.278132   131.3297  
5213.2     8.592627   100.3254   0.03884476 45.3814    2.299706   133.6672  
5213.6     8.64529    101.9038   0.03685269 45.54184   2.310559   134.7958  
5214       8.64529    100.3018   0.03585672 48.07907   2.296573   133.6172  
5214.4     8.64529    97.26166   0.03952973 49.0896    2.27516    130.1603  
5214.8     8.626488   94.02194   0.03829635 50.17584   2.246677   126.8081  
5215.2     8.765532   90.18036   0.04107906 50.22404   2.228034   122.9538  
5215.6     8.805611   88.3035    0.0428288  49.68838   2.219947   120.0635  
5216       8.828663   90.246     0.04199587 49.39607   2.229082   120.3501  
5216.4     8.883942   92.38396   0.04020655 49.80782   2.243278   120.8417  
5216.8     8.885771   94.70232   0.04126428 50.13815   2.263049   121.7435  
5217.2     8.925852   95.83167   0.05079693 49.6818    2.289717   123.4908  
5217.6     8.900381   98.44827   0.05179298 47.19432   2.320602   125.2432  
5218       8.865732   101.6606   0.05360333 45.74103   2.383522   128.5536  
5218.4     8.827986   102.7902   0.05179298 36.14883   2.412225   131.3718  
5218.8     8.791807   104.4206   0.05237889 30.39347   2.446046   132.2645  
5219.2     8.745491   103.8593   0.04382485 24.45821   2.463991   131.4801  
5219.6     8.622013   101.2729   0.05079693 20.17373   2.473326   128.3556  
5220       8.505011   92.58516   0.05457713 17.56357   2.478736   123.1561  
5220.4     8.48497    87.54224   0.08167347 18.8225    2.475566   118.9683  
5220.8     8.364729   86.27254   0.114542   23.13887   2.461452   118.196   
5221.2     8.397163   87.44743   0.1283347  27.19101   2.435456   119.6068  
5221.6     8.46493    89.3988    0.1364543  30.86656   2.398014   122.3447  
5222       8.614166   91.21248   0.1179726  34.94939   2.350571   124.263   
5222.4     8.745491   92.68951   0.1065739  45.86297   2.317715   125.5083  
5222.8     8.836933   96.31329   0.08019631 46.38679   2.290302   128.3067  
5223.2     8.865732   101.6032   0.04681286 47.40576   2.27386    131.3786  
5223.6     8.865732   104.7087   0.0389531  49.35324   2.263361   134.0681  
5224       8.865732   106.086    0.0348607  50.2831    2.259651   134.9682  
5224.4     8.865732   106.7134   0.03685269 49.79543   2.260531   134.7312  
5224.8     8.875507   106.1122   0.03820053 48.80096   2.262652   134.1206  
5225.2     8.885771   106.7134   0.03699682 47.37202   2.265652   133.7675  
5225.6     8.867107   108.5163   0.03392406 47.0446    2.271042   134.0681  
5226       8.885771   109.868    0.03187266 47.10432   2.282643   134.9699  
5226.4     8.865732   111.2224   0.02934937 47.39274   2.293306   135.5711  
5226.8     8.894274   109.7191   0.02656405 48.20178   2.284654   132.9269  
5227.2     8.995798   104.8761   0.01568472 48.42453   2.262662   124.7762  
5227.6     9.186373   99.49899   0.007968217 48.36245   2.029834   118.4369  
5228       11.47094   69.73947   0.00541705 48.30226   1.793005   92.88577  
5228.4     11.91182   52.30461   0.01047121 48.36199   1.705351   61.61964  
5228.8     11.97037   43.9597    0.02290851 48.23833   1.608426   53.50701  
5229.2     11.91182   37.25871   0.0348607  45.05904   1.623417   50.82353  
5229.6     11.77154   39.10387   0.0359569  40.4646    1.784011   51.2259   
5230       11.43835   43.77695   0.0331715  38.09045   1.872949   54.10822  
5230.4     11.03006   51.1022    0.03089176 32.07038   2.049827   65.53107  
5230.8     10.60922   62.82565   0.02290851 31.15193   2.113783   75.4509   
5231.2     10.10822   73.39813   0.0217424  30.47031   2.221654   84.46893  
5231.6     9.046093   77.35483   0.01992041 30.21503   2.24733    95.24002  
