~Version
 VERS              .         3.0                           : CWLS LOG ASCII STANDARD - VERSION 3.0
 WRAP              .         NO                            : ONE LINE PER DEPTH STEP
 DLM               .         SPACE                         : DELIMITING CHARACTER(SPACE TAB OR COMMA)
~Well Information
#_______________________________________________________________________________
#
#PARAMETER_NAME    .UNIT     VALUE                         : DESCRIPTION
#_______________________________________________________________________________
STRT               .ft       3360                          : First reference value
STOP               .ft       6444                          : Last reference value
STEP               .ft       0.4                           : Step increment
NULL               .         -9999                         : Missing value
COMP               .                                       : Company
WELL               .         EGBM-009                      : Well name
FLD                .         WILDCAT                       : Field
LOC                .                                       : Location
SRVC               .                                       : Service Company
CTRY               .                                       : Country
DATE               .                                       : Service Date
X                  .                                       : X or East-West coordinate
Y                  .                                       : Y or North South coordinate
GDAT               .                                       : Geodetic Datum
HZCS               .                                       : Horizontal Co-ordinate System
CREATION-TIME      .         2000/8/10 0_0                 : 
FIELD-NAME         .         WILDCAT                       : 
FILE-ID            .         SHELL.001                     : 
FILE-NUMBER        .         1                             : 
FILE-SET-NAME      .                                       : 
FILE-SET-NUMBER    .         0                             : 
FILE-TYPE          .         SHELL                         : 
NAME-SPACE-NAME    .         LIS                           : 
NAME-SPACE-VERSION .         0                             : 
PRODUCER-CODE      .         440                           : 
PRODUCER-NAME      .         Schlumberger                  : 
PRODUCT            .                                       : 
PROGRAMS           .                                       : 
VERSION            .         REV 2.00                      : 
WELL-NAME          .                                       : 
~Parameter Information Block
#_______________________________________________________________________________
#
#PARAMETER_NAME    .UNIT     VALUE                         : DESCRIPTION
#_______________________________________________________________________________
SET                .         SHELL_001_1                   : 
ACQUISITION-PRODUCT .         DLIS/U                        : 
CREATION-TIME      .         2026/5/13 12_40               : 
DLIS_FRAME_DIRECTION .         INCREASING                    : 
DLIS_FRAME_NAME    .         1                             : 
DLIS_FRAME_SPACING .0.1_in   48                            : 
FIELD-NAME         .         WILDCAT                       : 
FILE-ID            .         SHELL.001                     : 
FILE-NUMBER        .         1                             : 
FILE-SET-NAME      .         LIS-TO-DLIS-CONVERSION        : 
FILE-SET-NUMBER    .         12959                         : 
FILE-TYPE          .         SHELL                         : 
INDEX-TYPE         .         BOREHOLE-DEPTH                : 
NAME-SPACE-NAME    .                                       : 
NAME-SPACE-VERSION .         0                             : 
OriginalDatasetName .         1                             : 
PRODUCER-CODE      .         440                           : 
PRODUCER-NAME      .         Schlumberger                  : 
PRODUCT            .         DLIS/U                        : 
PROGRAMS           .         LIS-TO-DLIS                   : 
TLFamily_CALF      .         Caliper                       : 
TLFamily_CGR       .         Gamma Ray                     : 
TLFamily_DEPT      .         Measured Depth                : 
TLFamily_DRHO      .         Bulk Density Correction       : 
TLFamily_NPOR      .         Neutron Porosity              : 
TLFamily_RHOB      .         Bulk Density                  : 
TLFamily_SGR       .         Gamma Ray                     : 
VERSION            .         0.1                           : 
WELL-NAME          .                                       : 
~Curve Information
#_______________________________________________________________________________
#
#LOGNAME           .UNIT     LOG_ID                        : DESCRIPTION
#_______________________________________________________________________________
DEPT               .ft                                     :  {F}
CALF               .in                                     :  {F}
CGR                .gAPI                                   :  {F}
DRHO               .g/cm3                                  :  {F}
NPOR               .                                       :  {F}
RHOB               .g/cm3                                  :  {F}
SGR                .gAPI                                   :  {F}
~Ascii
# ...
4982.4     9.454233   138.0121   0.05258612 37.11011   2.228294   167.7224  
4982.8     9.562254   136.5596   0.06434141 36.09089   2.235496   163.9728  
4983.2     9.619999   133.1716   0.06534095 35.99106   2.240168   159.1674  
4983.6     9.65358    123.6      0.06175297 36.39203   2.237241   153.3     
4984       9.68       118.2      0.04980069 37.21675   2.219093   144       
4984.4     9.719999   104.8229   0.03985804 37.9695    2.198596   135.3     
4984.8     9.678532   98.31776   0.03884456 38.8656    2.172947   124.2085  
4985.2     9.619999   89.7       0.04083663 40.32156   2.151978   116.111   
4985.6     9.619999   87.42929   0.04183257 40.95739   2.136887   109.3936  
4986       9.518333   83.98563   0.03585654 41.17159   2.124572   106.4609  
4986.4     9.392048   81.09163   0.01813092 40.25082   2.117017   103.8     
4986.8     9.21454    78         0.003983974 37.75214   2.118052   101.4593  
4987.2     9.147779   74.7       -0.004282062 36.68027   2.127155   100.0054  
4987.6     9.059999   73.5       -0.003984153 36.49256   2.141535   98.69998  
4988       9.009523   73.5       -0.003984153 36.4928    2.152278   98.09999  
4988.4     9.011187   74.77597   -0.003984153 36.66358   2.158052   98.09999  
4988.8     9.02       73.2       -0.004980102 36.97328   2.159112   98.09999  
4989.2     9          72.47467   -0.006174764 37.60789   2.155      97.27881  
4989.6     8.960524   71.62756   -0.008565195 38.58303   2.14972    96.29999  
4990       9.02       70.49998   -0.00597322 40.81408   2.140332   94.97928  
4990.4     8.971651   71.39999   -0.007174881 41.38335   2.135987   94.86313  
4990.8     9          73.62177   0.004979998 41.96027   2.132092   95.40001  
4991.2     9.039999   74.39999   0.01593623 41.78152   2.136746   95.69998  
4991.6     9.039999   75.89999   0.02986872 41.39626   2.14378    95.69998  
4992       9.059999   75.89999   0.03884456 41.34988   2.148284   96.78993  
4992.4     9.039999   76.5       0.03506319 42.00864   2.151076   95.69998  
4992.8     9.073048   75.89999   0.02290833 43.69661   2.147258   95.09395  
4993.2     9.059999   75.38484   0.01095614 44.8548    2.141417   93.89999  
4993.6     9.059999   74.39999   0.000995934 45.49553   2.140064   93.29999  
4994       9.08       73.5       0.005976051 44.93802   2.14006    93.45892  
4994.4     9.119999   73.2       0.008964062 43.81672   2.140056   93.29999  
4994.8     9.152966   74.39999   0.01155026 43.11588   2.138179   93.59999  
4995.2     9.30134    74.03891   0.01394415 42.2058    2.134352   93.03265  
4995.6     9.379999   72.29999   0.01394415 41.05791   2.131044   91.74506  
4996       9.387337   71.99998   0.0149402  40.14684   2.137325   91.5      
4996.4     9.310745   71.7       0.01792821 39.62708   2.145226   91.09489  
4996.8     9.26       71.9007    0.0205167  40.2188    2.158607   90.85313  
4997.2     9.42       72.29999   0.02230835 42.13832   2.169099   90.59999  
4997.6     9.42       72.59999   0.02191228 42.40311   2.175331   90.89999  
4998       9.36706    74.39999   0.02091625 41.41266   2.180108   91.8      
4998.4     9.32       75.97064   0.01693219 39.89742   2.184877   92.49684  
4998.8     9.360001   74.7       0.01852468 38.23928   2.189658   93        
4999.2     9.460598   74.27467   0.01932033 38.35948   2.193008   93        
4999.6     9.539999   72.13641   0.01872738 39.53429   2.193004   92.40001  
5000       9.539997   70.79997   0.01294813 40.81639   2.193      91.96487  
5000.4     9.55995    70.47197   0.01593623 43.64      2.196802   92.49698  
5000.8     9.639898   71.69875   0.01693219 45.34591   2.208576   93.92245  
5001.2     9.659849   76.49446   0.0252628  46.25501   2.228068   97.51805  
5001.6     9.479794   80.99643   0.02903463 46.72685   2.245812   104.0783  
5002       9.47974    89.39752   0.03784853 46.28      2.263214   112.3798  
5002.4     9.499689   93.8782    0.03857354 46.06938   2.273673   120.4799  
5002.8     9.45653    99.7758    0.03984058 44.26851   2.28       126.3897  
5003.2     9.439581   103.197    0.03984058 42.34743   2.279125   128.3987  
5003.6     9.588654   101.3965   0.03368041 40.82001   2.269873   123.2177  
5004       9.719498   94.49567   0.03087643 37.38807   2.255      114.8972  
5004.4     9.629631   88.49472   0.01925511 34.91161   2.244193   109.3138  
5004.8     9.477434   79.6685    0.01357822 32.12      2.244374   99.94412  
5005.2     9.259817   74.21498   0.006972075 29.21496   2.260448   92.88483  
5005.6     9.223619   69.35516   0.005976051 28.02883   2.283368   88.67845  
5006       9.175373   71.09053   0.009960115 28.57429   2.303      87.13538  
5006.4     9.07062    72.07437   0.01056705 30.69894   2.303      87.4744   
5006.8     9.034418   72.73384   0.02130884 33.89984   2.293562   89.72453  
5007.2     9.079016   74.45993   0.03305255 37.58      2.269388   93.20961  
5007.6     9.213743   76.1832    0.0448207  41.80807   2.242583   96.71812  
5008       9.178909   75.88814   0.0448207  47.24001   2.219494   99.07855  
5008.4     9.158852   75.88754   0.04282862 47.85815   2.202639   101.3538  
5008.8     9.22105    77.98732   0.03153813 49.90803   2.189395   103.9695  
5009.2     9.372253   78.58685   0.02526728 50.84708   2.186102   107.0575  
5009.6     9.501696   81.58673   0.01992029 50.77206   2.196511   110.0951  
5010       9.644892   88.48753   0.02061921 50.02602   2.21656    114.7907  
5010.4     9.738697   88.83617   0.02191228 49.12617   2.237589   117.408   
5010.8     9.758652   89.66673   0.0302648  46.56474   2.258506   117.5428  
5011.2     9.665138   85.53596   0.03884456 45.07999   2.282702   116.0949  
5011.6     9.667694   83.08443   0.05179277 40.04      2.30408    113.7378  
5012       9.742918   84.58429   0.05322234 35.85526   2.331722   111.9849  
5012.4     9.798462   84.88387   0.05179277 33.49451   2.3511     112.0322  
5012.8     9.378283   86.08363   0.05179277 32.38338   2.36506    113.5238  
5013.2     9.038162   85.78304   0.05578732 33.90106   2.368946   116.645   
5013.6     8.958094   89.08337   0.06474099 38.66      2.352515   118.3916  
5014       8.988335   93.07423   0.06175297 41.3       2.324273   120.4113  
5014.4     9.003359   94.78409   0.06175297 47.96      2.291881   122.4323  
5014.8     9.016827   97.13866   0.05179277 47.9934    2.263228   123.8922  
5015.2     8.997873   98.68439   0.05273407 50.25916   2.24991    124.9836  
5015.6     9.037828   96.45467   0.05179277 52.16388   2.252633   125.9925  
5016       8.997761   95.67377   0.06530012 53.38292   2.260058   126.5925  
5016.4     9.061703   95.03346   0.074168   54.18464   2.264821   125.3951  
5016.8     9.136812   95.49812   0.0597609  54.32001   2.260748   123.0829  
5017.2     9.217667   92.23772   0.04681268 53.90001   2.251087   119.8553  
5017.6     9.277634   88.96703   0.02390435 52.1727    2.246      116.9319  
5018       9.257574   86.91161   0.01693219 49.32358   2.27063    114.7542  
5018.4     9.213884   85.4617    0.01817402 48.59628   2.293005   113.3865  
5018.8     9.098778   84.57539   0.02892163 48.3839    2.31       113.701   
5019.2     9.077343   88.23796   0.03984058 48.90759   2.300482   115.127   
5019.6     9.157318   91.7771    0.05179277 49.55782   2.277826   117.5873  
5020       9.377342   96.54739   0.05179277 49.46      2.250241   120.6559  
5020.4     9.27673    97.3777    0.05141766 47.96      2.232709   122.3686  
5020.8     9.099449   97.61145   0.04880476 46.52      2.225356   122.9888  
5021.2     9.037048   98.31349   0.05179277 46.28      2.223      122.9885  
5021.6     9.057001   96.57692   0.0483577  46.538     2.223      121.8904  
5022       9.08219    96.62416   0.04914256 47.31765   2.227965   121.7876  
5022.4     9.177198   97.35989   0.05833095 47.95901   2.233739   122.0875  
5022.8     9.306753   99.77847   0.05876485 48.30815   2.238      122.0873  
5023.2     9.376928   100.477    0.05606808 48.38001   2.23872    122.3872  
5023.6     9.396885   100.8124   0.05628181 48.66743   2.234919   121.1864  
