~Version
 VERS              .         3.0                           : CWLS LOG ASCII STANDARD - VERSION 3.0
 WRAP              .         NO                            : ONE LINE PER DEPTH STEP
 DLM               .         SPACE                         : DELIMITING CHARACTER(SPACE TAB OR COMMA)
~Well Information
#_______________________________________________________________________________
#
#PARAMETER_NAME    .UNIT     VALUE                         : DESCRIPTION
#_______________________________________________________________________________
STRT               .ft       3360                          : First reference value
STOP               .ft       6444                          : Last reference value
STEP               .ft       0.4                           : Step increment
NULL               .         -9999                         : Missing value
COMP               .                                       : Company
WELL               .         EGBM-009                      : Well name
FLD                .         WILDCAT                       : Field
LOC                .                                       : Location
SRVC               .                                       : Service Company
CTRY               .                                       : Country
DATE               .                                       : Service Date
X                  .                                       : X or East-West coordinate
Y                  .                                       : Y or North South coordinate
GDAT               .                                       : Geodetic Datum
HZCS               .                                       : Horizontal Co-ordinate System
CREATION-TIME      .         2000/8/10 0_0                 : 
FIELD-NAME         .         WILDCAT                       : 
FILE-ID            .         SHELL.001                     : 
FILE-NUMBER        .         1                             : 
FILE-SET-NAME      .                                       : 
FILE-SET-NUMBER    .         0                             : 
FILE-TYPE          .         SHELL                         : 
NAME-SPACE-NAME    .         LIS                           : 
NAME-SPACE-VERSION .         0                             : 
PRODUCER-CODE      .         440                           : 
PRODUCER-NAME      .         Schlumberger                  : 
PRODUCT            .                                       : 
PROGRAMS           .                                       : 
VERSION            .         REV 2.00                      : 
WELL-NAME          .                                       : 
~Parameter Information Block
#_______________________________________________________________________________
#
#PARAMETER_NAME    .UNIT     VALUE                         : DESCRIPTION
#_______________________________________________________________________________
SET                .         SHELL_001_1                   : 
ACQUISITION-PRODUCT .         DLIS/U                        : 
CREATION-TIME      .         2026/5/13 12_40               : 
DLIS_FRAME_DIRECTION .         INCREASING                    : 
DLIS_FRAME_NAME    .         1                             : 
DLIS_FRAME_SPACING .0.1_in   48                            : 
FIELD-NAME         .         WILDCAT                       : 
FILE-ID            .         SHELL.001                     : 
FILE-NUMBER        .         1                             : 
FILE-SET-NAME      .         LIS-TO-DLIS-CONVERSION        : 
FILE-SET-NUMBER    .         12959                         : 
FILE-TYPE          .         SHELL                         : 
INDEX-TYPE         .         BOREHOLE-DEPTH                : 
NAME-SPACE-NAME    .                                       : 
NAME-SPACE-VERSION .         0                             : 
OriginalDatasetName .         1                             : 
PRODUCER-CODE      .         440                           : 
PRODUCER-NAME      .         Schlumberger                  : 
PRODUCT            .         DLIS/U                        : 
PROGRAMS           .         LIS-TO-DLIS                   : 
TLFamily_CALF      .         Caliper                       : 
TLFamily_CGR       .         Gamma Ray                     : 
TLFamily_DEPT      .         Measured Depth                : 
TLFamily_DRHO      .         Bulk Density Correction       : 
TLFamily_NPOR      .         Neutron Porosity              : 
TLFamily_RHOB      .         Bulk Density                  : 
TLFamily_SGR       .         Gamma Ray                     : 
VERSION            .         0.1                           : 
WELL-NAME          .                                       : 
~Curve Information
#_______________________________________________________________________________
#
#LOGNAME           .UNIT     LOG_ID                        : DESCRIPTION
#_______________________________________________________________________________
DEPT               .ft                                     :  {F}
CALF               .in                                     :  {F}
CGR                .gAPI                                   :  {F}
DRHO               .g/cm3                                  :  {F}
NPOR               .                                       :  {F}
RHOB               .g/cm3                                  :  {F}
SGR                .gAPI                                   :  {F}
~Ascii
# ...
3984       9.04739    92.28891   0.02591308 45.47861   2.243616   109.0669  
3984.4     9.008421   93.41122   0.02820569 45.69357   2.253078   111.4961  
3984.8     8.933537   93.16319   0.02544057 46.4324    2.242902   112.9024  
3985.2     8.899179   92.99358   0.02343016 47.7491    2.22663    112.8997  
3985.6     8.927797   93.40266   0.01507749 47.63374   2.213157   112.5971  
3986       8.944344   93.09991   0.01101482 46.91466   2.210371   112.2945  
3986.4     9.047331   91.2988    -0.0005916293 46.12428   2.215859   113.0402  
3986.8     9.027153   91.82159   -0.0006036096 44.91058   2.222886   114.6836  
3987.2     9.00691    95.53375   0.004386514 45.59706   2.229638   117.1971  
3987.6     8.966703   98.6151    -0.0006276401 46.84493   2.234462   119.3031  
3988       8.966488   99.68404   0.001359373 47.99854   2.245681   119.2281  
3988.4     8.946274   97.92809   0.007631859 47.84194   2.259371   116.3698  
3988.8     8.94606    92.6111    0.009583544 46.90818   2.276006   112.2237  
3989.2     9.07547    89.54465   0.01931564 46.53869   2.286268   106.7532  
3989.6     9.145597   86.04587   0.01863999 46.50127   2.282306   101.2967  
3990       9.285341   82.9819    0.01429433 46.53094   2.265299   95.87579  
3990.4     9.379324   75.67232   0.01100437 46.72962   2.178285   87.06862  
3990.8     9.552143   66.37057   0.005182984 48.312     2.099276   79.2672   
3991.2     10.16454   61.04948   0.0002640292 49.57838   1.916259   67.56709  
3991.6     11.54414   50.76715   -0.0007476914 52.26488   1.753251   56.75282  
3992       12.4237    40.86704   -0.0007596654 53.67905   1.577238   45.9654   
3992.4     13.78334   29.11784   0.0002280063 53.62496   1.522035   40.93124  
3992.8     15.05593   22.58644   0.002313743 52.96332   1.505138   35.37894  
3993.2     15.86268   18.84929   0.006092285 51.40923   1.506076   32.42645  
3993.6     15.70749   20.15385   0.01286556 50.49951   1.517647   32.41032  
3994       15.23337   22.01464   0.01564696 49.9292    1.551176   34.63596  
3994.4     15.13598   27.92484   0.02142428 49.92961   1.58217    39.94135  
3994.8     15.18036   36.3092    0.02220987 50.464     1.626155   46.60907  
3995.2     14.62209   43.23949   0.02313952 50.74532   1.666499   54.45496  
3995.6     12.98202   47.88953   0.02577852 50.56208   1.686446   59.37479  
3996       12.54195   47.409     0.03286234 48.20522   1.706406   58.53132  
3996.4     14.06157   44.42921   0.04150428 46.93355   1.714111   56.41392  
3996.8     14.7614    39.32417   0.06608281 46.874     1.775098   51.14159  
3997.2     12.60129   36.72686   0.07707679 47.1749    1.808085   46.96821  
3997.6     11.56125   34.88264   0.09806229 48.49568   1.862072   44.59904  
3998       12.02096   30.91679   0.1090509  50.85047   1.872344   41.1076   
3998.4     14.10066   32.1134    0.1170401  52.06413   1.878049   40.51392  
3998.8     14.18676   31.51006   0.1160302  52.03368   1.850686   38.68111  
3999.2     14.03717   31.16172   0.1023239  51.2422    1.788098   37.47607  
3999.6     13.96011   30.00338   0.08146919 50.47997   1.695009   37.50333  
4000       14.32007   32.81416   0.05999804 50.06033   1.679004   38.40102  
4000.4     15.17977   35.21463   0.05098557 51.38095   1.746991   45.86873  
4000.8     14.81355   43.79025   0.04597124 51.9829    1.832966   51.1208   
4001.2     12.13915   53.68586   0.03545941 51.83984   1.976957   60.28559  
4001.6     11.92546   64.07732   0.03294288 50.90035   2.078932   79.47884  
4002       11.81715   61.26324   0.02492896 50.06479   2.10192    92.17691  
4002.4     11.75808   71.67015   0.03861129 49.46555   2.097905   95.97119  
4002.8     12.09762   81.56876   0.07489151 48.38697   2.086079   90.86639  
4003.2     12.52776   64.16145   0.08988738 47.48759   2.081872   77.06094  
4003.6     12.55727   54.53973   0.1188652  46.34865   2.07444    68.3573   
4004       11.50728   49.97472   0.1195874  46.65228   2.056341   62.15175  
4004.4     11.4007    45.8472    0.1003288  47.31059   2.009823   59.5079   
4004.8     11.52943   48.95798   0.06981906 47.73152   1.962138   60.60991  
4005.2     11.77561   53.31925   0.04981214 47.39357   1.947792   64.10487  
4005.6     11.95556   58.32304   0.02480122 46.93065   1.966847   67.78783  
4006       11.95523   58.81543   0.008787453 45.82107   1.992217   69.315    
4006.4     10.39476   56.5606    0.02477277 44.81442   2.01114    69.06647  
4006.8     10.25463   52.81597   0.04674971 44.4689    2.02028    63.42038  
4007.2     10.87424   46.03336   0.07249448 44.07729   2.027036   57.51476  
4007.6     11.29392   40.51141   0.0779175  43.6588    2.039883   49.9748   
4008       10.85361   37.96505   0.08170684 43.25325   2.056579   46.50472  
4008.4     10.75261   36.19919   0.08169216 43.09349   2.074623   43.9213   
4008.8     10.78929   37.6944    0.08361179 43.30145   2.084888   42.7944   
4009.2     11.05274   37.6896    0.08466227 45.28208   2.086596   43.68959  
4009.6     11.31232   36.63589   0.07764901 47.50304   2.080885   44.58479  
4010       11.352     37.26333   0.07055785 48.29736   2.073184   44.87999  
4010.4     11.45503   38.38656   0.06362927 48.64494   2.065031   44.57519  
4010.8     11.742     38.21611   0.05361034 47.66794   2.064209   44.8704   
4011.2     11.94988   37.36559   0.06115138 46.66862   2.064224   44.26559  
4011.6     11.95585   37.60455   0.06878114 44.62782   2.061536   44.26079  
4012       11.93044   37.83836   0.08158812 43.12486   2.063834   45.34177  
4012.4     11.33559   37.18275   0.09885536 42.94027   2.075049   48.14789  
4012.8     11.08255   41.84544   0.09453359 43.37103   2.097515   52.3464   
4013.2     10.93513   53.59386   0.05707791 45.14146   2.130345   64.04156  
4013.6     10.61496   60.55952   0.04951531 46.56499   2.156488   85.03673  
4014       10.3487    73.63318   0.01550563 46.89773   2.174524   91.87303  
4014.4     10.04848   77.82903   0.007206501 45.80831   2.182405   97.9272   
4014.8     10.00816   78.12239   0.0004819104 44.92675   2.182408   97.66881  
4015.2     9.944086   76.46866   0.002463996 44.67913   2.180392   96.6041   
4015.6     9.867517   74.70189   0.009450976 44.88794   2.181376   96.11279  
4016       9.829948   71.71983   0.009441316 45.17897   2.186527   95.808    
4016.4     9.76688    76.83852   0.007430285 45.45946   2.190295   96.1032   
4016.8     9.875448   78.7691    0.001414686 45.73975   2.192328   97.2984   
4017.2     10.00962   83.25864   0.001400113 46.08128   2.196834   100.2922  
4017.6     9.986498   87.50336   0.006383687 46.4622    2.211046   103.725   
4018       9.706451   91.8835    0.009848822 46.6832    2.227183   106.2631  
4018.4     9.649364   92.5639    0.01335108 46.03004   2.251204   107.9787  
4018.8     9.696421   90.32108   0.01440898 45.44582   2.265004   106.718   
4019.2     9.717388   88.86958   0.01244533 45.39339   2.271232   104.1696  
4019.6     9.704319   88.00185   0.009625439 45.86501   2.265254   102.5764  
4020       9.703999   87.96068   0.002813   46.748     2.252804   101.5025  
4020.4     9.68368    89.7552    -0.0007136666 47.22858   2.239306   102.3295  
4020.8     9.663359   92.8082    0.007269002 46.68977   2.223352   104.2348  
4021.2     9.623039   94.24559   0.008254532 45.23289   2.211684   106.9465  
4021.6     9.557066   94.43271   0.01123915 44.16163   2.204523   109.2554  
4022       9.45652    95.73738   0.01270106 44.11462   2.20312    110.9706  
4022.4     9.22208    95.4324    0.01547837 45.49419   2.205104   112.0938  
4022.8     9.142899   97.22534   0.01619459 46.39457   2.203088   113.0117  
4023.2     9.121439   99.81371   0.01530996 47.93851   2.197518   115.5285  
4023.6     9.069223   102.226    0.01316782 50.47885   2.188245   119.1229  
4024       9.012133   104.0891   0.01415315 51.21322   2.182565   121.6248  
4024.4     8.975266   102.3214   0.01740449 53.24125   2.175949   125.1197  
4024.8     8.960159   101.9342   0.01912248 54.33405   2.173114   126.0024  
4025.2     8.959839   102.5976   0.01910831 54.49698   2.171992   125.508   
