~Version
 VERS              .         3.0                           : CWLS LOG ASCII STANDARD - VERSION 3.0
 WRAP              .         NO                            : ONE LINE PER DEPTH STEP
 DLM               .         SPACE                         : DELIMITING CHARACTER(SPACE TAB OR COMMA)
~Well Information
#_______________________________________________________________________________
#
#PARAMETER_NAME    .UNIT     VALUE                         : DESCRIPTION
#_______________________________________________________________________________
STRT               .ft       3360                          : First reference value
STOP               .ft       6444                          : Last reference value
STEP               .ft       0.4                           : Step increment
NULL               .         -9999                         : Missing value
COMP               .                                       : Company
WELL               .         EGBM-009                      : Well name
FLD                .         WILDCAT                       : Field
LOC                .                                       : Location
SRVC               .                                       : Service Company
CTRY               .                                       : Country
DATE               .                                       : Service Date
X                  .                                       : X or East-West coordinate
Y                  .                                       : Y or North South coordinate
GDAT               .                                       : Geodetic Datum
HZCS               .                                       : Horizontal Co-ordinate System
CREATION-TIME      .         2000/8/10 0_0                 : 
FIELD-NAME         .         WILDCAT                       : 
FILE-ID            .         SHELL.001                     : 
FILE-NUMBER        .         1                             : 
FILE-SET-NAME      .                                       : 
FILE-SET-NUMBER    .         0                             : 
FILE-TYPE          .         SHELL                         : 
NAME-SPACE-NAME    .         LIS                           : 
NAME-SPACE-VERSION .         0                             : 
PRODUCER-CODE      .         440                           : 
PRODUCER-NAME      .         Schlumberger                  : 
PRODUCT            .                                       : 
PROGRAMS           .                                       : 
VERSION            .         REV 2.00                      : 
WELL-NAME          .                                       : 
~Parameter Information Block
#_______________________________________________________________________________
#
#PARAMETER_NAME    .UNIT     VALUE                         : DESCRIPTION
#_______________________________________________________________________________
SET                .         SHELL_001_1                   : 
ACQUISITION-PRODUCT .         DLIS/U                        : 
CREATION-TIME      .         2026/5/13 12_40               : 
DLIS_FRAME_DIRECTION .         INCREASING                    : 
DLIS_FRAME_NAME    .         1                             : 
DLIS_FRAME_SPACING .0.1_in   48                            : 
FIELD-NAME         .         WILDCAT                       : 
FILE-ID            .         SHELL.001                     : 
FILE-NUMBER        .         1                             : 
FILE-SET-NAME      .         LIS-TO-DLIS-CONVERSION        : 
FILE-SET-NUMBER    .         12959                         : 
FILE-TYPE          .         SHELL                         : 
INDEX-TYPE         .         BOREHOLE-DEPTH                : 
NAME-SPACE-NAME    .                                       : 
NAME-SPACE-VERSION .         0                             : 
OriginalDatasetName .         1                             : 
PRODUCER-CODE      .         440                           : 
PRODUCER-NAME      .         Schlumberger                  : 
PRODUCT            .         DLIS/U                        : 
PROGRAMS           .         LIS-TO-DLIS                   : 
TLFamily_CALF      .         Caliper                       : 
TLFamily_CGR       .         Gamma Ray                     : 
TLFamily_DEPT      .         Measured Depth                : 
TLFamily_DRHO      .         Bulk Density Correction       : 
TLFamily_NPOR      .         Neutron Porosity              : 
TLFamily_RHOB      .         Bulk Density                  : 
TLFamily_SGR       .         Gamma Ray                     : 
VERSION            .         0.1                           : 
WELL-NAME          .                                       : 
~Curve Information
#_______________________________________________________________________________
#
#LOGNAME           .UNIT     LOG_ID                        : DESCRIPTION
#_______________________________________________________________________________
DEPT               .ft                                     :  {F}
CALF               .in                                     :  {F}
CGR                .gAPI                                   :  {F}
DRHO               .g/cm3                                  :  {F}
NPOR               .                                       :  {F}
RHOB               .g/cm3                                  :  {F}
SGR                .gAPI                                   :  {F}
~Ascii
3360.0     12.15072   21.12958   -0.05938761 58.68876   2.179627   27.37867  
3360.4     12.21116   24.11448   -0.01344769 55.63503   2.097722   33.20826  
3360.8     12.28693   28.0199    0.0003378257 54.58289   1.991857   37.24648  
3361.2     12.26097   33.01183   -0.0004391407 54.78866   1.96687    41.71088  
3361.6     12.16312   38.96305   0.002574802 56.76598   1.94327    46.81924  
3362       12.10156   41.03717   0.01096823 59.10158   1.935586   50.11898  
3362.4     12.16194   43.55742   0.01259482 59.10069   1.921354   54.30921  
3362.8     12.18226   44.42724   0.01361269 58.91601   1.87839    56.34866  
3363.2     12.24482   46.424     0.01115857 58.45659   1.783175   59.09845  
3363.6     12.44163   50.98882   0.009396013 57.78515   1.737243   64.47585  
3364       12.54334   55.54104   0.008861598 57.60998   1.660336   68.86458  
3364.4     12.4695    64.70523   0.01469056 56.27715   1.606283   76.9782   
3364.8     12.32054   68.30447   0.01843121 55.93507   1.592926   82.05017  
3365.2     12.28423   72.25528   0.02471057 55.74408   1.61144    87.10944  
3365.6     12.39189   75.35335   0.02572846 55.91428   1.767321   91.67181  
3366       12.52496   81.36873   0.0357275  58.25016   1.805298   96.9782   
3366.4     12.54529   88.57494   0.05970054 58.33567   2.013115   99.17192  
3366.8     12.54562   91.02588   0.07169622 57.2288    2.08006    103.2861  
3367.2     12.52595   90.10329   0.1066545  55.90948   2.108354   104.354   
3367.6     12.48626   87.99042   0.1076646  53.03165   2.116064   104.6632  
3368       12.44658   86.92856   0.1013435  51.53146   2.117334   104.9038  
3368.4     12.38688   85.38286   0.1037126  51.80146   2.119204   105.1071  
3368.8     12.3672    84.54277   0.1027345  52.46486   2.122967   104.5366  
3369.2     12.36753   85.60838   0.1027243  52.84654   2.125135   103.1844  
3369.6     12.38787   85.61308   0.1007784  52.31905   2.122272   103.0214  
3370       12.4082    83.2166    0.0972241  51.47931   2.113485   102.0338  
3370.4     12.44855   79.9192    0.09283426 50.74504   2.105168   100.3302  
3370.8     12.4889    79.70737   0.09818481 51.46857   2.098242   100.3351  
3371.2     12.54927   82.56606   0.09986021 52.78062   2.093266   100.8454  
3371.6     12.48967   84.03429   0.106484   55.5022    2.096692   100.9455  
3372       12.36982   84.44066   0.1078816  56.70492   2.104296   100.6501  
3372.4     12.35014   82.8885    0.1021904  57.35459   2.099307   98.85428  
3372.8     12.33469   76.94514   0.09495007 57.45115   2.07636    95.02032  
3373.2     12.3308    69.74507   0.08569631 56.93217   2.012445   91.65875  
3373.6     12.37113   64.64433   0.08201595 57.0891    1.92855    87.1617   
3374       12.15135   62.849     0.06969906 56.78314   1.859632   85.3634   
3374.4     12.13011   63.15347   0.06808378 56.46704   1.853663   84.51559  
3374.8     12.14907   65.43172   0.07205759 56.29844   1.902639   86.22746  
3375.2     12.26485   67.06497   0.07710573 56.07432   1.956605   88.07925  
3375.6     12.37277   69.07466   0.07712571 55.82436   1.999224   89.88866  
3376       12.55627   69.77582   0.07714567 55.58186   2.036571   89.89066  
3376.4     12.63214   69.47997   0.07916167 55.72019   2.043518   90.17567  
3376.8     12.67401   68.88387   0.08017957 56.42537   2.051333   88.80621  
3377.2     12.68414   68.03943   0.08798404 56.89094   2.05415    86.71388  
3377.6     12.63476   67.14767   0.09581779 56.83736   2.059965   84.50636  
3378       12.63504   64.9931    0.1036479  56.77621   2.065779   82.7092   
3378.4     12.66116   62.29421   0.1092015  56.98481   2.068597   82.11354  
3378.8     12.67567   61.699     0.1092215  57.797     2.07441    82.41849  
3379.2     12.60723   65.00641   0.1092415  58.33106   2.084323   82.12283  
3379.6     12.51619   64.83987   0.1142516  58.01627   2.097382   81.52689  
3380       12.57658   63.51352   0.1227261  56.23037   2.113841   80.93092  
3380.4     12.65699   63.21748   0.1342542  55.84387   2.12357    80.93555  
3380.8     12.73741   63.22176   0.1378763  54.72592   2.126956   80.63986  
3381.2     12.73774   62.9257    0.1402798  54.08041   2.117541   80.34416  
3381.6     12.71524   64.5793    0.1462969  53.92466   2.103415   80.94942  
3382       12.63892   64.73621   0.1483034  54.53191   2.075817   80.95404  
3382.4     12.56121   64.43921   0.1493116  56.04379   2.054044   79.45515  
3382.8     12.46804   60.84135   0.1493449  57.58979   1.966955   76.09705  
3383.2     12.15865   59.94353   0.1274052  58.01937   1.807155   73.57112  
3383.6     11.83868   56.34349   0.1154509  57.14167   1.795176   71.25615  
3384       10.53411   56.34566   0.08852302 55.9791    1.696943   70.72281  
3384.4     10.09696   58.75468   0.07354374 55.25882   1.68076    72.21976  
3384.8     9.683666   57.85774   0.04746363 54.89743   1.668507   72.96971  
3385.2     9.456955   55.87025   0.03269461 54.86533   1.651689   71.0835   
3385.6     9.358557   50.37836   0.02572856 54.05389   1.634944   66.78311  
3386       9.117147   47.9974    0.0320119  53.89365   1.648452   65.88324  
3386.4     9.037151   47.06013   0.05165561 54.53329   1.795334   63.88232  
3386.8     9.277792   51.26987   0.0986433  55.43163   1.867522   66.39275  
3387.2     9.278057   53.37526   0.1103224  57.32825   1.903823   68.82797  
3387.6     9.242464   54.47867   0.1041625  57.79366   1.859324   69.41008  
3388       9.194735   52.65455   0.04082626 57.37583   1.794406   66.29506  
3388.4     9.138657   50.09893   0.02713672 56.56474   1.656572   64.30714  
3388.8     9.178883   48.95681   0.01427828 57.01337   1.616454   62.02593  
3389.2     8.927473   49.04829   0.01193851 57.22217   1.629257   62.23435  
3389.6     8.891945   51.68452   0.009954959 55.93689   1.731547   65.87158  
3390       8.899349   57.31182   0.02917749 55.08303   1.856443   74.13818  
3390.4     8.898064   60.91904   0.04293883 54.51958   2.039286   76.42375  
3390.8     8.879835   65.90125   0.04495009 53.22441   2.101236   81.59106  
3391.2     8.830111   71.30292   0.04596809 52.40887   2.146087   85.65552  
3391.6     8.720137   73.87663   0.04217749 52.52671   2.153501   89.41827  
3392       8.69873    75.83855   0.02885582 53.80126   2.145044   93.0806   
3392.4     8.64048    78.06947   0.02323705 55.23455   2.12897    96.64793  
3392.8     8.70083    79.07779   0.02109782 55.87796   2.096493   98.20706  
3393.2     8.769545   80.32123   0.01912173 54.77355   2.03243    96.11418  
3393.6     8.882738   77.80659   0.0191417  53.67069   1.974496   91.47296  
3394       9.061224   72.67786   0.03017723 52.60065   1.806689   85.92082  
3394.4     9.177038   65.17047   0.03299439 51.8719    1.797719   76.89168  
3394.8     9.312956   55.29025   0.03680488 52.29048   1.66687    70.78795  
3395.2     9.303345   50.29197   0.03718564 53.57949   1.629431   65.34137  
3395.6     9.163433   47.45149   0.03520954 54.72108   1.619955   61.88839  
3396       9.183796   47.41132   0.03425968 54.86932   1.633957   64.15643  
3396.4     9.183996   52.92796   0.03773631 54.92287   1.810412   67.13998  
3396.8     9.212631   56.69243   0.04587909 53.44146   1.844789   72.39598  
3397.2     9.18049    60.75621   0.04526353 51.95288   1.985922   77.51274  
3397.6     9.044762   66.10641   0.05150367 50.57025   2.060618   81.28412  
3398       8.988897   69.073     0.05229539 50.00005   2.188516   84.15326  
3398.4     8.913206   71.6412    0.0513174  48.98252   2.213507   86.0392   
3398.8     8.824883   72.13094   0.05333333 48.26274   2.226358   86.85951  
3399.2     8.828217   71.84885   0.05135734 46.79849   2.235346   85.18532  
3399.6     8.885517   70.33627   0.04439449 46.1499    2.249416   82.258    
3400       8.905939   67.63478   0.04241527 45.14203   2.262542   76.95345  
3400.4     8.966198   60.12484   0.04243294 45.53621   2.272142   74.76097  
3400.8     8.940008   54.71402   0.04185782 46.49423   2.275966   73.92091  
3401.2     8.906605   59.23704   0.0428571  47.12719   2.271582   74.81186  
