~Version
 VERS              .         3.0                           : CWLS LOG ASCII STANDARD - VERSION 3.0
 WRAP              .         NO                            : ONE LINE PER DEPTH STEP
 DLM               .         SPACE                         : DELIMITING CHARACTER(SPACE TAB OR COMMA)
~Well Information
#_______________________________________________________________________________
#
#PARAMETER_NAME    .UNIT     VALUE                         : DESCRIPTION
#_______________________________________________________________________________
STRT               .ft       3360                          : First reference value
STOP               .ft       6444                          : Last reference value
STEP               .ft       0.4                           : Step increment
NULL               .         -9999                         : Missing value
COMP               .                                       : Company
WELL               .         EGBM-009                      : Well name
FLD                .         WILDCAT                       : Field
LOC                .                                       : Location
SRVC               .                                       : Service Company
CTRY               .                                       : Country
DATE               .                                       : Service Date
X                  .                                       : X or East-West coordinate
Y                  .                                       : Y or North South coordinate
GDAT               .                                       : Geodetic Datum
HZCS               .                                       : Horizontal Co-ordinate System
CREATION-TIME      .         2000/8/10 0_0                 : 
FIELD-NAME         .         WILDCAT                       : 
FILE-ID            .         SHELL.001                     : 
FILE-NUMBER        .         1                             : 
FILE-SET-NAME      .                                       : 
FILE-SET-NUMBER    .         0                             : 
FILE-TYPE          .         SHELL                         : 
NAME-SPACE-NAME    .         LIS                           : 
NAME-SPACE-VERSION .         0                             : 
PRODUCER-CODE      .         440                           : 
PRODUCER-NAME      .         Schlumberger                  : 
PRODUCT            .                                       : 
PROGRAMS           .                                       : 
VERSION            .         REV 2.00                      : 
WELL-NAME          .                                       : 
~Parameter Information Block
#_______________________________________________________________________________
#
#PARAMETER_NAME    .UNIT     VALUE                         : DESCRIPTION
#_______________________________________________________________________________
SET                .         SHELL_001_1                   : 
ACQUISITION-PRODUCT .         DLIS/U                        : 
CREATION-TIME      .         2026/5/13 12_40               : 
DLIS_FRAME_DIRECTION .         INCREASING                    : 
DLIS_FRAME_NAME    .         1                             : 
DLIS_FRAME_SPACING .0.1_in   48                            : 
FIELD-NAME         .         WILDCAT                       : 
FILE-ID            .         SHELL.001                     : 
FILE-NUMBER        .         1                             : 
FILE-SET-NAME      .         LIS-TO-DLIS-CONVERSION        : 
FILE-SET-NUMBER    .         12959                         : 
FILE-TYPE          .         SHELL                         : 
INDEX-TYPE         .         BOREHOLE-DEPTH                : 
NAME-SPACE-NAME    .                                       : 
NAME-SPACE-VERSION .         0                             : 
OriginalDatasetName .         1                             : 
PRODUCER-CODE      .         440                           : 
PRODUCER-NAME      .         Schlumberger                  : 
PRODUCT            .         DLIS/U                        : 
PROGRAMS           .         LIS-TO-DLIS                   : 
TLFamily_CALF      .         Caliper                       : 
TLFamily_CGR       .         Gamma Ray                     : 
TLFamily_DEPT      .         Measured Depth                : 
TLFamily_DRHO      .         Bulk Density Correction       : 
TLFamily_NPOR      .         Neutron Porosity              : 
TLFamily_RHOB      .         Bulk Density                  : 
TLFamily_SGR       .         Gamma Ray                     : 
VERSION            .         0.1                           : 
WELL-NAME          .                                       : 
~Curve Information
#_______________________________________________________________________________
#
#LOGNAME           .UNIT     LOG_ID                        : DESCRIPTION
#_______________________________________________________________________________
DEPT               .ft                                     :  {F}
CALF               .in                                     :  {F}
CGR                .gAPI                                   :  {F}
DRHO               .g/cm3                                  :  {F}
NPOR               .                                       :  {F}
RHOB               .g/cm3                                  :  {F}
SGR                .gAPI                                   :  {F}
~Ascii
# ...
4358.4     15.43524   21.9927    -0.0001275511 32.08913   2.129471   25.5957   
4358.8     15.89285   22.28917   -0.001142342 33.22929   2.130423   26.19238  
4359.2     16.08455   23.18612   -0.0001634413 34.79993   2.127593   26.48881  
4359.6     16.08431   22.14358   -0.0009882506 35.75006   2.122756   25.88452  
4360       16.10408   21.20142   -0.0001993488 36.0267    2.119925   25.58047  
4360.4     16.10384   20.17237   0.0007794639 36.66108   2.117098   25.27642  
4360.8     16.1036    20.16862   0.004748688 37.62486   2.113377   24.43721  
4361.2     16.04331   19.64175   0.01523101 38.92927   2.11236    23.58381  
4361.6     16.16545   19.26039   0.01667409 40.11366   2.113343   23.16339  
4362       16.16292   19.6595    0.0262955  40.8706    2.115324   23.99996  
4362.4     16.20271   19.85334   0.03535873 41.40718   2.119562   24.0551   
4362.8     16.20247   19.54935   0.04054201 42.23314   2.122323   24.05269  
4363.2     16.20223   19.84581   0.0644443  44.14916   2.121431   23.44846  
4363.6     16.20198   19.84205   0.07639343 45.17352   2.108109   23.44467  
4364       16.20174   19.43299   0.1112434  47.51327   2.083259   24.34153  
4364.4     16.2015    18.68603   0.1341609  46.25015   2.064402   26.05266  
4364.8     16.20126   21.29901   0.1356474  45.48836   2.051689   29.97586  
4365.2     16.20102   24.931     0.1328307  44.22175   2.063065   34.53825  
4365.6     16.24756   33.63362   0.1111765  43.79954   2.088812   47.51057  
4366       16.16045   42.03508   0.09097803 43.86047   2.164113   52.3849   
4366.4     15.24652   58.23972   0.08800048 43.87217   2.219068   69.95067  
4366.8     12.84441   79.24962   0.07703136 43.98233   2.280369   100.2638  
4367.2     11.635     86.45328   0.07367906 44.04337   2.303105   107.0634  
4367.6     11.48471   98.09175   0.06285438 45.18346   2.30193    113.6582  
4368       11.36263   99.95197   0.05824891 47.40828   2.28777    117.6405  
4368.4     11.38236   99.50331   0.05224603 50.92239   2.275404   117.3586  
4368.8     11.34357   97.84184   0.05123108 53.7948    2.268925   116.7536  
4369.2     11.29178   96.8864    0.05121268 54.51743   2.27178    115.686   
4369.6     11.2014    97.77962   0.05119436 54.03149   2.274541   115.9445  
4370       11.04189   96.69554   0.0513892  53.32534   2.274868   116.44    
4370.4     10.93405   95.42287   0.05812991 53.5366    2.269291   117.636   
4370.8     10.77614   93.63034   0.0581184  54.70609   2.256238   115.6839  
4371.2     10.69999   87.63602   0.05112094 56.11157   2.241723   111.1825  
4371.6     10.69678   83.37703   0.05110264 57.10699   2.231031   106.0197  
4372       10.81942   78.18929   0.05126967 57.8282    2.214412   98.53308  
4372.4     11.61972   72.74074   0.06202778 57.64111   2.191993   90.59821  
4372.8     13.18077   65.91891   0.08417957 56.94696   2.155835   78.58752  
4373.2     13.65173   59.67439   0.09288558 56.08394   1.982933   71.98152  
4373.6     15.45454   41.52515   0.09087718 55.2203    1.812311   60.26942  
4374       16.11561   29.63478   0.07590988 55.13644   1.715358   48.55874  
4374.4     16.11542   25.45898   0.06293595 56.33555   1.63141    38.65061  
4374.8     16.11518   23.14182   0.051698   56.84747   1.540456   35.44418  
4375.2     16.13494   23.03463   0.003100574 57.19774   1.4575     32.54431  
4375.6     16.1347    23.45594   0.001535002 56.15491   1.433202   30.53451  
4376       16.17448   24.16932   -0.001549389 54.06264   1.432481   30.23052  
4376.4     16.13966   22.42299   0.005916517 47.54272   1.511168   30.22668  
4376.8     16.13398   22.67258   0.04189491 45.77994   1.644283   30.82311  
4377.2     16.10622   24.32013   0.04386508 44.91624   1.773168   32.805    
4377.6     16.0781    27.59851   0.03687844 43.41293   1.86384    34.18974  
4378       15.5529    29.31092   0.02589864 46.54885   1.815618   36.74628  
4378.4     15.47705   29.30708   0.01093709 47.84727   1.775096   37.41057  
4378.8     16.07275   27.29601   -0.0000458 48.73404   1.653863   37.29953  
4379.2     16.14584   24.79753   0.0006406767 48.63012   1.638175   36.80252  
4379.6     16.19232   25.20204   0.004906029 48.19785   1.712085   36.79862  
4380       16.19208   28.99003   0.01946886 48.19904   1.777024   38.21297  
4380.4     16.19184   31.68783   0.03276379 48.83187   1.893019   38.89165  
4380.8     16.19159   31.9851    0.04171586 50.53273   1.924671   41.88889  
4381.2     16.19135   32.58147   0.0496639  52.87232   1.891677   42.1823   
4381.6     16.19316   32.87772   0.05138965 55.04726   1.842441   41.33472  
4382       16.15086   32.32101   0.04962937 55.88296   1.723969   39.87589  
4382.4     16.15061   30.53457   0.05160379 56.20924   1.69096    37.81002  
4382.8     16.19039   28.16688   0.07488947 54.74185   1.704936   36.04778  
4383.2     16.19014   26.55297   0.0906819  53.18417   1.789218   36.76357  
4383.6     16.1899    25.65604   0.09339501 47.56048   1.8706     38.51059  
4384       16.17146   26.58445   0.08441278 46.18246   1.995472   43.13197  
4384.4     16.12929   38.14091   0.05070326 44.28368   2.052411   48.90567  
4384.8     16.07215   42.47793   0.03587849 44.26583   2.077549   54.4918   
4385.2     14.35124   47.73148   0.02457498 44.98612   2.08335    59.79366  
4385.6     12.81059   49.67081   0.01260125 47.26473   2.07967    62.06406  
4386       11.23455   50.93097   0.004609823 48.41208   2.088317   64.30035  
4386.4     11.16093   51.75935   -0.004383382 49.79808   2.10229    66.91153  
4386.8     10.95483   54.73138   -0.00439775 50.74364   2.152197   70.28152  
4387.2     10.80885   56.53096   -0.008386508 50.63121   2.18236    71.83533  
4387.6     10.88852   56.54384   0.00453487 49.8409    2.19515    72.13106  
4388       11.25504   52.31911   0.03839567 48.82777   2.184701   68.56982  
4388.4     11.28195   48.24564   0.04933608 48.34081   2.170751   64.53088  
4388.8     11.1087    45.71105   0.06706411 48.39636   2.166636   61.44893  
4389.2     11.06763   45.70708   0.07541344 48.89703   2.171101   60.10968  
4389.6     11.38736   44.80186   0.085145   49.37179   2.169082   58.00505  
4390       11.27985   42.09811   0.09608769 49.81034   2.108123   55.30289  
4390.4     11.26672   37.08579   0.1020434  50.17392   2.035177   49.21113  
4390.8     12.17766   34.59035   0.1109993  50.45154   1.915263   42.69164  
4391.2     12.74647   27.98453   0.1000137  50.63029   1.793353   36.88356  
4391.6     13.5063    21.87931   0.1017888  51.11103   1.719489   32.89356  
4392       13.88606   19.57517   0.1019683  52.431     1.746447   32.17872  
4392.4     14.02159   20.77159   0.1079324  53.33249   1.820281   31.49856  
4392.8     13.99342   22.9686    0.1250311  53.9155    1.945149   33.06753  
4393.2     13.82524   24.36455   0.1298083  54.23286   1.970108   35.07259  
4393.6     12.44625   26.55452   0.1238086  54.59757   1.970094   37.23756  
4394       12.12439   29.76169   0.1058501  54.47478   1.959261   38.9694   
4394.4     12.40798   32.15381   0.09592658 53.10485   1.95208    41.31169  
4394.8     12.82396   35.81464   0.08789153 51.72015   2.011104   44.48678  
4395.2     13.12368   36.75158   0.08576117 49.56316   2.035079   46.20529  
4395.6     12.72007   38.44301   0.08287379 47.05668   2.064881   48.1011   
4396       12.98388   38.65231   0.07986978 46.63006   2.088882   49.74276  
4396.4     13.38276   40.37138   0.0509643  46.28621   2.095859   51.65916  
4396.8     12.66068   41.19952   0.03955426 46.21307   2.090056   53.03014  
4397.2     12.01874   42.3248    0.03429215 46.01456   2.073482   52.9374   
4397.6     11.82172   42.08464   0.03803678 45.72961   2.055075   51.62409  
4398       11.88373   40.42828   0.03993189 45.61655   2.034146   50.92977  
4398.4     12.01287   38.11446   0.04553089 46.26134   2.012696   50.11697  
4398.8     12.88102   38.47176   0.05184558 46.70699   1.999013   50.68483  
4399.2     13.72051   41.71342   0.0599692  47.35098   1.992337   51.51316  
4399.6     13.56039   45.4164    0.06177141 46.9988    1.98683    52.9345   
