~Version
 VERS              .         3.0                           : CWLS LOG ASCII STANDARD - VERSION 3.0
 WRAP              .         NO                            : ONE LINE PER DEPTH STEP
 DLM               .         SPACE                         : DELIMITING CHARACTER(SPACE TAB OR COMMA)
~Well Information
#_______________________________________________________________________________
#
#PARAMETER_NAME    .UNIT     VALUE                         : DESCRIPTION
#_______________________________________________________________________________
STRT               .ft       3360                          : First reference value
STOP               .ft       6444                          : Last reference value
STEP               .ft       0.4                           : Step increment
NULL               .         -9999                         : Missing value
COMP               .                                       : Company
WELL               .         EGBM-009                      : Well name
FLD                .         WILDCAT                       : Field
LOC                .                                       : Location
SRVC               .                                       : Service Company
CTRY               .                                       : Country
DATE               .                                       : Service Date
X                  .                                       : X or East-West coordinate
Y                  .                                       : Y or North South coordinate
GDAT               .                                       : Geodetic Datum
HZCS               .                                       : Horizontal Co-ordinate System
CREATION-TIME      .         2000/8/10 0_0                 : 
FIELD-NAME         .         WILDCAT                       : 
FILE-ID            .         SHELL.001                     : 
FILE-NUMBER        .         1                             : 
FILE-SET-NAME      .                                       : 
FILE-SET-NUMBER    .         0                             : 
FILE-TYPE          .         SHELL                         : 
NAME-SPACE-NAME    .         LIS                           : 
NAME-SPACE-VERSION .         0                             : 
PRODUCER-CODE      .         440                           : 
PRODUCER-NAME      .         Schlumberger                  : 
PRODUCT            .                                       : 
PROGRAMS           .                                       : 
VERSION            .         REV 2.00                      : 
WELL-NAME          .                                       : 
~Parameter Information Block
#_______________________________________________________________________________
#
#PARAMETER_NAME    .UNIT     VALUE                         : DESCRIPTION
#_______________________________________________________________________________
SET                .         SHELL_001_1                   : 
ACQUISITION-PRODUCT .         DLIS/U                        : 
CREATION-TIME      .         2026/5/13 12_40               : 
DLIS_FRAME_DIRECTION .         INCREASING                    : 
DLIS_FRAME_NAME    .         1                             : 
DLIS_FRAME_SPACING .0.1_in   48                            : 
FIELD-NAME         .         WILDCAT                       : 
FILE-ID            .         SHELL.001                     : 
FILE-NUMBER        .         1                             : 
FILE-SET-NAME      .         LIS-TO-DLIS-CONVERSION        : 
FILE-SET-NUMBER    .         12959                         : 
FILE-TYPE          .         SHELL                         : 
INDEX-TYPE         .         BOREHOLE-DEPTH                : 
NAME-SPACE-NAME    .                                       : 
NAME-SPACE-VERSION .         0                             : 
OriginalDatasetName .         1                             : 
PRODUCER-CODE      .         440                           : 
PRODUCER-NAME      .         Schlumberger                  : 
PRODUCT            .         DLIS/U                        : 
PROGRAMS           .         LIS-TO-DLIS                   : 
TLFamily_CALF      .         Caliper                       : 
TLFamily_CGR       .         Gamma Ray                     : 
TLFamily_DEPT      .         Measured Depth                : 
TLFamily_DRHO      .         Bulk Density Correction       : 
TLFamily_NPOR      .         Neutron Porosity              : 
TLFamily_RHOB      .         Bulk Density                  : 
TLFamily_SGR       .         Gamma Ray                     : 
VERSION            .         0.1                           : 
WELL-NAME          .                                       : 
~Curve Information
#_______________________________________________________________________________
#
#LOGNAME           .UNIT     LOG_ID                        : DESCRIPTION
#_______________________________________________________________________________
DEPT               .ft                                     :  {F}
CALF               .in                                     :  {F}
CGR                .gAPI                                   :  {F}
DRHO               .g/cm3                                  :  {F}
NPOR               .                                       :  {F}
RHOB               .g/cm3                                  :  {F}
SGR                .gAPI                                   :  {F}
~Ascii
# ...
5980       11.28895   30.93815   0.1392215  45.3045    2.046045   44.8065   
5980.4     11.46      31.2       0.08632722 44.83647   2.02649    41.97592  
5980.8     11.71297   32.1       0.07035917 44.06293   2.026845   40.56861  
5981.2     11.78      31.5       0.07035917 43.91718   2.033606   38.62437  
5981.6     11.74      29.98829   0.08694358 44.47038   2.036763   37.2      
5982       11.7       30.56272   0.1042913  45.03564   2.027878   37.1686   
5982.4     11.7       29.7       0.09836988 44.5444    2.00751    36.16455  
5982.8     11.76      30.21919   0.08764051 43.39729   1.989626   36.60483  
5983.2     11.59295   31.8       0.07335326 41.87134   1.985814   37.28477  
5983.6     11.36131   32.02094   0.06037921 41.36563   1.999      38.1      
5984       11.12928   31.5       0.05938116 41.36563   2.018023   38.64797  
5984.4     10.9       31.8       0.05942668 41.47006   2.036267   39.89999  
5984.8     10.57214   34.2462    0.05439112 41.6106    2.047572   44.59636  
5985.2     10.58      37.8       0.03642711 42.08491   2.06104    49.49999  
5985.6     10.43765   47.39999   0.0367703  43.28371   2.088048   60.3      
5986       10.2212    57.3       0.03942111 44.60239   2.109009   71.09999  
5986.4     10.13512   65.0119    0.04940119 47.71928   2.117881   86.69998  
5986.8     9.77639    73.2       0.06310549 50.23676   2.103092   95.21167  
5987.2     9.516508   80.20474   0.07577643 51.54757   2.0867     102.9133  
5987.6     9.287241   82.79999   0.08632722 51.9417    2.092806   108.0786  
5988       9.190235   86.21739   0.09431124 51.37952   2.10969    114.9481  
5988.4     9.1        94.72169   0.1102795  49.81718   2.186613   121.0697  
5988.8     9.08       97.79999   0.1129839  47.10558   2.216829   128.595   
5989.2     9.039999   102.6045   0.113766   43.16383   2.25122    133.743   
5989.6     9.039999   104.1      0.1002994  39.86713   2.281408   135.6     
5990       9.08       105.9      0.08712682 39.32767   2.311708   137.2291  
5990.4     9.08       108.4851   0.06836322 37.96242   2.332917   138.6558  
5990.8     9.08       111.8359   0.0464071  36.39061   2.34367    140.3764  
5991.2     9.000757   114        0.03443107 34.89211   2.339043   140.1806  
5991.6     9.039999   111.7512   0.03243512 33.75324   2.329978   138.3     
5992       9.039999   112.8767   0.0355108  34.24179   2.325177   136.8341  
5992.4     9.039999   113.0555   0.03842309 37.76923   2.306798   133.0878  
5992.8     9.039999   109.2129   0.03774963 39.01855   2.28772    129       
5993.2     9.133005   96.89999   0.03496451 39.51447   2.252214   113.7     
5993.6     9.576067   84.29999   0.02418961 38.72234   2.217994   86.09999  
5994       10.74      62.09999   0.01247504 34.89211   2.196829   75.59999  
5994.4     10.56      54.59609   0.01162177 33.1551    2.183868   70.49998  
5994.8     10.32      51.32321   0.009480953 31.43565   2.177427   65.7      
5995.2     9.587265   50.39999   0.007932069 31.44294   2.171619   64.71904  
5995.6     9.559999   49.8       0.009724921 31.98946   2.166811   62.99999  
5996       9.574318   49.2       0.01846302 32.46687   2.165251   62.09999  
5996.4     9.699444   49.49999   0.01946104 32.85414   2.168031   60.89999  
5996.8     9.779999   48.59999   0.01320572 32.33041   2.175784   61.5      
5997.2     9.719999   47.69999   0.01347297 31.15184   2.177678   61.38887  
5997.6     9.854309   45.89999   0.02145702 30.01638   2.166519   57.81464  
5998       9.959999   40.79999   0.02758515 29.26645   2.152246   52.5      
5998.4     10.82      37.46156   0.04940119 28.8981    2.135707   46.33857  
5998.8     11.1217    34.72453   0.05921312 28.92313   2.12967    42.11891  
5999.2     10.88      30.6       0.0643712  29.00515   2.128671   38.39999  
5999.6     10.70296   29.87783   0.06137723 28.77863   2.13341    37.2      
6000       10.78      28.8       0.03343314 27.21978   2.133667   36.9      
6000.4     10.82765   28.8       0.007485002 26.51675   2.141387   36.6      
6000.8     10.79626   30         0.0004989207 25.51089   2.158152   36.9      
6001.2     10.55793   31.00395   0.0004989207 24.8361    2.182617   38.16414  
6001.6     10.22      33.02219   0.004490942 23.8833    2.191608   39.5563   
6002       9.980469   35.7       0.02439855 23.6089    2.196074   43.51035  
6002.4     10.18      35.2239    0.05039912 28.5984    2.186613   44.4      
6002.8     10.82      33.94706   0.04897746 32.04068   2.163165   43.13071  
6003.2     11.94      32.01727   0.06409106 35.61526   2.148636   40.19672  
6003.6     11.88      30.3       0.07235521 37.16551   2.141658   37.56857  
6004       12.14      30.0213    0.0842905  37.62656   2.146526   35.77811  
6004.4     12.8       28.5       0.08632722 37.3705    2.151059   34.5      
6004.8     13.32745   29.4       0.08932132 35.99361   2.154449   33.89999  
6005.2     13.1701    29.4       0.08732525 34.90326   2.149629   33.24035  
6005.6     12.32      28.75776   0.08433136 34.50988   2.143815   32.395    
6006       11.81951   29.1       0.0833917  34.83288   2.138336   31.8497   
6006.4     11.60376   29.7       0.08159874 36.83395   2.129674   31.5      
6006.8     11.50495   28.5       0.07834321 38.67129   2.114595   31.8      
6007.2     11.38798   28.2       0.07700796 39.14101   2.098248   32.1      
6007.6     11.16      28.8       0.08333334 38.30869   2.095783   32.1      
6008       11.05294   28.36324   0.09706019 37.52946   2.108054   32.39999  
6008.4     10.98      28.2       0.09930137 36.32319   2.134624   32.39999  
6008.8     11.07854   27.74485   0.09830335 35.00678   2.147888   31.8      
6009.2     11.3       25.99064   0.08295038 33.45173   2.147614   31.2      
6009.6     11.32409   24.59999   0.07424739 32.33117   2.139791   31.2      
6010       11.16928   24.59999   0.07225598 31.00327   2.136663   31.8      
6010.4     10.8       24.59999   0.07504697 30.29382   2.138143   32.26161  
6010.8     10.6149    26.2752    0.08083184 29.85714   2.140929   33.09139  
6011.2     10.48028   27         0.07934123 29.93457   2.13749    34.2      
6011.6     10.36322   27.89999   0.06037921 30.1701    2.125806   34.8      
6012       10.33295   27.6       0.03577925 30.51258   2.116456   35.09999  
6012.4     10.30904   27.89999   0.03275495 30.59212   2.115262   35.7      
6012.8     10.36444   28.5       0.02298105 29.97709   2.127652   35.7      
6013.2     10.4783    29.1       0.02245504 28.90284   2.144856   35.09999  
6013.6     10.50523   29.09616   0.0284431  28.06116   2.155468   35.39999  
6014       10.37191   28.56036   0.03873828 28.29869   2.154016   34.5      
6014.4     10.4933    27.22071   0.0753493  29.49749   2.144718   33.77435  
6014.8     10.72028   25.79999   0.09930137 31.69737   2.128329   32.32164  
6015.2     11.0068    24.3       0.1342316  34.83216   2.103777   31.2      
6015.6     11.23413   22.88897   0.1422156  35.75993   2.083269   30.02343  
6016       11.88      24.26878   0.141376   35.81699   2.07278    29.7      
6016.4     12.1205    24.50497   0.1296021  34.35264   2.085517   30        
6016.8     12.23514   26.34965   0.112489   32.00292   2.104711   31.27744  
6017.2     11.98      27.3       0.09830335 30.11985   2.135138   32.4045   
6017.6     11.64      27.58918   0.08333334 28.83816   2.159743   33.53028  
6018       11.18      28.8       0.08333334 28.41858   2.177733   33.89999  
6018.4     11.16104   30.43639   0.1148854  28.33543   2.20412    34.2      
6018.8     11.14      30.83006   0.1272454  28.47852   2.229381   34.23884  
6019.2     11.16      30.58835   0.1210496  28.34581   2.245948   34.77139  
6019.6     11.24      30.3       0.1082834  28.05901   2.251068   34.89211  
6020       11.21811   30         0.06337318 28.01126   2.240952   35.39999  
6020.4     11.18      30.08674   0.05039912 27.97474   2.226038   35.7      
6020.8     11.10525   30.40807   0.03742516 28.22805   2.209414   35.38341  
6021.2     11.08      27.89999   0.04241508 29.07792   2.194798   34.5      
