~Version
 VERS              .         3.0                           : CWLS LOG ASCII STANDARD - VERSION 3.0
 WRAP              .         NO                            : ONE LINE PER DEPTH STEP
 DLM               .         SPACE                         : DELIMITING CHARACTER(SPACE TAB OR COMMA)
~Well Information
#_______________________________________________________________________________
#
#PARAMETER_NAME    .UNIT     VALUE                         : DESCRIPTION
#_______________________________________________________________________________
STRT               .ft       3360                          : First reference value
STOP               .ft       6444                          : Last reference value
STEP               .ft       0.4                           : Step increment
NULL               .         -9999                         : Missing value
COMP               .                                       : Company
WELL               .         EGBM-009                      : Well name
FLD                .         WILDCAT                       : Field
LOC                .                                       : Location
SRVC               .                                       : Service Company
CTRY               .                                       : Country
DATE               .                                       : Service Date
X                  .                                       : X or East-West coordinate
Y                  .                                       : Y or North South coordinate
GDAT               .                                       : Geodetic Datum
HZCS               .                                       : Horizontal Co-ordinate System
CREATION-TIME      .         2000/8/10 0_0                 : 
FIELD-NAME         .         WILDCAT                       : 
FILE-ID            .         SHELL.001                     : 
FILE-NUMBER        .         1                             : 
FILE-SET-NAME      .                                       : 
FILE-SET-NUMBER    .         0                             : 
FILE-TYPE          .         SHELL                         : 
NAME-SPACE-NAME    .         LIS                           : 
NAME-SPACE-VERSION .         0                             : 
PRODUCER-CODE      .         440                           : 
PRODUCER-NAME      .         Schlumberger                  : 
PRODUCT            .                                       : 
PROGRAMS           .                                       : 
VERSION            .         REV 2.00                      : 
WELL-NAME          .                                       : 
~Parameter Information Block
#_______________________________________________________________________________
#
#PARAMETER_NAME    .UNIT     VALUE                         : DESCRIPTION
#_______________________________________________________________________________
SET                .         SHELL_001_1                   : 
ACQUISITION-PRODUCT .         DLIS/U                        : 
CREATION-TIME      .         2026/5/13 12_40               : 
DLIS_FRAME_DIRECTION .         INCREASING                    : 
DLIS_FRAME_NAME    .         1                             : 
DLIS_FRAME_SPACING .0.1_in   48                            : 
FIELD-NAME         .         WILDCAT                       : 
FILE-ID            .         SHELL.001                     : 
FILE-NUMBER        .         1                             : 
FILE-SET-NAME      .         LIS-TO-DLIS-CONVERSION        : 
FILE-SET-NUMBER    .         12959                         : 
FILE-TYPE          .         SHELL                         : 
INDEX-TYPE         .         BOREHOLE-DEPTH                : 
NAME-SPACE-NAME    .                                       : 
NAME-SPACE-VERSION .         0                             : 
OriginalDatasetName .         1                             : 
PRODUCER-CODE      .         440                           : 
PRODUCER-NAME      .         Schlumberger                  : 
PRODUCT            .         DLIS/U                        : 
PROGRAMS           .         LIS-TO-DLIS                   : 
TLFamily_CALF      .         Caliper                       : 
TLFamily_CGR       .         Gamma Ray                     : 
TLFamily_DEPT      .         Measured Depth                : 
TLFamily_DRHO      .         Bulk Density Correction       : 
TLFamily_NPOR      .         Neutron Porosity              : 
TLFamily_RHOB      .         Bulk Density                  : 
TLFamily_SGR       .         Gamma Ray                     : 
VERSION            .         0.1                           : 
WELL-NAME          .                                       : 
~Curve Information
#_______________________________________________________________________________
#
#LOGNAME           .UNIT     LOG_ID                        : DESCRIPTION
#_______________________________________________________________________________
DEPT               .ft                                     :  {F}
CALF               .in                                     :  {F}
CGR                .gAPI                                   :  {F}
DRHO               .g/cm3                                  :  {F}
NPOR               .                                       :  {F}
RHOB               .g/cm3                                  :  {F}
SGR                .gAPI                                   :  {F}
~Ascii
# ...
4566.4     9.998962   78.05809   0.04217991 45.55695   2.188549   95.51108  
4566.8     10.05933   61.53915   0.06833634 46.21066   2.105558   88.88608  
4567.2     10.9428    50.72581   0.1118642  46.88806   2.00458    62.43453  
4567.6     11.88308   37.98997   0.1347592  47.56229   1.917583   52.0436   
4568       12.54312   31.19478   0.1447128  48.78285   1.86758    42.01792  
4568.4     12.77756   26.77009   0.1574886  51.05856   1.889702   37.31122  
4568.8     12.73126   25.30436   0.1596097  51.95015   1.925302   34.42108  
4569.2     12.63703   24.5733    0.1665586  51.44172   1.950393   32.65164  
4569.6     12.4111    24.26626   0.1675513  50.29925   1.955473   31.18658  
4570       12.16087   24.56455   0.1809936  48.68405   1.955318   30.56448  
4570.4     12.2219    25.61675   0.1850186  48.48853   1.92171    30.72973  
4570.8     12.50042   26.94806   0.19041    48.7002    1.907614   32.32883  
4571.2     12.21294   32.34601   0.1565257  49.21057   1.908023   36.54796  
4571.6     11.37873   35.94334   0.1017217  49.51114   1.924557   43.23281  
4572       10.41752   47.04289   0.07681143 48.37284   1.945243   52.45005  
4572.4     10.05676   55.74489   0.02898799 45.23753   2.03332    65.05664  
4572.8     10.06903   67.45227   0.009731231 43.57515   2.07829    75.64053  
4573.2     10.09596   77.05431   0.009155327 43.01559   2.174238   86.66273  
4573.6     10.06029   92.96112   0.01200791 43.18606   2.216887   105.2734  
4574       9.97036    105.5691   0.01226149 43.9769    2.241732   113.6765  
4574.4     9.734365   114.0434   0.008988006 44.58467   2.255159   126.5862  
4574.8     9.673885   115.7518   0.004982531 44.86438   2.253837   136.0787  
4575.2     9.628975   117.1786   -0.0000080 44.52621   2.247977   139.9693  
4575.6     9.571802   117.7118   -0.0000240 43.59285   2.239079   141.7433  
4576       9.532475   116.4487   0.002193475 42.84913   2.232225   141.4762  
4576.4     9.497969   113.8719   -0.0000558 41.93923   2.227079   139.6427  
4576.8     9.491585   108.4551   -0.0000718 41.8316    2.231539   135.9692  
4577.2     9.497168   103.2622   0.01118961 42.29238   2.240687   130.6462  
4577.6     9.571936   99.14224   0.01778271 42.83553   2.25501    126.7654  
4578       9.65049    97.06923   0.02234663 43.09486   2.262968   123.8057  
4578.4     9.812979   95.59738   0.03074095 43.0168    2.271376   121.7483  
4578.8     9.970121   96.1924    0.03606198 42.99096   2.273959   121.4214  
4579.2     9.989431   97.08777   0.03469312 43.45518   2.270937   121.8577  
4579.6     9.853477   96.4814    0.02579048 44.27647   2.263202   121.208   
4580       9.701614   96.77611   0.02470117 44.97604   2.253704   120.5045  
4580.4     9.574774   96.18404   0.02568126 45.53889   2.244077   120.7996  
4580.8     9.527388   96.0173    0.02804361 46.5226    2.232405   121.6162  
4581.2     9.506939   99.94238   0.03100727 47.67793   2.219086   123.1749  
4581.6     9.504526   100.7098   0.03757167 48.23532   2.20497    124.8116  
4582       9.466038   101.8543   0.03677989 48.99623   2.192276   126.4514  
4582.4     9.146954   104.8545   0.03297208 49.58559   2.180679   127.7942  
4582.8     8.944506   108.0989   0.03156169 50.00555   2.173876   130.6057  
4583.2     9.044207   110.8398   0.03175433 50.53832   2.172777   132.5677  
4583.6     8.932415   109.3421   0.03451785 50.89007   2.174758   134.2756  
4584       9.003288   110.0585   0.03794148 51.04095   2.178033   135.3478  
4584.4     8.962326   108.8972   0.04145814 50.98194   2.178721   135.3513  
4584.8     8.824032   106.1083   0.04023585 50.98292   2.177702   135.042   
4585.2     8.771183   105.1143   0.03744218 51.19415   2.176684   133.6374  
4585.6     8.880289   105.9617   0.03742626 51.65819   2.180149   131.915   
4586       9.067614   105.2298   0.03641429 51.93961   2.186883   131.3176  
4586.4     9.080811   104.1965   0.03540231 52.96627   2.193614   130.8053  
4586.8     9.044912   105.4348   0.03439033 54.02397   2.199358   131.5311  
4587.2     9.028212   108.7211   0.02788747 54.40833   2.201129   131.5669  
4587.6     9.027065   110.4893   0.02240631 54.10936   2.20357    132.1218  
4588       9.082092   110.7843   0.01853458 53.51248   2.205551   131.8985  
4588.4     9.156912   110.1779   0.01572342 53.21176   2.209301   129.0506  
4588.8     9.21187    107.7668   0.0173412  53.37403   2.214167   125.5783  
4589.2     9.258072   101.4368   0.02632662 54.19064   2.206978   119.0402  
4589.6     9.4266     96.94344   0.03826293 54.59425   2.177475   106.5535  
4590       9.708925   81.60901   0.06115493 54.71523   2.09547    95.4305   
4590.4     10.01822   67.1841    0.06945905 54.87432   1.991463   70.18369  
4590.8     11.92262   50.04814   0.07805574 55.86368   1.808367   59.36151  
4591.2     12.66527   35.96495   0.06152108 56.78625   1.680356   44.63017  
4591.6     14.62457   27.49709   0.05302445 57.2987    1.593348   39.56228  
4592       15.69157   26.88932   0.05111544 56.86478   1.561331   36.48009  
4592.4     15.96601   27.3952    0.05109952 56.01915   1.575771   36.49881  
4592.8     15.50503   28.94428   0.06104881 55.14182   1.618304   38.01782  
4593.2     14.80337   30.87382   0.05971776 54.36318   1.778272   40.03168  
4593.6     14.86801   33.34957   0.05391797 54.48416   1.847903   44.0872   
4594       14.78811   35.6168    0.04228163 54.54514   1.917294   49.42818  
4594.4     14.82234   43.67719   0.03739203 54.05743   2.003274   58.87209  
4594.8     14.9223    50.5851    0.0274675  53.10364   2.116237   68.61639  
4595.2     13.21881   69.51035   0.01911549 50.83987   2.170218   81.23219  
4595.6     11.23483   77.05577   0.01511601 49.39661   2.2397     90.2959   
4596       10.66138   81.29199   0.008996883 46.5115    2.275784   97.03259  
4596.4     10.63254   84.82219   0.009107485 44.22942   2.29381    101.1253  
4596.8     10.61248   85.05779   0.01008758 42.6155    2.302144   99.66068  
4597.2     10.57213   80.75137   0.01405361 41.20536   2.302126   93.84645  
4597.6     10.57159   74.88605   0.01538106 40.08302   2.291108   86.30719  
4598       10.59608   66.16223   0.02588272 38.05133   2.260981   70.37263  
4598.4     10.73027   52.07043   0.04189643 37.51121   2.233788   58.64037  
4598.8     10.86456   48.74709   0.07276216 37.1836    2.1963     48.74709  
4599.2     11.83227   36.0855    0.1119729  37.85738   2.165842   41.10114  
4599.6     13.01447   30.66959   0.114907   38.839     2.140965   33.81207  
4600       13.78214   25.27328   0.1125483  40.40007   2.128006   30.49471  
4600.4     13.85549   21.35793   0.08609264 42.17086   2.055991   27.4426   
4600.8     13.95545   19.89643   0.06372678 45.38112   2.001985   25.06868  
4601.2     14.64861   19.04325   0.04450161 48.44191   1.860975   23.73977  
4601.6     14.92663   18.62628   0.03662997 50.51718   1.788967   23.73717  
4602       15.1972    19.82755   0.03184441 50.18353   1.728943   24.93137  
4602.4     14.53563   23.67992   0.02905134 49.80968   1.778929   29.79392  
4602.8     13.81411   26.31586   0.02982471 47.05744   1.802917   33.61913  
4603.2     12.35104   30.03901   0.02744311 44.4239    1.986889   37.18248  
4603.6     11.65872   31.53808   0.02998798 42.74449   2.022923   39.65489  
4604       11.58984   32.43924   0.04175305 41.15416   2.046124   42.0095   
4604.4     11.9897    34.05681   0.05347104 41.24834   2.053901   44.73862  
4604.8     12.23492   36.42445   0.06093666 41.90076   2.066868   46.96294  
4605.2     12.49719   38.3303    0.06264554 42.6012    2.081589   49.19     
4605.6     12.4182    37.53731   0.04471117 43.08532   2.091946   51.09344  
4606       12.22931   38.3792    0.03082699 43.22741   2.098515   51.91997  
4606.4     11.98874   40.95348   0.02623766 43.21395   2.103441   52.56001  
4606.8     12.50682   43.12428   0.02376899 43.10729   2.108194   52.55719  
4607.2     12.85843   44.13875   0.02077302 42.53957   2.108695   52.48599  
4607.6     13.43063   43.41807   0.009808807 41.63549   2.106879   51.95042  
