~Version
 VERS              .         3.0                           : CWLS LOG ASCII STANDARD - VERSION 3.0
 WRAP              .         NO                            : ONE LINE PER DEPTH STEP
 DLM               .         SPACE                         : DELIMITING CHARACTER(SPACE TAB OR COMMA)
~Well Information
#_______________________________________________________________________________
#
#PARAMETER_NAME    .UNIT     VALUE                         : DESCRIPTION
#_______________________________________________________________________________
STRT               .ft       3360                          : First reference value
STOP               .ft       6444                          : Last reference value
STEP               .ft       0.4                           : Step increment
NULL               .         -9999                         : Missing value
COMP               .                                       : Company
WELL               .         EGBM-009                      : Well name
FLD                .         WILDCAT                       : Field
LOC                .                                       : Location
SRVC               .                                       : Service Company
CTRY               .                                       : Country
DATE               .                                       : Service Date
X                  .                                       : X or East-West coordinate
Y                  .                                       : Y or North South coordinate
GDAT               .                                       : Geodetic Datum
HZCS               .                                       : Horizontal Co-ordinate System
CREATION-TIME      .         2000/8/10 0_0                 : 
FIELD-NAME         .         WILDCAT                       : 
FILE-ID            .         SHELL.001                     : 
FILE-NUMBER        .         1                             : 
FILE-SET-NAME      .                                       : 
FILE-SET-NUMBER    .         0                             : 
FILE-TYPE          .         SHELL                         : 
NAME-SPACE-NAME    .         LIS                           : 
NAME-SPACE-VERSION .         0                             : 
PRODUCER-CODE      .         440                           : 
PRODUCER-NAME      .         Schlumberger                  : 
PRODUCT            .                                       : 
PROGRAMS           .                                       : 
VERSION            .         REV 2.00                      : 
WELL-NAME          .                                       : 
~Parameter Information Block
#_______________________________________________________________________________
#
#PARAMETER_NAME    .UNIT     VALUE                         : DESCRIPTION
#_______________________________________________________________________________
SET                .         SHELL_001_1                   : 
ACQUISITION-PRODUCT .         DLIS/U                        : 
CREATION-TIME      .         2026/5/13 12_40               : 
DLIS_FRAME_DIRECTION .         INCREASING                    : 
DLIS_FRAME_NAME    .         1                             : 
DLIS_FRAME_SPACING .0.1_in   48                            : 
FIELD-NAME         .         WILDCAT                       : 
FILE-ID            .         SHELL.001                     : 
FILE-NUMBER        .         1                             : 
FILE-SET-NAME      .         LIS-TO-DLIS-CONVERSION        : 
FILE-SET-NUMBER    .         12959                         : 
FILE-TYPE          .         SHELL                         : 
INDEX-TYPE         .         BOREHOLE-DEPTH                : 
NAME-SPACE-NAME    .                                       : 
NAME-SPACE-VERSION .         0                             : 
OriginalDatasetName .         1                             : 
PRODUCER-CODE      .         440                           : 
PRODUCER-NAME      .         Schlumberger                  : 
PRODUCT            .         DLIS/U                        : 
PROGRAMS           .         LIS-TO-DLIS                   : 
TLFamily_CALF      .         Caliper                       : 
TLFamily_CGR       .         Gamma Ray                     : 
TLFamily_DEPT      .         Measured Depth                : 
TLFamily_DRHO      .         Bulk Density Correction       : 
TLFamily_NPOR      .         Neutron Porosity              : 
TLFamily_RHOB      .         Bulk Density                  : 
TLFamily_SGR       .         Gamma Ray                     : 
VERSION            .         0.1                           : 
WELL-NAME          .                                       : 
~Curve Information
#_______________________________________________________________________________
#
#LOGNAME           .UNIT     LOG_ID                        : DESCRIPTION
#_______________________________________________________________________________
DEPT               .ft                                     :  {F}
CALF               .in                                     :  {F}
CGR                .gAPI                                   :  {F}
DRHO               .g/cm3                                  :  {F}
NPOR               .                                       :  {F}
RHOB               .g/cm3                                  :  {F}
SGR                .gAPI                                   :  {F}
~Ascii
# ...
5398.4     8.878687   43.18032   0.01555426 12.98      2.542      57.87026  
5398.8     8.775307   45.39078   0.01394436 17.06001   2.474      65.31367  
5399.2     8.850887   56.27469   0.01394436 23.72001   2.385      75.86441  
5399.6     8.946333   66.13226   0.01414706 27.02      2.327      86.87375  
5400       9.006014   80.26053   0.01992029 30.91999   2.267395   99.79961  
5400.4     9.12628    87.12859   0.03586288 32.44907   2.256585   106.6409  
5400.8     9.146345   91.90253   0.0448325  34.86342   2.251789   112.1758  
5401.2     9.14637    96.54037   0.05081592 37.17342   2.242902   116.1933  
5401.6     9.126354   97.59097   0.04667036 39.30904   2.226423   117.5388  
5402       9.14642    96.79744   0.03700616 40.69878   2.214643   118.141   
5402.4     9.184605   96.45129   0.0368902  40.90389   2.21298    118.1419  
5402.8     9.266718   94.69753   0.04097274 40.95109   2.229533   117.7295  
5403.2     9.444242   95.52362   0.04785964 41.299     2.254604   117.5925  
5403.6     9.574137   95.62157   0.05085424 42.1701    2.273992   117.8441  
5404       9.517906   94.89262   0.04220048 42.91902   2.28004    117.6223  
5404.4     9.427158   93.4418    0.04019413 43.4869    2.275606   117.08    
5404.8     9.527395   93.48442   0.03542846 44.55721   2.267016   117.9398  
5405.2     9.607592   96.21236   0.04386612 45.19694   2.260374   119.3877  
5405.6     9.575504   98.72849   0.04490918 47.35659   2.25742    122.2195  
5406       9.539457   102.5175   0.05077086 47.13035   2.25606    125.3519  
5406.4     9.483154   104.0213   0.05089889 46.99615   2.253064   128.1844  
5406.8     9.347151   104.1364   0.04891293 46.99591   2.251068   130.156   
5407.2     9.307091   102.0811   0.05091162 47.1229    2.251072   130.9876  
5407.6     9.347204   101.8432   0.05195995 47.64682   2.251076   132.1192  
5408       9.321306   100.3413   0.05291563 48.14861   2.250709   130.2226  
5408.4     9.166866   97.44249   0.05093084 48.77529   2.247752   127.3402  
5408.8     9.209133   93.2028    0.04453825 50.17791   2.242115   122.9339  
5409.2     9.227039   90.19702   0.03799304 51.57056   2.240092   119.7021  
5409.6     9.517805   88.09309   0.03799929 51.79424   2.242639   117.3902  
5410       9.56785    91.12091   0.04737344 50.89394   2.247724   117.2579  
5410.4     9.566669   92.903     0.04996434 49.92944   2.252192   117.5595  
5410.8     9.567907   93.67447   0.06093142 49.25629   2.252108   117.2149  
5411.2     9.628069   95.46768   0.06709252 49.46767   2.246764   116.9601  
5411.6     9.668188   96.89613   0.07190301 49.87304   2.242643   116.961   
5412       9.624332   95.56047   0.07987967 50.70362   2.24012    115.5913  
5412.4     9.608112   96.38913   0.07789363 50.59345   2.238124   115.4595  
5412.8     9.588095   97.60403   0.07656175 49.97778   2.238128   115.4605  
5413.2     9.588123   99.22464   0.072788   49.51228   2.238132   115.7123  
5413.6     9.588154   97.96967   0.07193574 50.0186    2.239553   116.2713  
5414       9.585234   98.01299   0.07365532 50.82701   2.245501   116.5069  
5414.4     9.568165   98.01921   0.07892306 51.33861   2.25403    116.5887  
5414.8     9.548147   97.59045   0.08061695 51.03117   2.261852   116.3505  
5415.2     9.508083   93.98589   0.07883951 50.23753   2.264672   115.7667  
5415.6     9.488066   92.31343   0.07606564 49.72427   2.261605   114.6631  
5416       9.505781   92.0327    0.07328799 49.39033   2.251878   113.9768  
5416.4     9.468075   92.6156    0.06899251 49.69016   2.242427   113.6646  
5416.8     9.468102   92.50516   0.06899902 50.18729   2.233446   114.2669  
5417.2     9.46813    94.8291    0.070002   50.7588    2.227172   114.8692  
5417.6     9.453915   96.82773   0.06901209 50.94943   2.227489   115.1709  
5418       9.489515   96.79199   0.06539455 50.86008   2.232267   115.1718  
5418.4     9.508308   100.3088   0.06304696 50.55829   2.23704    115.2255  
5418.8     9.515762   103.1027   0.06205704 50.34872   2.236542   117.2247  
5419.2     9.428173   106.442    0.06106718 50.5778    2.224787   119.0647  
5419.6     9.342489   106.8265   0.06007726 51.10628   2.213904   119.6863  
5420       9.265957   102.9616   0.0606839  51.04288   2.2112     119.6872  
5420.4     9.24782    99.68085   0.06208295 49.98775   2.219739   117.8711  
5420.8     9.261299   96.59264   0.06426528 48.66756   2.233382   116.7236  
5421.2     9.2969     95.03033   0.06309238 46.56736   2.243889   115.1792  
5421.6     9.348143   92.88045   0.04914626 43.22809   2.247216   115.0345  
5422       9.38792    90.52086   0.02555483 43.51597   2.24722    114.3658  
5422.4     9.368246   90.52158   0.01727464 44.64666   2.244529   114.5805  
5422.8     9.399494   91.11481   0.02824187 47.82632   2.242228   115.4339  
5423.2     9.540125   92.39981   0.052165   50.38313   2.237648   115.7853  
5423.6     9.709169   93.23323   0.07907388 52.37057   2.224767   116.3876  
5424       9.7092     93.96875   0.09801424 53.04559   2.20542    115.1857  
5424.4     9.66913    92.44966   0.09304142 52.92536   2.184968   113.0667  
5424.8     9.588959   90.69508   0.08208442 52.27161   2.169282   111.9175  
5425.2     9.524166   90.5955    0.06913619 51.45283   2.160778   111.3772  
5425.6     9.509375   91.12892   0.05818409 50.30152   2.164742   111.1384  
5426       9.580517   89.78253   0.05567582 49.79053   2.172272   110.5975  
5426.4     9.729427   87.52126   0.0604579  49.39176   2.177043   109.7775  
5426.8     9.689356   85.56276   0.06218651 49.54405   2.176701   109.8186  
5427.2     9.606279   82.89865   0.06219305 49.89196   2.169524   109.4785  
5427.6     9.509573   80.90648   0.06184869 51.01984   2.16089    109.1786  
5428       9.433048   80.60457   0.06463626 51.93891   2.15728    109.4077  
5428.4     9.388702   79.45486   0.07141019 52.38296   2.159284   109.7819  
5428.8     9.368679   80.78322   0.07417804 51.93662   2.174309   110.9188  
5429.2     9.388756   82.20972   0.07798797 51.0407    2.198787   113.0978  
5429.6     9.427698   86.0374    0.07856914 49.76228   2.230423   114.9709  
5430       9.448967   88.73068   0.07400542 48.80558   2.246432   115.8011  
5430.4     9.469048   88.43063   0.06703441 47.98487   2.256548   116.3378  
5430.8     9.42897    89.50795   0.05128977 47.90657   2.246106   116.1037  
5431.2     9.388893   92.04182   0.04332174 48.47752   2.227108   117.007   
5431.6     9.426569   94.46275   0.02638512 49.88361   2.202652   117.943   
5432       9.509264   96.69305   0.008451557 50.8808    2.185533   119.0727  
5432.4     9.520947   96.5506    0.007613697 51.78056   2.175904   119.717   
5432.8     9.424225   95.65405   0.01045703 51.38418   2.184678   120.8568  
5433.2     9.371187   95.09285   0.0224232  50.66687   2.202599   122.5078  
5433.6     9.594793   93.85077   0.03544185 49.67956   2.219722   125.0472  
5434       9.759611   95.3175    0.04934433 49.16821   2.230427   127.5868  
5434.4     9.785091   97.51276   0.05832279 48.65749   2.234344   129.741   
5434.8     9.689947   100.8658   0.05742934 47.18528   2.236349   131.7552  
5435.2     9.689978   102.5774   0.05733902 46.43888   2.269352   133.0183  
5435.6     9.690008   101.5023   0.05634871 43.56924   2.298357   136.5707  
5436       9.660898   106.0232   0.04769932 43.32727   2.344078   140.2355  
5436.4     9.609848   111.3683   0.03642685 38.99812   2.365205   144.6943  
5436.8     9.609877   123.3376   0.01502112 35.39781   2.389412   150.3008  
5437.2     9.532328   132.4402   0.0005566478 31.9776    2.401625   156.4513  
5437.6     9.339714   136.4059   -0.008408714 28.32418   2.408392   160.9336  
5438       9.161013   136.6844   -0.008204544 26.57713   2.40878    162.9426  
5438.4     9.108604   133.2691   0.001570917 27.63729   2.397879   161.4316  
5438.8     9.214994   127.2528   0.02649683 31.22933   2.370389   152.5228  
5439.2     9.366884   119.1313   0.07121156 35.0965    2.340392   140.953   
5439.6     9.396448   106.7982   0.1102396  39.17622   2.267395   123.9461  
