~Version
 VERS              .         3.0                           : CWLS LOG ASCII STANDARD - VERSION 3.0
 WRAP              .         NO                            : ONE LINE PER DEPTH STEP
 DLM               .         SPACE                         : DELIMITING CHARACTER(SPACE TAB OR COMMA)
~Well Information
#_______________________________________________________________________________
#
#PARAMETER_NAME    .UNIT     VALUE                         : DESCRIPTION
#_______________________________________________________________________________
STRT               .ft       3360                          : First reference value
STOP               .ft       6444                          : Last reference value
STEP               .ft       0.4                           : Step increment
NULL               .         -9999                         : Missing value
COMP               .                                       : Company
WELL               .         EGBM-009                      : Well name
FLD                .         WILDCAT                       : Field
LOC                .                                       : Location
SRVC               .                                       : Service Company
CTRY               .                                       : Country
DATE               .                                       : Service Date
X                  .                                       : X or East-West coordinate
Y                  .                                       : Y or North South coordinate
GDAT               .                                       : Geodetic Datum
HZCS               .                                       : Horizontal Co-ordinate System
CREATION-TIME      .         2000/8/10 0_0                 : 
FIELD-NAME         .         WILDCAT                       : 
FILE-ID            .         SHELL.001                     : 
FILE-NUMBER        .         1                             : 
FILE-SET-NAME      .                                       : 
FILE-SET-NUMBER    .         0                             : 
FILE-TYPE          .         SHELL                         : 
NAME-SPACE-NAME    .         LIS                           : 
NAME-SPACE-VERSION .         0                             : 
PRODUCER-CODE      .         440                           : 
PRODUCER-NAME      .         Schlumberger                  : 
PRODUCT            .                                       : 
PROGRAMS           .                                       : 
VERSION            .         REV 2.00                      : 
WELL-NAME          .                                       : 
~Parameter Information Block
#_______________________________________________________________________________
#
#PARAMETER_NAME    .UNIT     VALUE                         : DESCRIPTION
#_______________________________________________________________________________
SET                .         SHELL_001_1                   : 
ACQUISITION-PRODUCT .         DLIS/U                        : 
CREATION-TIME      .         2026/5/13 12_40               : 
DLIS_FRAME_DIRECTION .         INCREASING                    : 
DLIS_FRAME_NAME    .         1                             : 
DLIS_FRAME_SPACING .0.1_in   48                            : 
FIELD-NAME         .         WILDCAT                       : 
FILE-ID            .         SHELL.001                     : 
FILE-NUMBER        .         1                             : 
FILE-SET-NAME      .         LIS-TO-DLIS-CONVERSION        : 
FILE-SET-NUMBER    .         12959                         : 
FILE-TYPE          .         SHELL                         : 
INDEX-TYPE         .         BOREHOLE-DEPTH                : 
NAME-SPACE-NAME    .                                       : 
NAME-SPACE-VERSION .         0                             : 
OriginalDatasetName .         1                             : 
PRODUCER-CODE      .         440                           : 
PRODUCER-NAME      .         Schlumberger                  : 
PRODUCT            .         DLIS/U                        : 
PROGRAMS           .         LIS-TO-DLIS                   : 
TLFamily_CALF      .         Caliper                       : 
TLFamily_CGR       .         Gamma Ray                     : 
TLFamily_DEPT      .         Measured Depth                : 
TLFamily_DRHO      .         Bulk Density Correction       : 
TLFamily_NPOR      .         Neutron Porosity              : 
TLFamily_RHOB      .         Bulk Density                  : 
TLFamily_SGR       .         Gamma Ray                     : 
VERSION            .         0.1                           : 
WELL-NAME          .                                       : 
~Curve Information
#_______________________________________________________________________________
#
#LOGNAME           .UNIT     LOG_ID                        : DESCRIPTION
#_______________________________________________________________________________
DEPT               .ft                                     :  {F}
CALF               .in                                     :  {F}
CGR                .gAPI                                   :  {F}
DRHO               .g/cm3                                  :  {F}
NPOR               .                                       :  {F}
RHOB               .g/cm3                                  :  {F}
SGR                .gAPI                                   :  {F}
~Ascii
# ...
5606       14.01314   21.08434   0.1760368  39.29      1.988327   30.13643  
5606.4     12.84739   22.2909    0.1651696  39.03821   1.983536   30.12048  
5606.8     12.24498   22.89157   0.1364446  35.78      1.994784   31.91871  
5607.2     11.77344   24.5545    0.07634732 30.44001   2.09       34.27847  
5607.6     11.60787   25.3012    0.04940119 26.18      2.159      36.12672  
5608       11.45228   25.92463   0.04093272 24.38      2.231      41.21962  
5608.4     9.493977   31.92771   0.03742516 26.03015   2.292      45.18073  
5608.8     9.313251   39.45783   0.04840314 29.36      2.397      68.97589  
5609.2     9.11245    75.30119   0.05139714 36.2       2.414572   90.66264  
5609.6     8.952484   90.70432   0.05938116 40.46001   2.432173   107.8313  
5610       8.610441   115.3614   0.06604043 44.84      2.436      143.0723  
5610.4     8.590361   118.3735   0.07035917 46.04      2.427222   145.8011  
5610.8     8.594845   115.6112   0.07561886 44.78384   2.418807   146.4709  
5611.2     8.690248   109.902    0.08333331 42.92607   2.422375   142.8007  
5611.6     8.76572    104.3117   0.09231538 41.81363   2.425506   138.0219  
5612       8.751003   101.7233   0.09231538 41.93106   2.41       134.0141  
5612.4     8.683329   96.49695   0.1018845  42.25845   2.394475   128.9362  
5612.8     8.650602   92.79669   0.1132734  42.75652   2.379642   125.0545  
5613.2     8.630522   91.26505   0.1289145  43.27477   2.371505   122.502   
5613.6     8.759958   92.16867   0.1392215  43.68616   2.370707   121.6867  
5614       9.012049   93.32474   0.1332335  44.40694   2.356349   122.0165  
5614.4     9.196972   94.57831   0.1091747  45.37207   2.330023   122.5904  
5614.8     9.154108   93.72194   0.05938116 46.23602   2.265      120.4129  
5615.2     8.918407   89.32118   0.04074128 46.27261   2.221943   113.726   
5615.6     8.956377   80.17337   0.05091857 45.6516    2.192691   104.1968  
5616       9.614458   76.31279   0.04940119 44.41302   2.183412   95.30608  
5616.4     9.955822   67.46988   0.0464071  43.46993   2.188102   89.75903  
5616.8     10.17671   69.56653   0.02744508 42.43126   2.199272   90.38799  
5617.2     9.287376   76.10265   0.001496941 41.8026    2.206809   97.13602  
5617.6     9.070534   81.9277    0.002494961 41.23107   2.205      102.4671  
5618       9.092369   85.02608   0.02245504 40.28      2.199      100.8081  
5618.4     9.092369   80.70782   0.04540917 39.90807   2.195      93.72623  
5618.8     9.172691   65.66264   0.0643712  39.68723   2.194      76.50603  
5619.2     9.453815   40.66264   0.08932132 39.42075   2.197898   51.80723  
5619.6     10.01606   36.02116   0.113654   39.02      2.202      40.06024  
5620       10.03614   30.32618   0.1275955  37.7       2.203471   35.74778  
5620.4     9.933008   24.45248   0.1224725  34.1       2.197441   32.49512  
5620.8     9.751196   24.6988    0.11559    30.14      2.183657   30.16208  
5621.2     9.5646     24.57653   0.08033925 28.45313   2.170167   29.21687  
5621.6     9.548502   24.09639   0.06536922 27.11774   2.161241   28.91566  
5622       9.51193    23.80218   0.04080656 26.18      2.162549   29.26293  
5622.4     9.374889   24.39759   0.04241508 26.24001   2.17523    29.21687  
5622.8     9.178572   24.87461   0.05339319 26.44344   2.19212    29.94606  
5623.2     9.032127   26.3051    0.06135038 26.90113   2.199828   30.77998  
5623.6     8.85939    29.21687   0.06056128 27.08      2.199375   31.92771  
5624       8.811245   29.87453   0.05039912 26.74477   2.190438   32.53011  
5624.4     8.855398   29.02402   0.03043905 26.2494    2.184492   31.92771  
5624.8     8.951807   28.31326   0.004490942 25.94      2.179      31.62651  
5625.2     9.20545    27.32301   -0.0004990101 24.87423   2.179852   31.3253   
5625.6     9.277443   27.71084   -0.008659296 24.74001   2.182636   31.62651  
5626       9.188137   28.56571   -0.005261432 25.48983   2.183      31.92771  
5626.4     9.131437   28.53127   -0.002495065 26.50029   2.178769   32.07087  
5626.8     9.032127   27.12134   0.03343314 27.97929   2.16989    31.5242   
5627.2     9.244841   25.09703   0.06789091 28.88      2.161263   30.72289  
5627.6     9.432068   24.09639   0.08033925 28.58      2.157673   29.81928  
5628       9.614805   25.27857   0.07780625 27.14      2.165444   30.64977  
5628.4     9.739906   25.43346   0.06536922 25.58      2.178      31.48409  
5628.8     9.609913   25.60241   0.03642711 24.86      2.189902   32.61662  
5629.2     9.423683   25.3012    0.009480983 25.0865    2.19674    33.74999  
5629.6     9.083244   25         0.0002265876 25.79642   2.182      34.63855  
5630       8.904873   25.60241   0.001496941 26.36      2.166      34.93975  
5630.4     8.787436   25         0.003493011 28.82      2.121      34.51344  
5630.8     8.987675   25.90361   0.01247504 30.93929   2.107845   34.93975  
5631.2     9.169016   26.80722   0.02445108 34.76852   2.103957   35.24097  
5631.6     9.374245   27.39242   0.03642711 37.88      2.113451   36.37057  
5632       9.714859   26.50602   0.04889341 39.32533   2.12693    36.44579  
5632.4     10.25598   26.50602   0.07335326 40.04      2.134257   36.23709  
5632.8     10.55296   25.3012    0.08233529 40.23722   2.126708   34.63855  
5633.2     10.4587    24.9116    0.0735015  41.05305   2.106317   33.43373  
5633.6     10.25943   25.90361   0.07135719 42.49908   2.087      33.97975  
5634       10.23068   26.45727   0.06991561 43.64178   2.064849   36.16695  
5634.4     10.27711   30.14891   0.06936115 43.94      2.060259   41.23476  
5634.8     10.211     34.93975   0.06936115 43.00208   2.072      47.59036  
5635.2     10.09047   51.50602   0.06836322 41.46465   2.134      63.55421  
5635.6     9.648653   67.16867   0.06636727 40.79433   2.234      80.12048  
5636       9.513578   89.45782   0.061795   40.94      2.335      110.8434  
5636.4     9.514055   99.69879   0.0625865  41.75145   2.358011   120.4819  
5636.8     9.605682   103.9309   0.06636959 42.7252    2.376      125.249   
5637.2     9.607258   106.8469   0.06836322 44.27229   2.375144   129.2432  
5637.6     9.51004    105.9905   0.06894805 45.92      2.378      130.7229  
5638       9.291153   104.3271   0.06936115 47.54      2.38       130.0501  
5638.4     9.173618   102.1084   0.06936115 48.31662   2.38       128.3132  
5638.8     9.019167   102.7108   0.07726812 48.60302   2.379692   128.012   
5639.2     8.891565   103.2635   0.08009179 48.31628   2.375669   129.2284  
5639.6     8.920931   105.1648   0.09031934 48.14854   2.362163   131.124   
5640       8.951807   109.1885   0.08866379 48.17895   2.341828   134.0309  
5640.4     8.972494   111.4392   0.08632722 48.4676    2.314368   136.1446  
5640.8     9.06361    110.2955   0.07435128 48.68      2.288914   136.1288  
5641.2     9.163422   108.2295   0.05239516 48.14      2.265148   132.2975  
5641.6     9.258825   104.2782   0.04279439 46.81512   2.240614   123.7846  
5642       9.394728   99.33881   0.0390826  43.94      2.196      110.8434  
5642.4     9.634539   71.08434   0.02944103 41.6       2.141      83.73492  
5642.8     10.31361   48.79517   0.02650928 38.6       2.087      58.61909  
5643.2     10.68839   38.29145   0.010479   37.46001   2.057633   49.39758  
5643.6     10.83936   31.48467   -0.0004990101 37.28      2.045      45.36643  
5644       11.28112   35.38721   -0.001497045 36.8       2.07       44.93871  
5644.4     11.22088   36.44544   -0.0004990101 35.55786   2.116      46.9471   
5644.8     10.94173   42.20661   0.009480983 32.78      2.179      51.43752  
5645.2     11         45.05466   0.02216088 31.74578   2.241      58.13253  
5645.6     11.08032   56.6265    0.03243512 30.94379   2.32       68.37349  
5646       11.12048   69.46786   0.03243512 30.92      2.345305   80.42169  
5646.4     9.253012   82.83133   0.03243512 32.20979   2.360346   88.85541  
5646.8     9.072289   87.49178   0.03243512 33.21011   2.364536   98.38608  
5647.2     9.00057    89.01105   0.02910528 33.66709   2.352714   101.763   
