~Version
 VERS              .         3.0                           : CWLS LOG ASCII STANDARD - VERSION 3.0
 WRAP              .         NO                            : ONE LINE PER DEPTH STEP
 DLM               .         SPACE                         : DELIMITING CHARACTER(SPACE TAB OR COMMA)
~Well Information
#_______________________________________________________________________________
#
#PARAMETER_NAME    .UNIT     VALUE                         : DESCRIPTION
#_______________________________________________________________________________
STRT               .ft       3360                          : First reference value
STOP               .ft       6444                          : Last reference value
STEP               .ft       0.4                           : Step increment
NULL               .         -9999                         : Missing value
COMP               .                                       : Company
WELL               .         EGBM-009                      : Well name
FLD                .         WILDCAT                       : Field
LOC                .                                       : Location
SRVC               .                                       : Service Company
CTRY               .                                       : Country
DATE               .                                       : Service Date
X                  .                                       : X or East-West coordinate
Y                  .                                       : Y or North South coordinate
GDAT               .                                       : Geodetic Datum
HZCS               .                                       : Horizontal Co-ordinate System
CREATION-TIME      .         2000/8/10 0_0                 : 
FIELD-NAME         .         WILDCAT                       : 
FILE-ID            .         SHELL.001                     : 
FILE-NUMBER        .         1                             : 
FILE-SET-NAME      .                                       : 
FILE-SET-NUMBER    .         0                             : 
FILE-TYPE          .         SHELL                         : 
NAME-SPACE-NAME    .         LIS                           : 
NAME-SPACE-VERSION .         0                             : 
PRODUCER-CODE      .         440                           : 
PRODUCER-NAME      .         Schlumberger                  : 
PRODUCT            .                                       : 
PROGRAMS           .                                       : 
VERSION            .         REV 2.00                      : 
WELL-NAME          .                                       : 
~Parameter Information Block
#_______________________________________________________________________________
#
#PARAMETER_NAME    .UNIT     VALUE                         : DESCRIPTION
#_______________________________________________________________________________
SET                .         SHELL_001_1                   : 
ACQUISITION-PRODUCT .         DLIS/U                        : 
CREATION-TIME      .         2026/5/13 12_40               : 
DLIS_FRAME_DIRECTION .         INCREASING                    : 
DLIS_FRAME_NAME    .         1                             : 
DLIS_FRAME_SPACING .0.1_in   48                            : 
FIELD-NAME         .         WILDCAT                       : 
FILE-ID            .         SHELL.001                     : 
FILE-NUMBER        .         1                             : 
FILE-SET-NAME      .         LIS-TO-DLIS-CONVERSION        : 
FILE-SET-NUMBER    .         12959                         : 
FILE-TYPE          .         SHELL                         : 
INDEX-TYPE         .         BOREHOLE-DEPTH                : 
NAME-SPACE-NAME    .                                       : 
NAME-SPACE-VERSION .         0                             : 
OriginalDatasetName .         1                             : 
PRODUCER-CODE      .         440                           : 
PRODUCER-NAME      .         Schlumberger                  : 
PRODUCT            .         DLIS/U                        : 
PROGRAMS           .         LIS-TO-DLIS                   : 
TLFamily_CALF      .         Caliper                       : 
TLFamily_CGR       .         Gamma Ray                     : 
TLFamily_DEPT      .         Measured Depth                : 
TLFamily_DRHO      .         Bulk Density Correction       : 
TLFamily_NPOR      .         Neutron Porosity              : 
TLFamily_RHOB      .         Bulk Density                  : 
TLFamily_SGR       .         Gamma Ray                     : 
VERSION            .         0.1                           : 
WELL-NAME          .                                       : 
~Curve Information
#_______________________________________________________________________________
#
#LOGNAME           .UNIT     LOG_ID                        : DESCRIPTION
#_______________________________________________________________________________
DEPT               .ft                                     :  {F}
CALF               .in                                     :  {F}
CGR                .gAPI                                   :  {F}
DRHO               .g/cm3                                  :  {F}
NPOR               .                                       :  {F}
RHOB               .g/cm3                                  :  {F}
SGR                .gAPI                                   :  {F}
~Ascii
# ...
5772.4     8.702513   19.33762   0.01219958 23.97249   2.183792   26.44257  
5772.8     8.702688   20.87213   0.0179196  23.82312   2.187368   27.04531  
5773.2     8.702864   21.70898   0.01467862 23.90413   2.184931   27.66825  
5773.6     8.862989   23.14029   0.00522688 24.13263   2.181123   28.8013   
5774       9.088074   26.15599   0.00210709 24.24316   2.17928    31.55244  
5774.4     9.182789   29.28202   -0.002542735 24.06293   2.182284   35.24087  
5774.8     9.063393   31.90725   -0.0002964349 23.79021   2.18683    38.16232  
5775.2     8.723738   33.93263   0.000251492 23.76252   2.187291   40.32398  
5775.6     8.612036   33.74795   0.0005752993 23.58229   2.182289   39.18053  
5776       8.504261   32.13946   0.0002595019 23.46212   2.176321   38.21415  
5776.4     8.459562   30.32605   0.0002634742 23.40197   2.171511   36.89342  
5776.8     8.504562   30.51524   0.0002674771 23.40187   2.171855   35.12564  
5777.2     8.504742   27.3776    0.0002714523 23.28168   2.176649   33.37385  
5777.6     8.544895   27.62945   0.001273383 23.0414    2.18044    32.77657  
5778       8.632458   28.58267   0.001166509 22.68099   2.183299   33.23125  
5778.4     8.745111   29.78474   -0.0006223731 22.42129   2.181558   33.68199  
5778.8     8.746651   29.78762   -0.0007105967 22.08036   2.180762   33.68478  
5779.2     8.725477   31.58915   0.00029141 21.84007   2.182302   33.95178  
5779.6     8.645712   31.592     0.00259369 21.65718   2.189653   33.99013  
5780       8.665873   31.59484   0.006288975 21.23936   2.203939   33.99291  
5780.4     8.706017   31.59768   0.008182934 20.69033   2.218224   33.35388  
5780.8     8.744461   30.70121   0.008291405 19.95801   2.231524   32.77058  
5781.2     8.746332   28.00713   0.0003113853 19.43109   2.24068    31.60337  
5781.6     8.746506   26.81002   0.002309442 19.24521   2.244362   30.44608  
5782       8.700253   25.01536   0.0003193752 19.25725   2.241603   29.51099  
5782.4     8.706892   24.71842   0.000323348 19.31719   2.240363   29.21417  
5782.8     8.707067   24.04327   0.001325286 19.22183   2.243403   28.61692  
5783.2     8.707241   23.50342   0.0003313434 18.89219   2.250374   28.88203  
5783.6     8.647478   23.22898   0.009317392 18.6563    2.260385   29.52257  
5784       8.627676   24.13108   0.009245045 18.91688   2.26439    30.28164  
5784.4     8.627853   24.73346   0.006331278 19.31499   2.261416   31.32643  
5784.8     8.648008   24.73647   0.002663817 19.89471   2.251755   32.27126  
5785.2     8.668161   27.64673   0.0003513157 20.67393   2.238768   34.81933  
5785.6     8.837215   29.88215   -0.001640762 21.5974    2.223376   38.68671  
5786       8.908236   34.53467   -0.0005687018 22.97938   2.215734   43.01224  
5786.4     8.907936   38.01668   -0.0005016823 24.6891    2.206442   48.05978  
5786.8     8.868624   45.1264    -0.0006307492 25.38929   2.198888   54.64799  
5787.2     8.84882    48.5796    0.0003712783 26.02971   2.192794   60.64601  
5787.6     8.848991   51.13834   0.001373182 26.51431   2.187252   64.30005  
5788       8.849161   52.32513   0.0003792535 26.76574   2.180523   66.25116  
5788.4     8.829359   52.07716   0.005532891 27.23377   2.177621   67.60747  
5788.8     8.809559   52.81368   0.007373226 27.48267   2.174813   68.29645  
5789.2     8.789759   55.95367   0.008375246 27.60269   2.174334   70.62059  
5789.6     8.838329   60.12417   0.008379251 27.54256   2.176557   73.24248  
5790       8.929909   61.92301   0.009381235 27.35916   2.179341   75.56641  
5790.4     8.930079   63.12378   0.001250584 27.13174   2.180344   76.51019  
5790.8     8.930248   62.40444   0.0004071914 27.06189   2.176331   74.41217  
5791.2     8.930418   60.0573    0.0004111939 27.14822   2.169009   70.90002  
5791.6     8.910618   55.94082   0.002411152 27.43718   2.16033    67.68779  
5792       8.846767   54.46676   0.01938033 27.60569   2.165208   65.90953  
5792.4     8.851049   53.14146   0.0343563  27.44003   2.181769   65.23094  
5792.8     8.971006   53.8921    0.04533845 26.82395   2.202646   65.83203  
5793.2     9.051073   55.55025   0.05033135 26.05515   2.219726   66.13358  
5793.6     9.031275   56.25162   0.04634231 25.55087   2.227346   66.73506  
5794       8.988571   58.78419   0.03427734 25.49978   2.215391   68.13489  
5794.4     8.931776   62.54561   0.03138119 25.72525   2.200511   69.52808  
5794.8     8.931944   63.55309   0.0277702  25.92001   2.18791    72.18613  
5795.2     8.95208    64.34671   0.0283952  25.59646   2.188623   73.03177  
5795.6     8.95225    64.06558   0.03039515 24.64621   2.195412   70.75259  
5796       8.932484   62.25506   0.0323952  23.81776   2.202386   65.46158  
5796.4     8.971182   58.08991   0.03140115 22.85672   2.202388   61.34632  
5796.8     9.012648   51.11896   0.02180799 22.35319   2.194086   60.21251  
5797.2     9.072704   48.0241    0.01802307 22.00572   2.184861   59.33528  
5797.6     9.026745   49.75217   0.01123837 21.71855   2.182436   61.65298  
5798       9.015356   51.76925   0.007459168 21.53504   2.193711   64.95964  
5798.4     8.903149   54.39882   0.005472976 22.4358    2.211127   73.64603  
5798.8     8.913679   66.2825    0.005476981 23.72924   2.233963   80.53387  
5799.2     8.913849   78.57809   0.0004910299 26.67643   2.249613   100.8955  
5799.6     8.887312   101.1966   0.007481026 28.17234   2.254293   113.7714  
5800       8.79442    108.6306   0.003493011 28.57145   2.246117   128.1436  
5800.4     8.774397   110.9908   0.004487029 28.28608   2.237957   133.5676  
5800.8     8.914047   113.0772   0.009474397 27.31088   2.230131   134.4309  
5801.2     9.013138   110.6832   0.01346058 26.99974   2.231524   132.8094  
5801.6     9.118521   106.5853   0.01918944 27.14225   2.234313   130.2059  
5802       9.134272   104.8293   0.02941948 27.66093   2.232435   128.0266  
5802.4     9.153366   104.5847   0.0286456  27.99872   2.233903   128.1949  
5802.8     9.053507   105.0143   0.02542117 27.86383   2.244359   131.6021  
5803.2     8.934015   109.4058   0.01933109 27.38871   2.266254   135.9843  
5803.6     8.853781   117.0635   0.01427283 26.93921   2.288532   151.7853  
5804       8.836082   123.1447   0.01443109 26.996     2.297047   155.9764  
5804.4     8.873627   126.9441   0.01817517 27.45126   2.287865   155.9752  
5804.8     9.113115   121.2547   0.02640042 27.90972   2.259556   153.2799  
5805.2     9.172945   107.1811   0.03338236 28.01985   2.22291    132.8083  
5805.6     9.332569   74.30769   0.0563314  28.3801    2.180567   91.61015  
5806       10.04279   48.19109   0.07728548 29.04055   2.116339   60.16871  
5806.4     11.5084    35.61456   0.08148241 29.34076   2.094479   41.60276  
5806.8     11.90763   28.13046   0.08226743 30.00122   2.059348   38.67638  
5807.2     11.65646   27.17326   0.0756148  29.88102   2.043971   37.229    
5807.6     11.06911   29.36417   0.07115996 28.51703   2.038278   36.80923  
5808       10.19071   28.91103   0.0493196  26.81309   2.057297   37.10777  
5808.4     9.791391   28.36784   0.04831743 25.90121   2.075312   35.90907  
5808.8     10.6758    27.82573   0.05082143 25.19675   2.119444   35.05869  
5809.2     11.25565   28.35399   0.06128541 25.13665   2.168727   35.30833  
5809.6     11.48817   28.71934   0.09221965 26.10554   2.190199   35.48141  
5810       10.37012   29.12577   0.121858   27.6404    2.192732   35.00703  
5810.4     10.17045   27.819     0.1241477  28.48327   2.163852   34.3962   
5810.8     9.79748    27.5214    0.1121675  30.00019   2.118358   33.50787  
5811.2     9.667744   26.91865   0.08421981 31.28952   2.064317   33.30129  
5811.6     9.690435   28.71449   0.05127978 33.21786   2.030831   34.83064  
5812       9.878592   31.7081    0.04278568 36.06449   2.011846   38.08372  
5812.4     9.999554   37.39713   0.02931738 37.56539   2.004278   43.08713  
5812.8     9.852972   43.19852   0.0202718  37.56904   2.016068   47.27892  
5813.2     9.45137    48.47614   0.02358745 36.69634   2.045317   52.36954  
