~Version
 VERS              .         3.0                           : CWLS LOG ASCII STANDARD - VERSION 3.0
 WRAP              .         NO                            : ONE LINE PER DEPTH STEP
 DLM               .         SPACE                         : DELIMITING CHARACTER(SPACE TAB OR COMMA)
~Well Information
#_______________________________________________________________________________
#
#PARAMETER_NAME    .UNIT     VALUE                         : DESCRIPTION
#_______________________________________________________________________________
STRT               .ft       3360                          : First reference value
STOP               .ft       6444                          : Last reference value
STEP               .ft       0.4                           : Step increment
NULL               .         -9999                         : Missing value
COMP               .                                       : Company
WELL               .         EGBM-009                      : Well name
FLD                .         WILDCAT                       : Field
LOC                .                                       : Location
SRVC               .                                       : Service Company
CTRY               .                                       : Country
DATE               .                                       : Service Date
X                  .                                       : X or East-West coordinate
Y                  .                                       : Y or North South coordinate
GDAT               .                                       : Geodetic Datum
HZCS               .                                       : Horizontal Co-ordinate System
CREATION-TIME      .         2000/8/10 0_0                 : 
FIELD-NAME         .         WILDCAT                       : 
FILE-ID            .         SHELL.001                     : 
FILE-NUMBER        .         1                             : 
FILE-SET-NAME      .                                       : 
FILE-SET-NUMBER    .         0                             : 
FILE-TYPE          .         SHELL                         : 
NAME-SPACE-NAME    .         LIS                           : 
NAME-SPACE-VERSION .         0                             : 
PRODUCER-CODE      .         440                           : 
PRODUCER-NAME      .         Schlumberger                  : 
PRODUCT            .                                       : 
PROGRAMS           .                                       : 
VERSION            .         REV 2.00                      : 
WELL-NAME          .                                       : 
~Parameter Information Block
#_______________________________________________________________________________
#
#PARAMETER_NAME    .UNIT     VALUE                         : DESCRIPTION
#_______________________________________________________________________________
SET                .         SHELL_001_1                   : 
ACQUISITION-PRODUCT .         DLIS/U                        : 
CREATION-TIME      .         2026/5/13 12_40               : 
DLIS_FRAME_DIRECTION .         INCREASING                    : 
DLIS_FRAME_NAME    .         1                             : 
DLIS_FRAME_SPACING .0.1_in   48                            : 
FIELD-NAME         .         WILDCAT                       : 
FILE-ID            .         SHELL.001                     : 
FILE-NUMBER        .         1                             : 
FILE-SET-NAME      .         LIS-TO-DLIS-CONVERSION        : 
FILE-SET-NUMBER    .         12959                         : 
FILE-TYPE          .         SHELL                         : 
INDEX-TYPE         .         BOREHOLE-DEPTH                : 
NAME-SPACE-NAME    .                                       : 
NAME-SPACE-VERSION .         0                             : 
OriginalDatasetName .         1                             : 
PRODUCER-CODE      .         440                           : 
PRODUCER-NAME      .         Schlumberger                  : 
PRODUCT            .         DLIS/U                        : 
PROGRAMS           .         LIS-TO-DLIS                   : 
TLFamily_CALF      .         Caliper                       : 
TLFamily_CGR       .         Gamma Ray                     : 
TLFamily_DEPT      .         Measured Depth                : 
TLFamily_DRHO      .         Bulk Density Correction       : 
TLFamily_NPOR      .         Neutron Porosity              : 
TLFamily_RHOB      .         Bulk Density                  : 
TLFamily_SGR       .         Gamma Ray                     : 
VERSION            .         0.1                           : 
WELL-NAME          .                                       : 
~Curve Information
#_______________________________________________________________________________
#
#LOGNAME           .UNIT     LOG_ID                        : DESCRIPTION
#_______________________________________________________________________________
DEPT               .ft                                     :  {F}
CALF               .in                                     :  {F}
CGR                .gAPI                                   :  {F}
DRHO               .g/cm3                                  :  {F}
NPOR               .                                       :  {F}
RHOB               .g/cm3                                  :  {F}
SGR                .gAPI                                   :  {F}
~Ascii
# ...
3776       10.46693   39.8446    0.0735669  49.10597   1.93824    47.79583  
3776.4     9.906551   44.79195   0.05700842 49.14584   1.978984   51.41994  
3776.8     9.806437   46.59123   0.02654125 50.00684   2.01523    54.69028  
3777.2     9.91099    47.79021   0.007199111 51.22694   2.009913   58.66486  
3777.6     10.38639   47.26251   0.00321281 53.0233    1.992291   60.938    
3778       10.78649   47.78771   0.02129868 53.64723   1.978528   66.90857  
3778.4     11.74679   56.12353   0.02778395 54.05739   1.975881   72.75583  
3778.8     11.78671   61.94918   0.02710356 53.87119   1.990044   82.89856  
3779.2     10.73143   65.1902    0.0248246  53.14383   2.003378   87.61876  
3779.6     9.644712   74.31612   0.0140562  52.8296    2.013083   93.22908  
3780       9.448713   75.69028   0.01823502 52.92799   2.028941   96.70544  
3780.4     9.485287   75.98859   0.02668875 53.4489    2.043067   97.73164  
3780.8     9.535524   75.14461   0.05796048 54.17023   2.056191   94.36554  
3781.2     9.84865    71.78366   0.1027762  54.72871   2.062164   88.30212  
3781.6     9.965137   60.97726   0.1376325  54.15185   2.062401   81.14154  
3782       10.18511   55.31516   0.1524271  52.80919   2.055181   71.1794   
3782.4     10.37813   52.564     0.1525657  51.90333   2.039205   65.67203  
3782.8     10.72502   48.76272   0.1511051  51.21744   2.013564   59.56876  
3783.2     11.10102   45.78921   0.1406055  50.69128   1.983173   55.70732  
3783.6     11.84515   44.97051   0.1266574  50.89808   1.959162   53.76685  
3784       12.19876   45.96272   0.121146   51.36726   1.97016    54.64108  
3784.4     12.24507   46.85377   0.1077248  51.83931   1.985142   56.06803  
3784.8     12.11828   48.06023   0.103737   52.12914   2.000143   57.06297  
3785.2     11.81339   46.31116   0.09047313 52.81012   1.999538   55.6796   
3785.6     11.55596   44.47326   0.08082071 53.63373   1.983436   52.98239  
3786       11.56544   39.99855   0.0808167  54.02292   1.958138   51.01746  
3786.4     11.67957   38.15121   0.08180867 54.13184   1.963628   48.95414  
3786.8     11.63226   37.28784   0.09375823 53.45384   1.978133   49.39128  
3787.2     11.43388   39.3485    0.1067011  52.74895   2.072404   52.35045  
3787.6     11.47823   43.142     0.1096852  52.03255   2.102569   55.38831  
3788       11.31707   46.17776   0.1116733  51.69788   2.130118   59.00666  
3788.4     10.62335   48.34328   0.1126652  50.96316   2.121992   61.8802   
3788.8     10.34327   50.28728   0.1136573  50.37716   2.100059   64.9263   
3789.2     10.1979    51.94363   0.1100215  49.91089   2.082889   68.06345  
3789.6     10.06288   55.8429    0.1007012  50.05375   2.074312   73.65352  
3790       10.02285   59.18166   0.08177111 52.45394   2.078475   80.44691  
3790.4     9.915178   76.24274   0.06336448 54.76459   2.083047   92.30978  
3790.8     9.7106     77.74223   0.04083183 57.13457   2.089092   103.0266  
3791.2     9.591602   87.15266   0.03260851 58.81477   2.083908   109.5197  
3791.6     9.642294   89.7928    0.03295212 59.8819    2.071188   112.3489  
3792       9.662931   87.93726   0.03693217 59.7752    2.044167   111.227   
3792.4     9.702084   82.53534   0.04788446 59.98628   2.011032   107.5237  
3792.8     9.754122   77.82411   0.04788048 59.42461   1.980073   100.5814  
3793.2     9.82937    71.32602   0.04688045 58.68798   1.795068   88.58969  
3793.6     9.801773   52.82542   0.0448844  56.99029   1.758064   77.8625   
3794       9.741606   47.65022   0.04288843 56.11637   1.671061   68.70033  
3794.4     9.744289   42.53609   0.0418884  54.54514   1.608056   60.92352  
3794.8     9.562733   39.67628   0.04088837 54.61716   1.62833    60.02186  
3795.2     9.396347   40.51833   0.03354055 55.25977   1.645049   62.34182  
3795.6     9.134125   42.01717   0.03273927 55.84161   1.783315   68.49106  
3796       8.921003   44.41558   0.04284513 55.93578   1.805635   76.1581   
3796.4     8.760971   60.61543   0.05680767 55.39777   1.951038   84.55333  
3796.8     8.848085   64.74878   0.06676537 52.87807   1.976033   91.0808   
3797.2     9.040731   66.61214   0.08227959 52.03391   2.018028   94.51367  
3797.6     9.290918   65.11465   0.0936479  50.45565   2.050024   94.20389  
3798       9.366198   65.70863   0.09364541 50.41549   2.097021   93.56578  
3798.4     9.480433   68.69666   0.09007715 50.60017   2.127237   93.70041  
3798.8     9.483555   71.52394   0.08349489 52.69933   2.14757    94.93144  
3799.2     9.269693   76.2726    0.08584917 53.92237   2.150024   96.35696  
3799.6     9.094303   79.23425   0.09562081 54.25975   2.143185   96.60979  
3800       8.979572   80.00023   0.1005976  53.87259   2.138352   97.42499  
3800.4     8.8599     82.19815   0.09859756 53.34733   2.137442   98.41182  
3800.8     8.639799   83.88313   0.09659529 53.30095   2.142439   100.2758  
3801.2     8.533945   85.79433   0.09260561 53.47071   2.147978   102.5884  
3801.6     8.479603   85.89824   0.08940427 53.82037   2.149968   106.5862  
3802       8.499502   91.19032   0.07763067 54.08241   2.14996    110.2951  
3802.4     8.519402   95.57936   0.06568922 53.96288   2.148952   113.7066  
3802.8     8.499302   97.78609   0.0577158  53.36336   2.148944   114.6434  
3803.2     8.499201   94.09599   0.04276497 53.01744   2.149936   111.7587  
3803.6     8.459105   91.48306   0.03955378 53.22925   2.149137   107.5     
3804       8.398987   87.39211   0.03378487 53.30456   2.132638   104.7883  
3804.4     8.378946   83.07947   0.03196487 57.26058   2.104911   102.7522  
3804.8     8.298811   83.93288   0.02617871 58.58575   2.035902   101.2943  
3805.2     8.491003   84.57584   0.02977691 58.97791   1.959896   99.18773  
3805.6     8.798567   79.5937    0.03541925 58.1195    1.931213   95.90219  
3806       9.038437   76.77278   0.04074277 55.70735   1.907882   92.6991   
3806.4     9.078327   75.67366   0.0476777  53.72787   1.934874   89.44093  
3806.8     9.120356   76.13014   0.05066137 52.72236   2.016863   86.66692  
3807.2     9.138109   74.36768   0.05506393 51.81071   2.100854   86.18654  
3807.6     9.118008   74.89914   0.05736169 50.92223   2.194846   85.4642   
3808       9.037914   76.481     0.05960166 50.09038   2.221379   85.76225  
3808.4     9.177788   78.0464    0.05760159 48.99891   2.24673    87.24495  
3808.8     9.177681   80.65939   0.05460559 48.40097   2.265909   90.36182  
3809.2     9.177576   84.45941   0.05260555 47.86694   2.274816   94.94484  
3809.6     9.082418   87.59361   0.05098476 47.80109   2.267232   100.115   
3810       8.877375   92.05118   0.051554   48.14816   2.252069   104.3786  
3810.4     8.847731   95.81358   0.04561096 48.74146   2.24383    109.0089  
3810.8     8.842934   99.24614   0.04062148 48.6566    2.240573   111.5435  
3811.2     8.897112   98.27382   0.03762551 48.25106   2.247335   112.3709  
3811.6     8.993366   97.1656    0.03363346 47.95789   2.255096   111.1739  
3812       9.088348   97.47969   0.03785505 47.54762   2.266684   109.598   
3812.4     9.321953   96.53883   0.04001713 46.96712   2.277088   107.8372  
3812.8     9.416567   93.7773    0.04439219 46.5611    2.293989   106.9858  
3813.2     9.399828   91.2972    0.06348211 46.25398   2.304367   105.2108  
3813.6     9.282501   88.50401   0.07268551 45.08823   2.311728   100.7582  
3814       9.315582   80.83536   0.07043824 44.12447   2.301876   96.53093  
3814.4     9.420774   76.01221   0.05648246 42.84478   2.294964   92.10651  
3814.8     9.535166   73.43385   0.04950597 42.21776   2.287125   89.09604  
3815.2     9.65041    67.64497   0.03754582 42.52928   2.28844    87.52684  
3815.6     9.655739   65.10989   0.02558567 43.22386   2.302141   85.42653  
3816       9.62875    64.43488   0.01462146 44.01733   2.325568   85.42465  
3816.4     9.555553   66.38005   0.01449193 44.31962   2.343286   86.37349  
3816.8     9.535452   69.89592   0.020259   46.66016   2.343659   89.71852  
3817.2     9.475365   72.61328   0.02498597 47.35078   2.318758   95.13646  
