~Version
 VERS              .         3.0                           : CWLS LOG ASCII STANDARD - VERSION 3.0
 WRAP              .         NO                            : ONE LINE PER DEPTH STEP
 DLM               .         SPACE                         : DELIMITING CHARACTER(SPACE TAB OR COMMA)
~Well Information
#_______________________________________________________________________________
#
#PARAMETER_NAME    .UNIT     VALUE                         : DESCRIPTION
#_______________________________________________________________________________
STRT               .ft       3360                          : First reference value
STOP               .ft       6444                          : Last reference value
STEP               .ft       0.4                           : Step increment
NULL               .         -9999                         : Missing value
COMP               .                                       : Company
WELL               .         EGBM-009                      : Well name
FLD                .         WILDCAT                       : Field
LOC                .                                       : Location
SRVC               .                                       : Service Company
CTRY               .                                       : Country
DATE               .                                       : Service Date
X                  .                                       : X or East-West coordinate
Y                  .                                       : Y or North South coordinate
GDAT               .                                       : Geodetic Datum
HZCS               .                                       : Horizontal Co-ordinate System
CREATION-TIME      .         2000/8/10 0_0                 : 
FIELD-NAME         .         WILDCAT                       : 
FILE-ID            .         SHELL.001                     : 
FILE-NUMBER        .         1                             : 
FILE-SET-NAME      .                                       : 
FILE-SET-NUMBER    .         0                             : 
FILE-TYPE          .         SHELL                         : 
NAME-SPACE-NAME    .         LIS                           : 
NAME-SPACE-VERSION .         0                             : 
PRODUCER-CODE      .         440                           : 
PRODUCER-NAME      .         Schlumberger                  : 
PRODUCT            .                                       : 
PROGRAMS           .                                       : 
VERSION            .         REV 2.00                      : 
WELL-NAME          .                                       : 
~Parameter Information Block
#_______________________________________________________________________________
#
#PARAMETER_NAME    .UNIT     VALUE                         : DESCRIPTION
#_______________________________________________________________________________
SET                .         SHELL_001_1                   : 
ACQUISITION-PRODUCT .         DLIS/U                        : 
CREATION-TIME      .         2026/5/13 12_40               : 
DLIS_FRAME_DIRECTION .         INCREASING                    : 
DLIS_FRAME_NAME    .         1                             : 
DLIS_FRAME_SPACING .0.1_in   48                            : 
FIELD-NAME         .         WILDCAT                       : 
FILE-ID            .         SHELL.001                     : 
FILE-NUMBER        .         1                             : 
FILE-SET-NAME      .         LIS-TO-DLIS-CONVERSION        : 
FILE-SET-NUMBER    .         12959                         : 
FILE-TYPE          .         SHELL                         : 
INDEX-TYPE         .         BOREHOLE-DEPTH                : 
NAME-SPACE-NAME    .                                       : 
NAME-SPACE-VERSION .         0                             : 
OriginalDatasetName .         1                             : 
PRODUCER-CODE      .         440                           : 
PRODUCER-NAME      .         Schlumberger                  : 
PRODUCT            .         DLIS/U                        : 
PROGRAMS           .         LIS-TO-DLIS                   : 
TLFamily_CALF      .         Caliper                       : 
TLFamily_CGR       .         Gamma Ray                     : 
TLFamily_DEPT      .         Measured Depth                : 
TLFamily_DRHO      .         Bulk Density Correction       : 
TLFamily_NPOR      .         Neutron Porosity              : 
TLFamily_RHOB      .         Bulk Density                  : 
TLFamily_SGR       .         Gamma Ray                     : 
VERSION            .         0.1                           : 
WELL-NAME          .                                       : 
~Curve Information
#_______________________________________________________________________________
#
#LOGNAME           .UNIT     LOG_ID                        : DESCRIPTION
#_______________________________________________________________________________
DEPT               .ft                                     :  {F}
CALF               .in                                     :  {F}
CGR                .gAPI                                   :  {F}
DRHO               .g/cm3                                  :  {F}
NPOR               .                                       :  {F}
RHOB               .g/cm3                                  :  {F}
SGR                .gAPI                                   :  {F}
~Ascii
# ...
4150.4     10.91664   68.51953   0.04340461 38.59061   2.282984   89.3837   
4150.8     10.94909   67.46082   0.04019584 37.82192   2.284968   87.91351  
4151.2     10.96874   68.75778   0.01840812 37.35923   2.285952   87.75812  
4151.6     11.03012   68.21198   0.006735528 36.90932   2.282798   87.41052  
4152       11.02806   67.90761   0.00341325 36.32013   2.26029    85.93985  
4152.4     10.98757   64.03886   -0.0005947227 36.2147    2.230259   82.34384  
4152.8     10.98727   60.86388   0.0003872572 37.82669   2.19789    77.18846  
4153.2     11.40755   56.64733   0.04229015 41.38399   2.057872   70.09453  
4153.6     12.08754   48.03527   0.06834495 43.10897   1.972246   62.88551  
4154       12.58608   44.42529   0.0913772  45.38382   1.881833   56.99816  
4154.4     12.74957   39.59538   0.1058984  46.05051   1.85482    51.73491  
4154.8     13.45673   37.7693    0.115943   46.48223   1.871217   47.61871  
4155.2     13.97142   35.80021   0.1400075  46.9493    1.935792   44.46632  
4155.6     14.48861   32.67291   0.1523547  47.49377   1.954778   42.29324  
4156       14.36503   31.27132   0.1475555  47.79417   1.966761   42.02422  
4156.4     14.14832   29.95237   0.1439594  48.45411   1.916344   43.44303  
4156.8     13.76563   32.94991   0.1020203  50.24532   1.873616   47.63517  
4157.2     13.72904   41.73521   0.08703803 52.40791   1.854712   55.0561   
4157.6     13.71189   45.08844   0.07338575 53.31171   1.868638   61.29272  
4158       12.746     46.4464    0.05108252 53.52507   1.90092    64.20636  
4158.4     12.10423   43.20784   0.0360562  50.32012   1.936609   59.85963  
4158.8     11.30307   36.83099   0.02709387 48.42929   1.95448    51.50272  
4159.2     11.50199   28.11898   0.02707792 48.04379   1.940249   43.90495  
4159.6     11.72212   25.43923   0.02969831 49.10655   1.90062    39.52433  
4160       12.44335   26.28307   0.02151261 51.1041    1.8656     37.15869  
4160.4     12.78376   25.74428   0.02104193 51.08988   1.852587   36.03358  
4160.8     12.72406   26.13614   0.01597027 50.32787   1.880932   34.68996  
4161.2     12.3819    27.85061   0.01575827 49.82188   1.975545   36.08359  
4161.6     12.32166   28.97236   0.02798012 49.91041   2.006666   36.78183  
4162       12.73163   28.65627   0.05091289 50.35096   2.03009    37.37669  
4162.4     12.923     29.8513    0.0511009  52.84987   2.008148   37.67082  
4162.8     12.82754   28.49762   0.05088629 54.12004   1.955485   36.76194  
4163.2     12.60099   27.43174   0.0578564  54.71168   1.911473   36.48607  
4163.6     12.88118   26.52267   0.05883836 54.76594   1.874087   34.64332  
4164       12.76053   27.40419   0.06181648 54.04704   1.87144    34.93686  
4164.4     12.42738   28.01257   0.06727786 52.91486   1.881134   36.1371   
4164.8     12.6207    27.53855   0.07376057 52.34117   1.888069   36.69586  
4165.2     12.98009   26.67467   0.08644754 51.89983   1.852987   35.83127  
4165.6     13.11366   26.78949   0.09417705 51.95743   1.791382   35.2116   
4166       13.03938   25.53584   0.1016567  52.11243   1.761354   34.40997  
4166.4     12.99891   25.83382   0.1015468  52.05772   1.785339   34.59669  
4166.8     13.45973   26.95573   0.1006269  51.27782   1.833321   36.39485  
4167.2     14.462     30.3724    0.0797817  49.81896   1.89026    38.11889  
4167.6     14.84286   33.07392   0.06366396 48.43925   1.959912   40.1664   
4168       13.71937   35.4326    0.04169663 47.33848   1.987269   42.26414  
4168.4     12.65599   36.36831   0.02970463 47.34418   2.003629   44.49053  
4168.8     12.28107   36.61058   0.03968743 47.62384   2.01495    44.24336  
4169.2     12.28019   35.44      0.04962876 46.62294   2.023422   43.38016  
4169.6     12.52542   34.54337   0.06316115 45.37608   2.022811   41.76347  
4170       12.77974   34.83754   0.06394599 43.88232   2.01543    41.45929  
4170.4     12.79107   34.22919   0.06255892 43.14896   2.007071   41.45247  
4170.8     12.69497   35.4654    0.05656378 43.74637   2.005168   41.74383  
4171.2     12.97432   35.41928   0.05155495 44.64201   2.012836   41.96239  
4171.6     13.37817   35.41263   0.05053498 46.99179   2.018584   42.49084  
4172       13.31474   35.40598   0.04992018 47.8928    2.010206   42.62678  
4172.4     12.31152   35.39933   0.05648839 48.01337   1.998732   42.01849  
4172.8     12.2709    35.69355   0.07144833 47.83478   1.982893   42.61371  
4173.2     12.73186   34.43752   0.09537697 46.8756    1.967043   42.30628  
4173.6     13.79461   33.26814   0.09885956 46.56993   1.955386   41.69797  
4174       14.27557   32.36382   0.1006362  47.65804   1.961985   41.9923   
4174.4     13.87418   32.74294   0.08036712 47.68197   1.974127   42.63631  
4174.8     12.97367   33.8549    0.05838788 48.77551   1.991245   44.02124  
4175.2     12.6297    34.75094   0.03475665 49.4818    2.007245   44.68082  
4175.6     12.77938   34.14247   0.03477653 50.03399   2.017462   44.68954  
4176       13.1706    34.67254   0.03339325 50.53011   2.021222   44.88789  
4176.4     13.19205   34.12911   0.03537334 50.91796   2.021944   44.6613   
4176.8     13.0361    34.12244   0.03835133 51.46288   2.021056   43.75203  
4177.2     12.92875   36.49025   0.04132937 52.10214   2.018217   43.74551  
4177.6     13.38709   36.21831   0.04932038 52.46623   2.015381   44.64179  
4178       14.5052    35.7532    0.05526748 52.3472    2.010096   44.84666  
4178.4     15.08452   34.39669   0.06223954 52.12266   1.998388   44.02844  
4178.8     14.17104   34.39001   0.06222358 51.43717   1.98762    43.42349  
4179.2     14.07334   34.38335   0.06420368 50.91935   1.984771   41.90718  
4179.6     14.37116   34.07572   0.07118057 50.51517   2.000811   41.59968  
4180       14.76375   33.76808   0.0771458  50.37152   2.016755   41.89408  
4180.4     14.1698    33.15947   0.07926603 49.94486   2.030819   42.05283  
4180.8     13.91745   32.24986   0.08303405 49.60009   2.037768   42.50101  
4181.2     13.76568   32.06131   0.08381806 49.31506   2.029816   43.07835  
4181.6     13.64703   32.53744   0.08758546 49.56388   2.013957   43.07182  
4182       13.76926   31.32405   0.08936222 50.01712   1.99791    42.46332  
4182.4     14.1954    31.01908   0.09213604 51.36228   1.978481   41.55379  
4182.8     14.32347   29.27732   0.09299505 51.32735   1.964078   40.58835  
4183.2     14.25819   26.79161   0.08227392 50.42574   1.957672   39.43367  
4183.6     14.10678   25.27977   0.07268366 49.10118   1.959656   38.79162  
4184       14.12646   28.58299   0.04006138 47.65977   1.966049   40.80181  
4184.4     14.10624   30.92799   0.02307793 47.20219   1.964586   43.10971  
4184.8     12.35502   35.33796   0.0140799  47.70522   1.953817   45.12044  
4185.2     12.15336   38.28009   0.03302211 48.82435   1.942493   47.52438  
4185.6     12.59978   41.20032   0.04897807 49.75621   1.927023   49.0271   
4186       12.63976   39.26785   0.06168439 49.88658   1.912203   49.3217   
4186.4     11.97697   38.93565   0.06092227 49.58389   1.901579   49.89394  
4186.8     11.13353   44.81549   0.04893016 48.52831   1.907977   53.32742  
4187.2     10.99277   50.50465   0.02995828 46.23805   1.919513   58.03304  
4187.6     10.97425   59.83289   0.007979006 42.5617    2.005163   67.05881  
4188       10.75121   67.35217   0.0004802578 41.05537   2.057484   81.20003  
4188.4     10.63087   75.77753   -0.0003364795 40.43177   2.150468   89.92422  
4188.8     10.38984   85.09409   0.00094617 43.14088   2.186236   96.22375  
4189.2     10.29141   88.29062   0.008742182 44.69408   2.210658   101.293   
4189.6     10.19303   91.78331   0.009896273 44.69507   2.234049   104.3606  
4190       10.13536   89.90254   0.007400495 43.5557    2.264286   105.8636  
4190.4     10.13411   83.01741   0.005294649 39.2372    2.288049   96.08403  
4190.8     10.30766   69.95091   -0.0001317033 38.15802   2.297368   90.49422  
4191.2     10.38646   63.60922   0.001848388 37.85889   2.292444   81.05406  
4191.6     10.40627   56.45821   0.01447769 37.73454   2.275861   71.81721  
