~Version
 VERS              .         3.0                           : CWLS LOG ASCII STANDARD - VERSION 3.0
 WRAP              .         NO                            : ONE LINE PER DEPTH STEP
 DLM               .         SPACE                         : DELIMITING CHARACTER(SPACE TAB OR COMMA)
~Well Information
#_______________________________________________________________________________
#
#PARAMETER_NAME    .UNIT     VALUE                         : DESCRIPTION
#_______________________________________________________________________________
STRT               .ft       3360                          : First reference value
STOP               .ft       6444                          : Last reference value
STEP               .ft       0.4                           : Step increment
NULL               .         -9999                         : Missing value
COMP               .                                       : Company
WELL               .         EGBM-009                      : Well name
FLD                .         WILDCAT                       : Field
LOC                .                                       : Location
SRVC               .                                       : Service Company
CTRY               .                                       : Country
DATE               .                                       : Service Date
X                  .                                       : X or East-West coordinate
Y                  .                                       : Y or North South coordinate
GDAT               .                                       : Geodetic Datum
HZCS               .                                       : Horizontal Co-ordinate System
CREATION-TIME      .         2000/8/10 0_0                 : 
FIELD-NAME         .         WILDCAT                       : 
FILE-ID            .         SHELL.001                     : 
FILE-NUMBER        .         1                             : 
FILE-SET-NAME      .                                       : 
FILE-SET-NUMBER    .         0                             : 
FILE-TYPE          .         SHELL                         : 
NAME-SPACE-NAME    .         LIS                           : 
NAME-SPACE-VERSION .         0                             : 
PRODUCER-CODE      .         440                           : 
PRODUCER-NAME      .         Schlumberger                  : 
PRODUCT            .                                       : 
PROGRAMS           .                                       : 
VERSION            .         REV 2.00                      : 
WELL-NAME          .                                       : 
~Parameter Information Block
#_______________________________________________________________________________
#
#PARAMETER_NAME    .UNIT     VALUE                         : DESCRIPTION
#_______________________________________________________________________________
SET                .         SHELL_001_1                   : 
ACQUISITION-PRODUCT .         DLIS/U                        : 
CREATION-TIME      .         2026/5/13 12_40               : 
DLIS_FRAME_DIRECTION .         INCREASING                    : 
DLIS_FRAME_NAME    .         1                             : 
DLIS_FRAME_SPACING .0.1_in   48                            : 
FIELD-NAME         .         WILDCAT                       : 
FILE-ID            .         SHELL.001                     : 
FILE-NUMBER        .         1                             : 
FILE-SET-NAME      .         LIS-TO-DLIS-CONVERSION        : 
FILE-SET-NUMBER    .         12959                         : 
FILE-TYPE          .         SHELL                         : 
INDEX-TYPE         .         BOREHOLE-DEPTH                : 
NAME-SPACE-NAME    .                                       : 
NAME-SPACE-VERSION .         0                             : 
OriginalDatasetName .         1                             : 
PRODUCER-CODE      .         440                           : 
PRODUCER-NAME      .         Schlumberger                  : 
PRODUCT            .         DLIS/U                        : 
PROGRAMS           .         LIS-TO-DLIS                   : 
TLFamily_CALF      .         Caliper                       : 
TLFamily_CGR       .         Gamma Ray                     : 
TLFamily_DEPT      .         Measured Depth                : 
TLFamily_DRHO      .         Bulk Density Correction       : 
TLFamily_NPOR      .         Neutron Porosity              : 
TLFamily_RHOB      .         Bulk Density                  : 
TLFamily_SGR       .         Gamma Ray                     : 
VERSION            .         0.1                           : 
WELL-NAME          .                                       : 
~Curve Information
#_______________________________________________________________________________
#
#LOGNAME           .UNIT     LOG_ID                        : DESCRIPTION
#_______________________________________________________________________________
DEPT               .ft                                     :  {F}
CALF               .in                                     :  {F}
CGR                .gAPI                                   :  {F}
DRHO               .g/cm3                                  :  {F}
NPOR               .                                       :  {F}
RHOB               .g/cm3                                  :  {F}
SGR                .gAPI                                   :  {F}
~Ascii
# ...
3568       12.06906   22.5716    0.05047801 45.2057    2.077642   28.18237  
3568.4     12.15724   22.57503   0.05147804 43.65887   2.092983   27.98928  
3568.8     12.19754   19.57057   0.05467577 42.42191   2.108687   27.99979  
3569.2     12.25789   19.27323   0.05945411 42.54008   2.120032   27.99604  
3569.6     12.31726   18.12119   0.07041423 44.22991   2.120695   27.69865  
3570       12.49891   17.47545   0.09133455 47.55802   2.112699   26.96964  
3570.4     12.87465   17.17814   0.1150335  48.89107   2.084064   25.59997  
3570.8     13.32167   17.09109   0.1301871  48.95883   2.05514    25.3026   
3571.2     13.4922    15.68255   0.1293962  48.37966   2.022665   24.70445  
3571.6     13.40191   15.98547   0.1271978  47.91704   1.996631   24.70786  
3572       13.22169   15.75786   0.1033067  48.09991   1.979719   25.17329  
3572.4     13.30708   17.79703   0.07385102 48.91792   1.994549   26.01521  
3572.8     13.36088   18.20082   0.0588942  49.39567   2.031186   27.15647  
3573.2     13.26466   19.60855   0.0505298  49.47608   2.070929   28.02989  
3573.6     13.11712   20.51292   0.05132967 49.28053   2.104852   28.03328  
3574       13.25302   19.01394   0.05452016 49.48293   2.119745   27.87916  
3574.4     13.48897   18.32704   0.08219449 49.8354    2.122744   27.7393   
3574.8     13.72319   17.21633   0.09696101 49.9355    2.121748   26.4848   
3575.2     13.87282   17.1521    0.09915346 49.95488   2.119909   25.63654  
3575.6     14.03432   16.92252   0.1013505  50.03117   2.110794   24.78759  
3576       14.28942   17.82823   0.1003585  50.60348   2.097555   25.04613  
3576.4     14.0057    18.91901   0.07845008 50.78146   2.086985   25.04954  
3576.8     13.74549   19.94035   0.08164321 51.19632   2.075636   25.35369  
3577.2     13.66514   20.6043    0.08642617 51.12334   2.058047   25.40304  
3577.6     13.41557   21.74606   0.1003751  50.77563   2.028603   26.22275  
3578       13.20432   23.25966   0.1123307  50.11367   2.006155   27.74696  
3578.4     13.08427   23.86366   0.1113386  49.54898   1.976425   28.80294  
3578.8     12.91019   24.86974   0.1123382  48.87272   1.976685   30.83992  
3579.2     12.7304    27.54972   0.08345941 48.89938   1.994489   34.01862  
3579.6     12.50345   30.13585   0.06652963 49.24783   2.017468   41.01616  
3580       12.1427    34.40221   0.04362544 48.872     2.044671   48.53638  
3580.4     11.2319    44.02886   0.02669714 46.90334   2.074526   60.56998  
3580.8     10.9751    65.98555   0.01674094 45.39158   2.104808   73.2016   
3581.2     10.78077   71.71152   0.01475295 42.27128   2.167812   87.63805  
3581.6     10.33952   78.01811   0.008780628 40.97086   2.211298   99.21727  
3582       10.13893   81.62918   0.0008166432 40.94756   2.248821   102.47    
3582.4     10.03894   76.53386   -0.0001754023 42.27063   2.266502   99.84109  
3582.8     10.02832   72.71059   -0.0001714132 44.43028   2.261353   95.48627  
3583.2     9.939148   71.11493   -0.0001674302 47.61001   2.236487   91.83395  
3583.6     10.09974   69.91394   -0.0001634471 48.16368   2.197213   89.50934  
3584       10.38048   62.40147   0.000836581 47.90964   2.159841   84.41638  
3584.4     11.72395   58.7963    0.01179853 45.99447   2.144221   76.22383  
3584.8     11.62376   48.57653   0.01578343 39.26908   2.126139   64.81351  
3585.2     11.40349   36.55142   0.04766262 35.60882   2.10392    53.49162  
3585.6     11.47699   35.39467   0.07356155 36.07673   2.07724    45.70914  
3586       11.62442   32.12102   0.09946203 37.70848   2.050706   41.05334  
3586.4     11.60457   30.0611    0.1002619  40.57053   2.034741   38.42348  
3586.8     11.74434   28.00031   0.09986748 44.30788   2.028868   36.564    
3587.2     12.02591   27.54698   0.08314964 45.56769   2.031611   34.38508  
3587.6     12.0662    26.94902   0.06541331 45.09981   2.036412   32.66682  
3588       11.98621   27.25309   0.06462145 44.40514   2.03988    31.26278  
3588.4     12.04859   25.28042   0.08255467 44.24696   2.039884   29.96251  
3588.8     12.30731   24.85452   0.1106565  44.70371   2.039888   29.36239  
3589.2     12.27475   24.98658   0.1273824  45.46314   2.045637   28.76658  
3589.6     12.15759   24.86133   0.1393385  45.80624   2.05649    29.33628  
3590       12.0606    25.17875   0.1333664  44.86554   2.073128   30.27601  
3590.4     12.68894   25.72318   0.1323737  43.97262   2.090068   31.90615  
3590.8     13.142     26.6755    0.1325794  42.81367   2.101641   32.38797  
3591.2     13.35063   26.37824   0.1403505  42.20065   2.106912   32.00069  
3591.6     12.81867   24.78811   0.1377573  42.43855   2.100955   31.11026  
3592       12.76982   24.31825   0.1264143  43.40479   2.086043   30.88076  
3592.4     12.73134   27.03033   0.1074939  44.37265   2.070479   32.02134  
3592.8     12.53337   26.39183   0.07363293 44.88086   2.05797    32.86304  
3593.2     12.14898   26.99651   0.06168315 44.26147   2.060488   33.61063  
3593.6     12.24049   27.30054   0.053721   42.57565   2.075155   33.61398  
3594       12.59037   26.96981   0.05272904 41.29744   2.094267   32.70416  
3594.4     12.78733   25.80415   0.06548104 40.52337   2.097819   30.66631  
3594.8     13.20796   25.14111   0.06070629 41.07728   2.090056   31.21893  
3595.2     13.30712   26.41221   0.04975173 42.64265   2.071803   31.22228  
3595.6     13.28514   26.22824   0.05075292 43.82377   2.055713   31.89487  
3596       13.18984   27.07001   0.05175292 45.85534   2.044163   33.93041  
3596.4     13.0925    30.33057   0.0714678  47.57159   2.032122   37.86806  
3596.8     13.04678   33.11738   0.07686238 47.15821   2.016377   40.89025  
3597.2     13.23949   34.96421   0.08264133 47.89336   1.998133   44.16486  
3597.6     13.38986   36.10343   0.08224411 48.84856   1.979772   46.24376  
3598       13.22849   37.24336   0.07567722 49.46613   1.968832   46.87766  
3598.4     12.99396   38.0854    0.07189727 49.61569   1.960984   48.22488  
3598.8     13.14237   37.56527   0.0671185  48.50066   1.971696   49.06615  
3599.2     13.59547   38.16978   0.06433414 47.26517   2.001862   48.99159  
3599.6     13.83661   38.22424   0.05676955 46.50419   2.029206   47.2329   
3600       13.85571   37.27458   0.05179289 44.54005   2.09       45.75735  
3600.4     13.74726   30.96192   0.04581675 42.16706   2.103382   40.05977  
3600.8     13.34793   28.39059   0.0398407  41.13188   2.104012   36.78536  
3601.2     13.13193   25.71571   0.05577695 41.28981   2.097202   34.11752  
3601.6     13.03407   24.0481    0.07968131 42.50808   2.094      32.46494  
3602       13.15743   23.74749   0.0916335  46.03806   2.0942     32.76553  
3602.4     13.33033   25.29524   0.08964151 47.62761   2.08391    34.56914  
3602.8     13.47495   26.13198   0.08186463 48.06443   2.05439    36.762    
3603.2     13.4924    27.77029   0.07569724 48.64355   2.018401   38.59818  
3603.6     13.70463   30.02116   0.06872517 48.92      1.992796   41.74622  
3604       14.15631   31.26252   0.06581402 48.80334   1.994814   42.08417  
3604.4     14.3466    31.86233   0.05776891 47.71999   2.001891   42.08417  
3604.8     14.35671   31.86373   0.04780883 46.80862   2.027857   42.08417  
3605.2     14.31408   31.98454   0.02390444 45.32      2.05148    40.28056  
3605.6     14.15675   31.26252   0.01195219 44.96      2.062      38.47695  
3606       14.01603   31.32964   0.01291563 45.85506   2.054      34.56914  
3606.4     13.59519   29.45892   0.01593626 47.71999   2.034499   31.86373  
3606.8     14.01603   26.76704   0.03928217 48.49805   2.018736   30.10062  
3607.2     14.39448   24.76265   0.08964151 48.67999   2.017932   29.45892  
3607.6     14.41683   23.85551   0.1225099  48.02      2.029412   29.45892  
3608       14.75218   24.08531   0.1573705  46.76208   2.040958   29.06664  
3608.4     14.98378   22.15616   0.1643426  45.74      2.047264   27.95591  
3608.8     15.06321   20.39753   0.1523905  43.82209   2.049      27.65531  
3609.2     15.15832   19.54763   0.1344622  43.00951   2.049855   27.05411  
