~Version
 VERS              .         3.0                           : CWLS LOG ASCII STANDARD - VERSION 3.0
 WRAP              .         NO                            : ONE LINE PER DEPTH STEP
 DLM               .         SPACE                         : DELIMITING CHARACTER(SPACE TAB OR COMMA)
~Well Information
#_______________________________________________________________________________
#
#PARAMETER_NAME    .UNIT     VALUE                         : DESCRIPTION
#_______________________________________________________________________________
STRT               .ft       3360                          : First reference value
STOP               .ft       6444                          : Last reference value
STEP               .ft       0.4                           : Step increment
NULL               .         -9999                         : Missing value
COMP               .                                       : Company
WELL               .         EGBM-009                      : Well name
FLD                .         WILDCAT                       : Field
LOC                .                                       : Location
SRVC               .                                       : Service Company
CTRY               .                                       : Country
DATE               .                                       : Service Date
X                  .                                       : X or East-West coordinate
Y                  .                                       : Y or North South coordinate
GDAT               .                                       : Geodetic Datum
HZCS               .                                       : Horizontal Co-ordinate System
CREATION-TIME      .         2000/8/10 0_0                 : 
FIELD-NAME         .         WILDCAT                       : 
FILE-ID            .         SHELL.001                     : 
FILE-NUMBER        .         1                             : 
FILE-SET-NAME      .                                       : 
FILE-SET-NUMBER    .         0                             : 
FILE-TYPE          .         SHELL                         : 
NAME-SPACE-NAME    .         LIS                           : 
NAME-SPACE-VERSION .         0                             : 
PRODUCER-CODE      .         440                           : 
PRODUCER-NAME      .         Schlumberger                  : 
PRODUCT            .                                       : 
PROGRAMS           .                                       : 
VERSION            .         REV 2.00                      : 
WELL-NAME          .                                       : 
~Parameter Information Block
#_______________________________________________________________________________
#
#PARAMETER_NAME    .UNIT     VALUE                         : DESCRIPTION
#_______________________________________________________________________________
SET                .         SHELL_001_1                   : 
ACQUISITION-PRODUCT .         DLIS/U                        : 
CREATION-TIME      .         2026/5/13 12_40               : 
DLIS_FRAME_DIRECTION .         INCREASING                    : 
DLIS_FRAME_NAME    .         1                             : 
DLIS_FRAME_SPACING .0.1_in   48                            : 
FIELD-NAME         .         WILDCAT                       : 
FILE-ID            .         SHELL.001                     : 
FILE-NUMBER        .         1                             : 
FILE-SET-NAME      .         LIS-TO-DLIS-CONVERSION        : 
FILE-SET-NUMBER    .         12959                         : 
FILE-TYPE          .         SHELL                         : 
INDEX-TYPE         .         BOREHOLE-DEPTH                : 
NAME-SPACE-NAME    .                                       : 
NAME-SPACE-VERSION .         0                             : 
OriginalDatasetName .         1                             : 
PRODUCER-CODE      .         440                           : 
PRODUCER-NAME      .         Schlumberger                  : 
PRODUCT            .         DLIS/U                        : 
PROGRAMS           .         LIS-TO-DLIS                   : 
TLFamily_CALF      .         Caliper                       : 
TLFamily_CGR       .         Gamma Ray                     : 
TLFamily_DEPT      .         Measured Depth                : 
TLFamily_DRHO      .         Bulk Density Correction       : 
TLFamily_NPOR      .         Neutron Porosity              : 
TLFamily_RHOB      .         Bulk Density                  : 
TLFamily_SGR       .         Gamma Ray                     : 
VERSION            .         0.1                           : 
WELL-NAME          .                                       : 
~Curve Information
#_______________________________________________________________________________
#
#LOGNAME           .UNIT     LOG_ID                        : DESCRIPTION
#_______________________________________________________________________________
DEPT               .ft                                     :  {F}
CALF               .in                                     :  {F}
CGR                .gAPI                                   :  {F}
DRHO               .g/cm3                                  :  {F}
NPOR               .                                       :  {F}
RHOB               .g/cm3                                  :  {F}
SGR                .gAPI                                   :  {F}
~Ascii
# ...
4774.4     12.30512   52.82961   0.02911088 42.77036   2.110432   73.63301  
4774.8     12.22845   57.03447   0.02851128 42.78889   2.105427   78.18532  
4775.2     12.64497   86.47386   0.03777951 44.07724   2.099294   99.07425  
4775.6     13.57644   95.77319   0.05254233 46.07384   2.092501   113.6465  
4776       14.20479   99.37225   0.07667083 46.91122   2.08941    122.772   
4776.4     13.84522   101.7712   0.09960943 46.73196   2.093077   117.6783  
4776.8     13.08174   87.36961   0.1085805  46.49221   2.103342   106.2261  
4777.2     12.871     73.55479   0.09859984 43.85323   2.120601   93.94649  
4777.6     13.0042    68.32747   0.07864463 41.18319   2.144819   85.45979  
4778       12.86436   61.86582   0.05270025 40.43504   2.175666   80.07463  
4778.4     12.61762   62.1648    0.05070075 40.78522   2.19968    77.3013   
4778.8     12.48424   61.2636    0.04271296 42.62397   2.20734    75.54417  
4779.2     12.52416   59.53776   0.04570335 44.48222   2.170064   73.93686  
4779.6     12.39855   58.08418   0.05367818 45.30552   2.138565   70.7691   
4780       12.364     54.02765   0.05566637 45.42303   2.099341   69.36212  
4780.4     12.67289   55.12846   0.05566084 44.06286   2.06144    69.59297  
4780.8     12.78716   60.20995   0.05565531 39.83851   2.067723   73.64828  
4781.2     12.61695   65.15677   0.05964039 36.68273   2.09545    80.44057  
4781.6     12.2837    72.96846   0.05963486 34.6759    2.132307   88.55559  
4782       11.6735    75.79814   0.05712634 34.01512   2.143979   92.15379  
4782.4     11.41652   77.59517   0.05164253 34.13549   2.148291   94.22351  
4782.8     11.4681    78.42313   0.05063929 34.26154   2.148427   95.94283  
4783.2     11.56339   80.14989   0.05163137 33.84372   2.156108   98.15039  
4783.6     11.00331   80.67419   0.04936093 33.09433   2.174825   100.589   
4784       10.4611    81.34799   0.03964797 32.64281   2.204883   102.2887  
4784.4     10.16383   80.53964   0.03764696 32.41617   2.228373   102.7726  
4784.8     9.683023   77.97751   0.02666657 32.28411   2.260743   101.4942  
4785.2     9.262384   77.7444    0.02726449 32.04444   2.301093   99.86356  
4785.6     9.185865   78.3432    0.03164359 32.28473   2.338032   98.476    
4786       9.1828     78.942     0.04373205 34.085     2.362545   99.98669  
4786.4     9.18272    79.34755   0.04460263 36.46547   2.369196   101.3214  
4786.8     9.222677   83.72578   0.04559332 42.27744   2.318911   104.0222  
4787.2     9.282047   86.17453   0.04159817 48.06464   2.275728   108.0057  
4787.6     9.287254   90.84271   0.04159251 50.26818   2.238009   111.6372  
4788       9.222399   95.42497   0.04158688 52.88902   2.214319   113.9593  
4788.4     9.18232    97.65549   0.04457676 53.11233   2.204049   116.4522  
4788.8     9.18224    98.75945   0.04984707 53.0526    2.198259   117.282   
4789.2     9.182159   97.44283   0.04855435 52.87288   2.187558   117.5166  
4789.6     9.177774   97.55701   0.04655325 52.66428   2.176514   118.5312  
4790       9.202      99.81329   0.04355415 52.49701   2.167669   120.3626  
4790.4     9.181919   100.5292   0.04155296 52.63906   2.165157   121.8288  
4790.8     9.158381   98.12759   0.04354283 53.09941   2.16515    122.8434  
4791.2     9.14176    97.0556    0.04553291 53.6717    2.165236   124.2264  
4791.6     9.216322   95.1252    0.04852079 53.62048   2.164137   124.2252  
4792       9.34009    95.44533   0.04951303 52.91749   2.158666   123.3354  
4792.4     9.396908   95.63768   0.05150314 52.26527   2.153765   122.7227  
4792.8     9.298754   94.82159   0.04950184 50.51323   2.150947   121.5216  
4793.2     9.201361   91.22002   0.05103394 48.85579   2.153038   119.1132  
4793.6     9.146635   89.32559   0.05182289 46.6707    2.171909   115.7419  
4794       9.078712   88.17514   0.05347663 44.35276   2.192317   111.4009  
4794.4     8.94112    88.2168    0.05646572 42.73336   2.275083   108.3826  
4794.8     8.969131   87.6156    0.06444311 37.30357   2.31957    105.8744  
4795.2     9.02096    85.63072   0.074416   36.01669   2.347978   104.7144  
4795.6     9.02088    83.56993   0.07341257 36.19178   2.356063   104.7132  
4796       9.0408     83.57639   0.06434339 38.83556   2.335725   106.9585  
4796.4     9.06072    88.81052   0.05344084 47.47587   2.309818   109.5687  
4796.8     9.06064    88.8096    0.05343767 49.66842   2.280085   112.4135  
4797.2     9.04056    90.1779    0.05186824 51.98503   2.261965   114.4931  
4797.6     9.020479   89.33026   0.05179964 52.84438   2.251656   116.0238  
4798       9.029999   87.90601   0.05078454 52.9986    2.251031   117.306   
4798.4     8.98032    89.10481   0.0514194  51.47952   2.251025   118.1687  
4798.8     8.940239   92.42497   0.05141388 50.19105   2.251803   119.8892  
4799.2     8.880159   96.00296   0.05182452 49.8195    2.253012   121.8024  
4799.6     8.875414   96.30331   0.05178605 50.29975   2.253006   121.7572  
4800       8.899996   97.79994   0.05139706 52.93997   2.247795   121.5     
4800.4     8.946213   98.25209   0.05139064 53.97775   2.240935   121.1976  
4800.8     8.979679   98.30272   0.0503863  55.10048   2.235992   119.9952  
4801.2     8.941448   97.53021   0.05181462 55.16547   2.235988   118.4928  
4801.6     8.905081   98.15225   0.06234924 54.77865   2.235984   117.5904  
4802       8.8792     95.5215    0.06743416 53.42127   2.23598    118.788   
4802.4     8.87904    93.10999   0.07031983 52.91524   2.234964   119.3856  
4802.8     8.87888    92.52071   0.06968866 51.99619   2.230146   120.145   
4803.2     8.858719   95.9808    0.06587827 51.00963   2.225968   121.1808  
4803.6     8.858559   95.14473   0.06531052 50.10207   2.228964   121.1784  
4804       8.858398   95.67599   0.06731154 49.38784   2.235139   120.026   
4804.4     8.878239   96.57359   0.06928919 48.83263   2.238956   120.6668  
4804.8     8.898081   95.78406   0.06669286 48.22768   2.239952   119.818   
4805.2     8.934502   94.07384   0.06029504 48.08311   2.236846   118.6667  
4805.6     8.937759   95.86821   0.05629593 48.39422   2.231582   117.8189  
4806       8.937599   99.30507   0.05130107 49.47788   2.22677    118.1645  
4806.4     8.937412   103.7607   0.05129474 50.89536   2.226868   121.5347  
4806.8     8.937727   104.0592   0.0550227  52.11751   2.232141   124.7323  
4807.2     8.937119   106.0729   0.05926488 52.82423   2.239923   126.8568  
4807.6     8.948448   106.8997   0.06341012 53.63413   2.248178   126.8544  
4808       8.949463   103.0295   0.06529763 53.62173   2.25092    124.7393  
4808.4     8.953539   102.2496   0.06623128 53.66503   2.250085   122.0496  
4808.8     8.93648    99.21275   0.0602389  53.55356   2.245987   119.5547  
4809.2     8.916279   96.84903   0.05424529 52.9742    2.243908   116.6448  
4809.6     8.876179   95.6424    0.05124354 52.18334   2.247904   115.7424  
4810       8.922821   96.71266   0.04825546 51.67274   2.2489     117.1749  
4810.4     8.935841   97.54025   0.04544824 51.56624   2.247896   118.9263  
4810.8     8.935678   100.1779   0.04324207 52.23869   2.245289   120.7504  
4811.2     8.93552    105.2316   0.04323572 52.82674   2.241478   122.0328  
4811.6     9.055359   106.2584   0.04539204 53.36698   2.243081   122.3304  
4812       8.975208   104.2428   0.04721403 51.68298   2.252673   120.5353  
4812.4     9.075296   102.5256   0.04191258 46.75916   2.266925   120.5264  
4812.8     9.13488    101.6503   0.03722396 40.82758   2.290183   117.2611  
4813.2     9.13472    95.02028   0.02524478 33.92785   2.321305   112.3026  
4813.6     9.094559   91.71782   0.01771681 26.79827   2.370053   107.6104  
4814       9.054399   86.51355   0.01425742 24.56849   2.409859   103.7829  
4814.4     8.91424    81.2135    0.01709486 24.93631   2.443427   99.70151  
4814.8     8.856516   75.57579   0.01986253 26.25287   2.455534   96.76334  
4815.2     8.820238   73.22148   0.02080868 27.71461   2.438027   95.87863  
4815.6     8.803448   75.0229    0.01800776 29.72621   2.405843   97.78285  
