~Version
 VERS              .         3.0                           : CWLS LOG ASCII STANDARD - VERSION 3.0
 WRAP              .         NO                            : ONE LINE PER DEPTH STEP
 DLM               .         SPACE                         : DELIMITING CHARACTER(SPACE TAB OR COMMA)
~Well Information
#_______________________________________________________________________________
#
#PARAMETER_NAME    .UNIT     VALUE                         : DESCRIPTION
#_______________________________________________________________________________
STRT               .ft       3360                          : First reference value
STOP               .ft       6444                          : Last reference value
STEP               .ft       0.4                           : Step increment
NULL               .         -9999                         : Missing value
COMP               .                                       : Company
WELL               .         EGBM-009                      : Well name
FLD                .         WILDCAT                       : Field
LOC                .                                       : Location
SRVC               .                                       : Service Company
CTRY               .                                       : Country
DATE               .                                       : Service Date
X                  .                                       : X or East-West coordinate
Y                  .                                       : Y or North South coordinate
GDAT               .                                       : Geodetic Datum
HZCS               .                                       : Horizontal Co-ordinate System
CREATION-TIME      .         2000/8/10 0_0                 : 
FIELD-NAME         .         WILDCAT                       : 
FILE-ID            .         SHELL.001                     : 
FILE-NUMBER        .         1                             : 
FILE-SET-NAME      .                                       : 
FILE-SET-NUMBER    .         0                             : 
FILE-TYPE          .         SHELL                         : 
NAME-SPACE-NAME    .         LIS                           : 
NAME-SPACE-VERSION .         0                             : 
PRODUCER-CODE      .         440                           : 
PRODUCER-NAME      .         Schlumberger                  : 
PRODUCT            .                                       : 
PROGRAMS           .                                       : 
VERSION            .         REV 2.00                      : 
WELL-NAME          .                                       : 
~Parameter Information Block
#_______________________________________________________________________________
#
#PARAMETER_NAME    .UNIT     VALUE                         : DESCRIPTION
#_______________________________________________________________________________
SET                .         SHELL_001_1                   : 
ACQUISITION-PRODUCT .         DLIS/U                        : 
CREATION-TIME      .         2026/5/13 12_40               : 
DLIS_FRAME_DIRECTION .         INCREASING                    : 
DLIS_FRAME_NAME    .         1                             : 
DLIS_FRAME_SPACING .0.1_in   48                            : 
FIELD-NAME         .         WILDCAT                       : 
FILE-ID            .         SHELL.001                     : 
FILE-NUMBER        .         1                             : 
FILE-SET-NAME      .         LIS-TO-DLIS-CONVERSION        : 
FILE-SET-NUMBER    .         12959                         : 
FILE-TYPE          .         SHELL                         : 
INDEX-TYPE         .         BOREHOLE-DEPTH                : 
NAME-SPACE-NAME    .                                       : 
NAME-SPACE-VERSION .         0                             : 
OriginalDatasetName .         1                             : 
PRODUCER-CODE      .         440                           : 
PRODUCER-NAME      .         Schlumberger                  : 
PRODUCT            .         DLIS/U                        : 
PROGRAMS           .         LIS-TO-DLIS                   : 
TLFamily_CALF      .         Caliper                       : 
TLFamily_CGR       .         Gamma Ray                     : 
TLFamily_DEPT      .         Measured Depth                : 
TLFamily_DRHO      .         Bulk Density Correction       : 
TLFamily_NPOR      .         Neutron Porosity              : 
TLFamily_RHOB      .         Bulk Density                  : 
TLFamily_SGR       .         Gamma Ray                     : 
VERSION            .         0.1                           : 
WELL-NAME          .                                       : 
~Curve Information
#_______________________________________________________________________________
#
#LOGNAME           .UNIT     LOG_ID                        : DESCRIPTION
#_______________________________________________________________________________
DEPT               .ft                                     :  {F}
CALF               .in                                     :  {F}
CGR                .gAPI                                   :  {F}
DRHO               .g/cm3                                  :  {F}
NPOR               .                                       :  {F}
RHOB               .g/cm3                                  :  {F}
SGR                .gAPI                                   :  {F}
~Ascii
# ...
6396       8.309053   70.47627   0.01742515 30.1424    2.153551   92.4949   
6396.4     8.268913   68.20425   0.01742915 30.30352   2.150161   88.62643  
6396.8     8.278379   65.5284    0.01606977 30.80468   2.143968   88.0583   
6397.2     8.294235   64.45421   0.01544109 31.44542   2.147981   91.72183  
6397.6     8.329206   67.4348    0.01245109 31.70155   2.156532   99.77275  
6398       8.34931    77.57294   0.01245509 31.46743   2.167575   103.7774  
6398.4     8.349323   93.37038   0.01708959 31.01221   2.179837   131.5807  
6398.8     8.329264   107.8287   0.02344108 30.59005   2.189075   151.506   
6399.2     8.30423    116.0103   0.02784568 30.38048   2.198606   153.0089  
6399.6     8.26906    114.7153   0.03322019 30.51223   2.205576   152.7108  
6400       8.266409   111.1441   0.03143707 31.22      2.212705   146.0844  
6400.4     8.302898   103.6952   0.02864037 31.66164   2.217      138.7963  
6400.8     8.388142   100.6942   0.02804624 32.12      2.218      135.7272  
6401.2     8.470716   101.8124   0.0260467  32.18      2.216      133.1226  
6401.6     8.491066   101.513    0.02445108 31.54463   2.214      131.6771  
6402       8.433487   100.2062   0.02445108 30.57517   2.221678   132.0695  
6402.4     8.351084   99.5974    0.02824583 30.05474   2.23823    132.0983  
6402.8     8.299334   99.97408   0.03043905 30.78222   2.256431   134.1355  
6403.2     8.291418   102.2352   0.0392286  32.06      2.266      137.0521  
6403.6     8.311773   104.7109   0.05239516 33.98      2.253707   138.257   
6404       8.332125   105.4379   0.08732525 35.06      2.235384   140.365   
6404.4     8.372559   106.2023   0.1083068  35.22863   2.224678   145.2601  
6404.8     8.318979   110.5831   0.1118809  34.77507   2.22885    152.4086  
6405.2     8.120239   115.0765   0.1052893  34.28      2.242103   159.4003  
6405.6     7.759313   124.4801   0.09211227 33.41621   2.249      165.4161  
6406       7.590961   126.1622   0.05139714 32.5569    2.237012   167.2415  
6406.4     7.463187   123.482    0.03003291 32.06      2.225461   165.3851  
6406.8     7.426683   118.6491   0.02345306 31.37926   2.215936   160.3283  
6407.2     7.411277   113.7708   0.02345306 30.86656   2.218646   152.4081  
6407.6     7.391523   105.7538   0.02445108 30.56      2.237303   144.5819  
6408       7.351706   100.8245   0.02644706 30.43825   2.26176    130.3837  
6408.4     7.311891   96.65489   0.03123982 30.33046   2.277979   122.3103  
6408.8     7.312207   90.71111   0.03443116 30.22232   2.279211   120.1095  
6409.2     7.336157   92.51819   0.03303041 30.05488   2.268726   119.6024  
6409.6     7.433216   96.13168   0.02724197 29.84      2.258513   122.0129  
6410       7.453589   101.1479   0.0254491  29.6       2.257292   126.2264  
6410.4     7.453902   109.3759   0.02824583 29.48      2.264071   136.7596  
6410.8     7.474378   121.7146   0.03004454 29.26442   2.268856   151.8055  
6411.2     7.434464   128.3351   0.03283785 28.97733   2.267332   164.5949  
6411.6     7.454836   148.6546   0.036224   28.46      2.260498   177.3185  
6412       7.491999   151.0674   0.03443116 28.28351   2.254      187.775   
6412.4     7.475516   152.2765   0.02864037 28.44551   2.253141   181.4698  
6412.8     7.475796   151.3784   0.02744508 28.79544   2.254      166.7224  
6413.2     7.496194   112.4465   0.02644706 29.14527   2.249457   145.7882  
6413.6     7.496503   89.2325    0.02744508 29.48      2.234      110.8924  
6414       7.533676   78.29756   0.0254491  29.48      2.196785   101.8044  
6414.4     7.644849   71.14395   0.0178596  29.48      2.175479   93.87332  
6414.8     7.804097   69.12285   0.01546904 29.3801    2.155012   90.44189  
6415.2     8.030598   69.38895   0.006684251 29.36      2.142484   90.44405  
6415.6     8.277115   69.99342   0.002901179 29.55733   2.136      92.04137  
6416       8.35321    68.91431   0.003493011 30.08      2.134094   92.89751  
6416.4     8.360832   69.09702   0.003493011 30.43589   2.133      91.73917  
6416.8     8.361113   67.51012   0.003493011 30.45355   2.133      90.88345  
6417.2     8.361391   66.65659   0.002494961 30.074     2.131      89.72528  
6417.6     8.361668   66.38852   0.002494961 29.56107   2.13       89.47699  
6418       8.381994   67.60526   0.0004990101 29.18      2.130047   91.37531  
6418.4     8.402319   71.68344   0.0004990101 29.18      2.133744   93.40372  
6418.8     8.402596   73.51712   0.0008958343 28.94      2.144004   98.93895  
6419.2     8.402872   75.72311   0.005891671 28.94      2.157507   105.0138  
6419.6     8.403149   80.24545   0.010479   28.94      2.170005   112.63    
6420       8.403425   85.35832   0.01147702 29.41093   2.18076    123.8427  
6420.4     8.403702   98.28915   0.009481072 29.18379   2.18906    140.6458  
6420.8     8.403978   105.2054   0.01008218 29.20975   2.197294   153.0064  
6421.2     8.449535   121.9639   0.01147702 29.36      2.2        169.5288  
6421.6     8.485954   140.9658   0.01947853 32.18      2.197089   189.6745  
6422       8.525049   153.8401   0.03245263 34.53803   2.184682   203.2061  
6422.4     8.525322   -9999      0.04043081 35.3       2.175383   210.1228  
6422.8     8.565672   -9999      0.04940119 35.40521   2.172435   212.4622  
6423.2     8.603361   -9999      0.05139714 33.99621   2.182391   212.234   
6423.6     8.743706   -9999      0.03223201 32.621     2.195823   212.8383  
6424       8.709005   -9999      0.02342971 32.56718   2.209064   213.5041  
6424.4     8.526752   -9999      0.01666433 34.26342   2.220874   214.0429  
6424.8     8.454042   -9999      0.01347306 37.16      2.228207   213.4489  
6425.2     8.407022   -9999      0.02485145 40.24207   2.230996   212.3384  
6425.6     8.492682   -9999      0.03245261 41.10028   2.22332    211.3517  
6426       8.627935   -9999      0.03742516 40.87263   2.205071   211.1687  
6426.4     8.648237   -9999      0.03742516 40.07163   2.185115   212.8598  
6426.8     8.64168    -9999      0.03642711 39.3655    2.172013   214.3648  
6427.2     8.60874    -9999      0.04940119 39.88528   2.175284   219.0623  
6427.6     8.654873   -9999      0.07335326 41.2781    2.191044   220.3813  
6428       8.711151   -9999      0.1292414  42.57042   2.207      -9999     
6428.4     8.769745   -9999      0.1412176  42.85256   2.21651    -9999     
6428.8     8.749981   -9999      0.13762    42.14723   2.216686   -9999     
6429.2     8.658691   -9999      0.1092461  41.34493   2.210849   -9999     
6429.6     8.630352   -9999      0.05638719 40.92738   2.207793   -9999     
6430       8.59057    -9999      0.04041913 40.88      2.218445   -9999     
6430.4     8.570816   -9999      0.04940119 40.88      2.22995    -9999     
6430.8     8.704634   -9999      0.09950568 40.92949   2.23824    -9999     
6431.2     8.910955   -9999      0.1390359  41.66386   2.24       -9999     
6431.6     9.26207    -9999      0.1901197  43.18829   2.236137   -9999     
6432       9.552967   -9999      0.2170659  44.36503   2.222532   -9999     
6432.4     9.517757   -9999      0.2180639  45.2       2.2086     -9999     
6432.8     9.556423   -9999      0.2164647  44.27656   2.198545   -9999     
6433.2     9.731621   -9999      0.2040917  41.10649   2.197267   -9999     
6433.6     9.954283   -9999      0.1741517  38         2.209989   -9999     
6434       9.859509   -9999      0.1432136  35         2.231844   -9999     
6434.4     9.294201   -9999      0.1262475  34.16566   2.249434   -9999     
6434.8     9.094284   -9999      0.1132501  32.52903   2.250534   -9999     
6435.2     9.014412   -9999      0.1102795  30.87569   2.242774   -9999     
6435.6     9.012438   -9999      0.1022955  30.39926   2.235078   -9999     
6436       8.984964   -9999      0.09530926 30.25681   2.230254   -9999     
6436.4     8.762978   -9999      0.06636727 30.65778   2.2273     -9999     
6436.8     8.415039   -9999      0.05339319 31.06721   2.214707   -9999     
6437.2     8.275227   -9999      0.04141715 31.64022   2.198042   -9999     
