~Version
 VERS              .         3.0                           : CWLS LOG ASCII STANDARD - VERSION 3.0
 WRAP              .         NO                            : ONE LINE PER DEPTH STEP
 DLM               .         SPACE                         : DELIMITING CHARACTER(SPACE TAB OR COMMA)
~Well Information
#_______________________________________________________________________________
#
#PARAMETER_NAME    .UNIT     VALUE                         : DESCRIPTION
#_______________________________________________________________________________
STRT               .ft       3360                          : First reference value
STOP               .ft       6444                          : Last reference value
STEP               .ft       0.4                           : Step increment
NULL               .         -9999                         : Missing value
COMP               .                                       : Company
WELL               .         EGBM-009                      : Well name
FLD                .         WILDCAT                       : Field
LOC                .                                       : Location
SRVC               .                                       : Service Company
CTRY               .                                       : Country
DATE               .                                       : Service Date
X                  .                                       : X or East-West coordinate
Y                  .                                       : Y or North South coordinate
GDAT               .                                       : Geodetic Datum
HZCS               .                                       : Horizontal Co-ordinate System
CREATION-TIME      .         2000/8/10 0_0                 : 
FIELD-NAME         .         WILDCAT                       : 
FILE-ID            .         SHELL.001                     : 
FILE-NUMBER        .         1                             : 
FILE-SET-NAME      .                                       : 
FILE-SET-NUMBER    .         0                             : 
FILE-TYPE          .         SHELL                         : 
NAME-SPACE-NAME    .         LIS                           : 
NAME-SPACE-VERSION .         0                             : 
PRODUCER-CODE      .         440                           : 
PRODUCER-NAME      .         Schlumberger                  : 
PRODUCT            .                                       : 
PROGRAMS           .                                       : 
VERSION            .         REV 2.00                      : 
WELL-NAME          .                                       : 
~Parameter Information Block
#_______________________________________________________________________________
#
#PARAMETER_NAME    .UNIT     VALUE                         : DESCRIPTION
#_______________________________________________________________________________
SET                .         SHELL_001_1                   : 
ACQUISITION-PRODUCT .         DLIS/U                        : 
CREATION-TIME      .         2026/5/13 12_40               : 
DLIS_FRAME_DIRECTION .         INCREASING                    : 
DLIS_FRAME_NAME    .         1                             : 
DLIS_FRAME_SPACING .0.1_in   48                            : 
FIELD-NAME         .         WILDCAT                       : 
FILE-ID            .         SHELL.001                     : 
FILE-NUMBER        .         1                             : 
FILE-SET-NAME      .         LIS-TO-DLIS-CONVERSION        : 
FILE-SET-NUMBER    .         12959                         : 
FILE-TYPE          .         SHELL                         : 
INDEX-TYPE         .         BOREHOLE-DEPTH                : 
NAME-SPACE-NAME    .                                       : 
NAME-SPACE-VERSION .         0                             : 
OriginalDatasetName .         1                             : 
PRODUCER-CODE      .         440                           : 
PRODUCER-NAME      .         Schlumberger                  : 
PRODUCT            .         DLIS/U                        : 
PROGRAMS           .         LIS-TO-DLIS                   : 
TLFamily_CALF      .         Caliper                       : 
TLFamily_CGR       .         Gamma Ray                     : 
TLFamily_DEPT      .         Measured Depth                : 
TLFamily_DRHO      .         Bulk Density Correction       : 
TLFamily_NPOR      .         Neutron Porosity              : 
TLFamily_RHOB      .         Bulk Density                  : 
TLFamily_SGR       .         Gamma Ray                     : 
VERSION            .         0.1                           : 
WELL-NAME          .                                       : 
~Curve Information
#_______________________________________________________________________________
#
#LOGNAME           .UNIT     LOG_ID                        : DESCRIPTION
#_______________________________________________________________________________
DEPT               .ft                                     :  {F}
CALF               .in                                     :  {F}
CGR                .gAPI                                   :  {F}
DRHO               .g/cm3                                  :  {F}
NPOR               .                                       :  {F}
RHOB               .g/cm3                                  :  {F}
SGR                .gAPI                                   :  {F}
~Ascii
# ...
6188       9.3424     98.20743   0.07734519 51.96796   2.302497   123.936   
6188.4     9.322319   97.1723    0.08936918 52.03496   2.305327   123.9348  
6188.8     9.411581   99.93361   0.09930137 52.27802   2.3111     123.9336  
6189.2     9.561142   99.9324    0.1117828  52.56652   2.308649   123.0324  
6189.6     9.642078   99.33121   0.1099772  52.79507   2.300252   121.2594  
6190       9.662001   100.0294   0.1052893  52.84274   2.296504   121.7567  
6190.4     9.675386   101.1288   0.09431124 53.37205   2.292507   122.1288  
6190.8     9.558264   101.9561   0.09147201 53.66089   2.290509   122.3263  
6191.2     9.421211   103.3134   0.08832327 53.65836   2.288511   122.7264  
6191.6     9.324291   103.9539   0.08504876 53.22945   2.284515   122.7252  
6192       9.3016     103.2243   0.08333334 52.88377   2.284614   122.5039  
6192.4     9.281519   101.394    0.08333334 52.20182   2.294219   121.3538  
6192.8     9.2673     101.1216   0.08899096 51.67693   2.308096   120.9216  
6193.2     9.32136    100.8201   0.09178193 51.22675   2.323158   119.7825  
6193.6     9.378233   100.3344   0.09530926 50.6862    2.330579   119.4092  
6194       9.516857   97.27513   0.09830335 50.39975   2.332468   117.6588  
6194.4     9.541119   97.5168    0.09930137 50.47652   2.329762   117.8142  
6194.8     9.581039   97.51628   0.1012974  50.7038    2.323412   118.2156  
6195.2     9.679518   98.57774   0.09530926 50.83617   2.31375    119.1142  
6195.6     9.660879   99.77505   0.09306943 50.83617   2.304093   119.4132  
6196       9.680799   100.8126   0.08928046 50.99221   2.294506   119.412   
6196.4     9.70072    99.56784   0.08565386 51.26999   2.284761   119.1108  
6196.8     9.802197   98.1142    0.07734519 51.73188   2.27782    118.074   
6197.2     9.80056    97.26591   0.07435128 52.84052   2.275524   117.3084  
6197.6     9.760479   97.2072    0.07257713 53.75341   2.280805   116.4072  
6198       9.7204     96.1754    0.07436879 54.52353   2.288719   115.2273  
6198.4     9.693905   95.1048    0.07915564 54.81203   2.296325   114.3048  
6198.8     9.66024    95.40359   0.07934123 54.59209   2.300105   113.7036  
6199.2     9.580799   94.80237   0.07653283 53.45264   2.301498   112.622   
6199.6     9.50008    92.1792    0.06936115 52.26259   2.301498   112.2636  
6200       9.460007   91.63322   0.07035917 51.21498   2.301498   112.5     
6200.4     9.468145   90.7903    0.07235521 49.99826   2.300497   112.8009  
6200.8     9.480057   90.30144   0.0739509  49.81722   2.297907   113.2324  
6201.2     9.480085   90.30215   0.0753493  50.15205   2.290088   112.3898  
6201.6     9.53512    90.30289   0.07454854 50.46445   2.284049   111.6035  
6202       9.569494   89.83495   0.0753493  50.86234   2.279469   111.6044  
6202.4     9.52017    89.29276   0.0745497  51.19775   2.281159   112.1342  
6202.8     9.372477   88.50494   0.07435128 51.02718   2.293199   113.1063  
6203.2     9.279785   88.20564   0.07075374 49.9971    2.310363   114.0073  
6203.6     9.260237   87.60631   0.06217682 48.17459   2.330466   114.9082  
6204       9.300266   88.67355   0.05239516 47.36659   2.342689   116.0569  
6204.4     9.347717   89.50533   0.05239516 47.04274   2.346433   117.6103  
6204.8     9.42033    90.00864   0.05677588 47.75241   2.341095   119.5063  
6205.2     9.381466   90.00934   0.06936704 48.2588    2.337582   120.0932  
6205.6     9.320374   90.91017   0.08452863 47.69563   2.34703    121.6737  
6206       9.289103   91.51076   0.09830335 47.00001   2.36804    122.2995  
6206.4     9.320427   94.89607   0.1196699  46.22458   2.390998   123.7271  
6206.8     9.362831   98.02159   0.1318351  46.58439   2.399374   125.1942  
6207.2     9.418238   101.5779   0.1332335  47.17983   2.388772   126.6182  
6207.6     9.506235   103.8987   0.1252495  48.31879   2.366508   127.8194  
6208       9.619905   103.7953   0.1032933  49.15801   2.343753   126.9781  
6208.4     9.902075   102.6171   0.08157536 49.56579   2.326378   126.3212  
6208.8     9.984087   98.17514   0.07874358 49.97449   2.314716   125.122   
6209.2     9.92783    97.40277   0.07435128 49.84004   2.304252   123.9228  
6209.6     9.880747   98.11882   0.07694261 49.09811   2.296455   123.3237  
6210       9.920797   97.21944   0.08732525 46.04086   2.293456   123.3246  
6210.4     9.816793   96.31261   0.09830335 39.3331    2.319018   123.6252  
6210.8     9.360727   94.90836   0.0993014  34.11802   2.351648   123.6518  
6211.2     9.227695   93.92104   0.08932132 31.18084   2.381466   124.4853  
6211.6     9.146553   94.95248   0.07634735 31.54066   2.394358   124.8289  
6212       9.140755   96.14032   0.06936115 33.57897   2.39297    126.6304  
6212.4     9.309885   98.12418   0.07734516 37.83556   2.388361   127.8319  
6212.8     9.38068    97.30008   0.09689336 41.55242   2.389358   128.4091  
6213.2     9.360889   96.02534   0.1212574  47.18872   2.392354   127.3119  
6213.6     9.280893   94.22562   0.1276399  47.41963   2.388205   125.5605  
6214       9.28092    94.82655   0.1342316  49.33799   2.378933   123.6476  
6214.4     9.409672   96.01239   0.1232884  49.81759   2.359557   124.2357  
6214.8     9.518995   98.03552   0.1136855  49.78836   2.339666   124.5306  
6215.2     9.65374    98.73      0.1004967  49.45791   2.311158   124.8379  
6215.6     9.788601   98.35115   0.09730533 49.64539   2.290742   124.368   
6216       9.871695   97.76662   0.09630731 50.25425   2.277368   121.5762  
6216.4     10.02132   95.7807    0.100101   50.74364   2.268247   118.2388  
6216.8     10.16531   91.94376   0.110877   51.10884   2.267835   115.7339  
6217.2     10.30148   89.32742   0.1114747  51.19653   2.271605   113.1273  
6217.6     10.2529    87.93095   0.1052893  51.06284   2.272477   112.5396  
6218       10.06123   87.23788   0.0993014  50.58026   2.268906   113.3257  
6218.4     10.00488   86.76717   0.08732525 49.99755   2.264865   114.4558  
6218.8     9.981497   89.08737   0.08173764 49.1143    2.261437   115.8436  
6219.2     10.00975   90.03456   0.07255952 48.31277   2.262764   117.013   
6219.6     10.02551   90.33566   0.07035917 47.86346   2.273258   118.632   
6220       10.02184   92.51631   0.0673652  47.3344    2.297402   120.166   
6220.4     10.14169   96.23305   0.06337318 46.69016   2.324705   121.2495  
6220.8     9.977989   100.0958   0.06516613 46.53284   2.358967   123.8801  
6221.2     9.783127   101.3071   0.07335326 46.41318   2.391586   127.0076  
6221.6     9.675611   105.3207   0.0797381  46.24197   2.411305   131.2369  
6222       9.639589   107.5396   0.08433136 46.2338    2.418353   134.1512  
6222.4     9.621622   109.3784   0.08452979 46.23403   2.412301   136.176   
6222.8     9.734657   111.0504   0.08033925 47.06872   2.402843   139.8634  
6223.2     9.869541   114.9142   0.07894085 47.71874   2.394641   145.4979  
6223.6     9.841814   117.0014   0.07834321 48.42832   2.393025   151.6104  
6224       9.720594   119.3584   0.07934123 46.56629   2.402739   156.0029  
6224.4     9.505257   120.9338   0.09031934 39.99998   2.413862   157.2388  
6224.8     9.406937   120.089    0.1042913  36.58265   2.429037   157.8351  
6225.2     9.341684   117.8825   0.1186368  31.96637   2.442249   155.0203  
6225.6     9.281681   112.444    0.1278372  32.53281   2.448354   150.0767  
6226       9.201664   110.9014   0.1352296  34.42496   2.453123   145.5757  
6226.4     9.201691   110.0572   0.1352296  35.41472   2.455254   143.4757  
6226.8     9.197367   112.3192   0.1176775  35.60614   2.454253   141.8924  
6227.2     9.221752   115.7929   0.08732525 33.95155   2.446989   141.6771  
6227.6     9.234751   116.3278   0.06616883 31.75615   2.438169   141.9784  
6228       9.11796    116.7649   0.02245504 29.989     2.435263   142.5798  
6228.4     8.940588   117.0983   0.007485002 28.37101   2.439601   142.8811  
6228.8     8.839355   117.0385   0.01147702 29.68957   2.452486   143.12    
6229.2     8.781624   117.6687   0.02644706 32.92849   2.465544   142.5804  
