~Version
 VERS              .         3.0                           : CWLS LOG ASCII STANDARD - VERSION 3.0
 WRAP              .         NO                            : ONE LINE PER DEPTH STEP
 DLM               .         SPACE                         : DELIMITING CHARACTER(SPACE TAB OR COMMA)
~Well Information
#_______________________________________________________________________________
#
#PARAMETER_NAME    .UNIT     VALUE                         : DESCRIPTION
#_______________________________________________________________________________
STRT               .ft       4750                          : First reference value
STOP               .ft       6400                          : Last reference value
STEP               .ft       0.5                           : Step increment
NULL               .         -9999                         : Missing value
COMP               .                                       : Company
WELL               .         EGBM-004                      : Well name
FLD                .         WILDCAT                       : Field
LOC                .                                       : Location
SRVC               .                                       : Service Company
CTRY               .                                       : Country
DATE               .                                       : Service Date
X                  .                                       : X or East-West coordinate
Y                  .                                       : Y or North South coordinate
GDAT               .                                       : Geodetic Datum
HZCS               .                                       : Horizontal Co-ordinate System
CREATION-TIME      .         2000/8/11 0_0                 : 
FIELD-NAME         .         WILDCAT                       : 
FILE-ID            .         SHELL.001                     : 
FILE-NUMBER        .         1                             : 
FILE-SET-NAME      .                                       : 
FILE-SET-NUMBER    .         0                             : 
FILE-TYPE          .         SHELL                         : 
NAME-SPACE-NAME    .         LIS                           : 
NAME-SPACE-VERSION .         0                             : 
PRODUCER-CODE      .         440                           : 
PRODUCER-NAME      .         Schlumberger                  : 
PRODUCT            .                                       : 
PROGRAMS           .                                       : 
VERSION            .         REV 2.00                      : 
WELL-NAME          .                                       : 
~Parameter Information Block
#_______________________________________________________________________________
#
#PARAMETER_NAME    .UNIT     VALUE                         : DESCRIPTION
#_______________________________________________________________________________
SET                .         SHELL_001_1                   : 
ACQUISITION-PRODUCT .         DLIS/U                        : 
CREATION-TIME      .         2026/5/13 10_33               : 
DLIS_FRAME_DIRECTION .         INCREASING                    : 
DLIS_FRAME_NAME    .         1                             : 
DLIS_FRAME_SPACING .0.1_in   60                            : 
FIELD-NAME         .         WILDCAT                       : 
FILE-ID            .         SHELL.001                     : 
FILE-NUMBER        .         1                             : 
FILE-SET-NAME      .         LIS-TO-DLIS-CONVERSION        : 
FILE-SET-NUMBER    .         1254                          : 
FILE-TYPE          .         SHELL                         : 
INDEX-TYPE         .         BOREHOLE-DEPTH                : 
NAME-SPACE-NAME    .                                       : 
NAME-SPACE-VERSION .         0                             : 
OriginalDatasetName .         1                             : 
PRODUCER-CODE      .         440                           : 
PRODUCER-NAME      .         Schlumberger                  : 
PRODUCT            .         DLIS/U                        : 
PROGRAMS           .         LIS-TO-DLIS                   : 
TLFamily_CALM      .         Caliper                       : 
TLFamily_DEPT      .         Measured Depth                : 
TLFamily_MINV      .         Resistivity - Micro           : 
TLFamily_MNOR      .         Resistivity - Micro           : 
VERSION            .         0.1                           : 
WELL-NAME          .                                       : 
~Curve Information
#_______________________________________________________________________________
#
#LOGNAME           .UNIT     LOG_ID                        : DESCRIPTION
#_______________________________________________________________________________
DEPT               .ft                                     :  {F}
CALM               .in                                     :  {F}
MINV               .ohm.m                                  :  {F}
MNOR               .ohm.m                                  :  {F}
~Ascii
# ...
4841       9.504107   1.381074   1.927556  
4841.5     9.428303   1.706625   2.356036  
4842       9.586945   1.076465   1.905262  
4842.5     9.76182    1.616737   1.964242  
4843       10.07513   1.148225   1.770092  
4843.5     10.00121   1.119998   1.632966  
4844       9.934269   1.237077   1.880646  
4844.5     10.07003   1.150824   1.750538  
4845       9.759018   1.096379   1.668792  
4845.5     9.513416   2.087676   1.968019  
4846       9.873344   1.226236   1.826829  
4846.5     10.00341   1.181842   1.737306  
4847       9.979731   1.115419   1.603046  
4847.5     9.875397   1.164281   1.645344  
4848       9.649073   1.221918   1.686693  
4848.5     9.673946   1.531724   1.971043  
4849       9.774788   1.15025    1.798849  
4849.5     9.478323   1.239393   1.701753  
4850       9.486992   1.148466   1.640932  
4850.5     9.485241   1.210167   1.757296  
4851       9.310135   1.578446   2.208388  
4851.5     9.24128    1.776105   2.475092  
4852       9.239538   1.635036   2.20406   
4852.5     9.270397   1.431037   2.106762  
4853       9.3277     1.633141   2.432201  
4853.5     9.404686   1.486144   2.167288  
4854       9.501488   1.438119   1.99674   
4854.5     9.511456   1.506025   2.030358  
4855       9.404205   1.627073   2.289006  
4855.5     9.258123   2.44807    2.717677  
4856       9.513166   2.057932   2.139499  
4856.5     9.649473   2.187038   2.256512  
4857       9.801218   1.287154   1.861826  
4857.5     9.601284   1.49142    1.845867  
4858       9.499981   1.844611   2.37631   
4858.5     9.548306   1.494045   2.591896  
4859       9.49585    1.813402   2.37266   
4859.5     9.518658   4.179346   4.019162  
4860       9.552526   10.12982   10.09986  
4860.5     9.570841   10.12881   10.09886  
4861       9.569109   10.12781   10.08787  
4861.5     9.587425   10.12681   10.07865  
4862       9.587547   10.12581   10.07589  
4862.5     9.58396    10.12481   10.0649   
4863       9.519941   10.05386   10.05392  
4863.5     9.193321   2.095367   3.543097  
4864       9.12471    1.641291   2.510695  
4864.5     9.210758   1.586019   2.482878  
4865       9.263121   1.572576   2.438173  
4865.5     9.553511   1.393731   1.916001  
4866       9.511671   1.362167   1.402438  
4866.5     9.46983    1.251523   1.278351  
4867       9.448503   1.213559   1.213559  
4867.5     9.506468   1.104872   1.10069   
4868       9.504732   1.119275   1.049602  
4868.5     9.4636     1.058559   1.018628  
4869       9.462221   1.077703   1.017809  
4869.5     9.359138   1.095414   1.016991  
4870       9.317287   1.125973   1.00619   
4870.5     9.295374   1.125153   0.955461  
4871       9.213526   1.11435    0.9697613 
4871.5     9.211786   1.12351    0.9937509 
4872       9.25016    1.051609   0.9729705 
4872.5     9.308596   1.01352    0.9621714 
4873       9.247515   1.021239   0.9479676 
4873.5     9.264397   1.009579   0.950557  
4874       9.180347   1.077464   0.8796182 
4874.5     9.201342   1.162011   0.8893248 
4875       9.259779   1.13457    1.137818  
4875.5     9.419415   1.227229   1.227229  
4876       9.550373   1.261184   1.250646  
4876.5     9.595602   1.189495   1.189495  
4877       9.613932   1.158319   1.158319  
4877.5     9.612198   1.100585   1.063731  
4878       9.570341   1.188083   1.154617  
4878.5     9.496189   1.273843   1.271733  
4879       9.526745   1.105213   1.037554  
4879.5     9.545073   1.09696    1.010596  
4880       9.543339   1.032229   0.9598887 
4880.5     9.532034   1.052954   0.9590712 
4881       9.53001    1.028097   0.958254  
4881.5     9.538136   1.047233   0.9674133 
4882       9.486294   1.047481   0.8967557 
4882.5     9.514599   1.025642   0.9458252 
4883       9.512863   1.031703   0.945008  
4883.5     9.502222   1.033981   0.9441912 
4884       9.529459   1.053115   0.9333978 
4884.5     9.507656   0.9878711  0.9026526 
4885       9.477659   1.051476   0.9018365 
4885.5     9.429352   1.050658   0.9010205 
4886       9.48238    1.036079   0.8986474 
4886.5     9.527395   1.035203   0.8794364 
4887       9.498978   1.028251   0.8786212 
4887.5     9.517311   1.027432   0.8778063 
4888       9.515575   0.9955163  0.8670168 
4888.5     9.393414   1.015821   0.8662015 
4889       9.417099   1.024977   0.8653862 
4889.5     9.43008    1.034133   0.8645713 
4890       9.508633   0.9834449  0.8914292 
4890.5     9.550732   1.018141   0.9864858 
4891       9.588352   1.046579   0.9818101 
4891.5     9.60379    1.079593   1.060273  
4892       9.538984   1.20956    1.172492  
4892.5     9.370369   1.173379   1.132157  
4893       9.257318   1.12475    1.038377  
4893.5     9.300484   1.179598   1.18715   
4894       9.531767   1.216245   1.186328  
4894.5     9.369343   1.19346    1.185507  
4895       9.350735   1.204629   1.174713  
4895.5     9.224138   1.107693   1.107693  
4896       9.086252   1.009547   1.009547  
4896.5     9.084509   1.002525   0.850281  
4897       9.167137   1.021859   0.902205  
4897.5     9.241644   1.050956   0.901389  
4898       9.239902   0.9552945  0.9005738 
4898.5     9.25824    0.9705498  0.8957467 
4899       9.358242   1.002797   0.9538395 
4899.5     9.475636   0.9778894  0.888157  
4900       9.514057   0.9670985  0.9421145 
4900.5     9.53253    0.9878845  0.8398817 
4901       9.490763   1.005204   0.8357093 
4901.5     9.51079    1.074452   0.8850595 
4902       9.547791   1.961022   1.900774  
4902.5     9.626505   1.680889   1.720469  
4903       9.685141   2.38791    2.347891  
4903.5     9.884336   5.557596   4.799847  
4904       9.882729   10.10345   10.08336  
4904.5     9.921286   10.05264   10.08259  
4905       9.884151   1.995212   2.822764  
4905.5     9.495586   1.870087   2.253524  
4906       9.956024   2.022027   2.621362  
4906.5     9.955019   2.092418   2.451307  
4907       9.953413   8.911541   8.891869  
4907.5     9.911646   8.831383   8.841351  
4908       9.566792   9.798159   10.07705  
4908.5     9.306023   1.49048    2.377603  
4909       9.754238   1.234059   1.602256  
4909.5     10.38946   1.06443    1.429631  
4910       10.53662   1.094078   1.306484  
4910.5     10.27163   1.187784   1.307479  
4911       9.699598   1.281664   1.625638  
4911.5     9.4335     1.303352   1.764342  
4912       9.274698   1.332696   1.700855  
4912.5     9.212851   1.383692   1.872349  
4913       9.191164   1.283082   1.801661  
4913.5     9.189558   1.510684   2.139422  
4914       9.18795    2.019192   2.278866  
4914.5     9.273203   1.44262    1.788989  
4915       9.258127   1.312634   1.803884  
4915.5     9.223291   1.338497   1.791172  
4916       9.15284    1.269552   1.732253  
4916.5     9.24016    1.197102   1.63593   
4917       9.238552   1.201578   1.625076  
4917.5     9.236948   1.230119   1.671098  
4918       9.255421   1.224366   1.683155  
4918.5     9.233734   1.219042   1.709914  
4919       9.232126   1.252517   1.721289  
4919.5     9.250601   1.241657   1.767972  
4920       9.248995   1.26072    1.759424  
4920.5     9.247389   1.280183   1.786204  
4921       9.225702   1.318343   1.854293  
4921.5     9.284336   1.40768    2.001012  
4922       9.477682   1.416772   2.045163  
4922.5     9.624519   1.320671   1.946535  
4923       9.983728   1.218717   1.704119  
4923.5     9.958729   1.114879   1.573743  
4924       9.898794   1.173842   1.503012  
4924.5     10.00126   1.32281    1.552004  
4925       10.09555   1.032476   1.474041  
4925.5     9.928089   1.126406   1.464383  
4926       9.576164   1.137877   1.529406  
4926.5     9.477949   1.197376   1.537939  
4927       9.387148   1.240788   1.675967  
4927.5     9.375023   1.267207   1.596478  
4928       9.230896   1.285291   1.645748  
4928.5     9.181524   1.338898   1.804146  
4929       9.179918   1.254763   1.762878  
4929.5     9.09799    1.324893   1.832141  
4930       9.157349   1.472637   2.073715  
4930.5     9.457609   10.07108   10.07094  
4931       9.5751     10.01004   10.12016  
4931.5     9.482294   6.956786   8.014349  
