~Version
 VERS              .         3.0                           : CWLS LOG ASCII STANDARD - VERSION 3.0
 WRAP              .         NO                            : ONE LINE PER DEPTH STEP
 DLM               .         SPACE                         : DELIMITING CHARACTER(SPACE TAB OR COMMA)
~Well Information
#_______________________________________________________________________________
#
#PARAMETER_NAME    .UNIT     VALUE                         : DESCRIPTION
#_______________________________________________________________________________
STRT               .ft       4750                          : First reference value
STOP               .ft       6400                          : Last reference value
STEP               .ft       0.5                           : Step increment
NULL               .         -9999                         : Missing value
COMP               .                                       : Company
WELL               .         EGBM-004                      : Well name
FLD                .         WILDCAT                       : Field
LOC                .                                       : Location
SRVC               .                                       : Service Company
CTRY               .                                       : Country
DATE               .                                       : Service Date
X                  .                                       : X or East-West coordinate
Y                  .                                       : Y or North South coordinate
GDAT               .                                       : Geodetic Datum
HZCS               .                                       : Horizontal Co-ordinate System
CREATION-TIME      .         2000/8/11 0_0                 : 
FIELD-NAME         .         WILDCAT                       : 
FILE-ID            .         SHELL.001                     : 
FILE-NUMBER        .         1                             : 
FILE-SET-NAME      .                                       : 
FILE-SET-NUMBER    .         0                             : 
FILE-TYPE          .         SHELL                         : 
NAME-SPACE-NAME    .         LIS                           : 
NAME-SPACE-VERSION .         0                             : 
PRODUCER-CODE      .         440                           : 
PRODUCER-NAME      .         Schlumberger                  : 
PRODUCT            .                                       : 
PROGRAMS           .                                       : 
VERSION            .         REV 2.00                      : 
WELL-NAME          .                                       : 
~Parameter Information Block
#_______________________________________________________________________________
#
#PARAMETER_NAME    .UNIT     VALUE                         : DESCRIPTION
#_______________________________________________________________________________
SET                .         SHELL_001_1                   : 
ACQUISITION-PRODUCT .         DLIS/U                        : 
CREATION-TIME      .         2026/5/13 10_33               : 
DLIS_FRAME_DIRECTION .         INCREASING                    : 
DLIS_FRAME_NAME    .         1                             : 
DLIS_FRAME_SPACING .0.1_in   60                            : 
FIELD-NAME         .         WILDCAT                       : 
FILE-ID            .         SHELL.001                     : 
FILE-NUMBER        .         1                             : 
FILE-SET-NAME      .         LIS-TO-DLIS-CONVERSION        : 
FILE-SET-NUMBER    .         1254                          : 
FILE-TYPE          .         SHELL                         : 
INDEX-TYPE         .         BOREHOLE-DEPTH                : 
NAME-SPACE-NAME    .                                       : 
NAME-SPACE-VERSION .         0                             : 
OriginalDatasetName .         1                             : 
PRODUCER-CODE      .         440                           : 
PRODUCER-NAME      .         Schlumberger                  : 
PRODUCT            .         DLIS/U                        : 
PROGRAMS           .         LIS-TO-DLIS                   : 
TLFamily_CALM      .         Caliper                       : 
TLFamily_DEPT      .         Measured Depth                : 
TLFamily_MINV      .         Resistivity - Micro           : 
TLFamily_MNOR      .         Resistivity - Micro           : 
VERSION            .         0.1                           : 
WELL-NAME          .                                       : 
~Curve Information
#_______________________________________________________________________________
#
#LOGNAME           .UNIT     LOG_ID                        : DESCRIPTION
#_______________________________________________________________________________
DEPT               .ft                                     :  {F}
CALM               .in                                     :  {F}
MINV               .ohm.m                                  :  {F}
MNOR               .ohm.m                                  :  {F}
~Ascii
# ...
6024       8.931726   1.39313    2.043868  
6024.5     8.911646   1.308996   1.908275  
6025       8.894501   1.365902   2.075644  
6025.5     8.911646   1.402791   2.085742  
6026       8.911646   1.292827   1.987292  
6026.5     8.911646   1.31611    1.91672   
6027       8.911646   1.405724   2.166793  
6027.5     8.914934   1.246261   1.96616   
6028       8.951805   1.272417   1.938537  
6028.5     8.971888   1.280019   1.861374  
6029       8.951805   1.318162   1.984047  
6029.5     8.991966   1.310104   1.990228  
6030       9.052208   1.389889   2.153539  
6030.5     9.04845    1.407493   1.913667  
6031       8.951805   1.267257   1.844466  
6031.5     8.931726   1.266201   1.814556  
6032       8.911646   1.305323   1.93795   
6032.5     8.911646   1.414931   2.113658  
6033       8.911646   1.316403   1.934197  
6033.5     8.911646   1.345787   2.018015  
6034       8.915638   1.370887   2.033898  
6034.5     8.951805   1.311242   2.042294  
6035       8.976021   1.326021   2.069497  
6035.5     8.99622    1.501227   2.12415   
6036       9.056669   1.515453   2.063808  
6036.5     9.076777   1.576556   2.203389  
6037       9.237745   1.532545   2.093718  
6037.5     9.473894   1.13659    1.824526  
6038       9.308084   1.176471   1.405782  
6038.5     8.98727    1.516333   2.023928  
6039       8.951805   1.355932   1.954137  
6039.5     8.951805   1.355932   1.955193  
6040       8.996809   1.422028   2.103688  
6040.5     9.052208   1.425723   1.764705  
6041       9.057257   1.425723   1.890294  
6041.5     9.092369   1.402459   2.053837  
6042       9.249586   1.369069   1.871913  
6042.5     9.347658   1.326896   1.748718  
6043       9.307497   1.387836   1.834496  
6043.5     9.253012   1.271628   1.731276  
6044       9.419678   1.310687   1.724825  
6044.5     9.493975   1.473718   1.627998  
6045       9.493975   1.435692   1.435692  
6045.5     9.473894   1.505484   1.605184  
6046       9.493975   1.423391   1.742083  
6046.5     9.507479   1.415753   1.684944  
6047       9.540829   1.513366   1.56471   
6047.5     9.574297   1.565304   1.565304  
6048       9.594378   1.541376   1.555333  
6048.5     9.594378   1.543487   1.543487  
6049       9.607294   1.490645   1.790534  
6049.5     9.614456   1.565304   1.802661  
6050       9.614454   1.478504   1.738292  
6050.5     9.594307   1.425624   1.673021  
6051       9.594234   1.367452   1.65683   
6051.5     9.574081   1.407571   1.622669  
6052       9.579882   1.560358   1.560358  
6052.5     9.573938   1.579762   1.614686  
6053       9.53371    1.445065   1.663417  
6053.5     9.493484   1.587445   1.674256  
6054       9.477564   1.456527   1.714058  
6054.5     9.433115   1.557643   1.690695  
6055       9.493275   1.700915   1.693946  
6055.5     9.442541   1.644664   1.71377   
6056       9.51321    1.525342   1.525342  
6056.5     9.573364   1.448215   1.448215  
6057       9.573292   1.504088   1.504088  
6057.5     9.593294   1.428426   1.428426  
6058       9.593224   1.465168   1.465168  
6058.5     9.614632   1.384148   1.384148  
6059       9.613152   1.423929   1.423929  
6059.5     9.612379   1.418902   1.418902  
6060       9.572863   1.45364    1.45364   
6060.5     9.57279    1.51336    1.51336   
6061       9.592791   1.388171   1.388171  
6061.5     9.592718   1.409146   1.409146  
6062       9.674807   1.330976   1.330976  
6062.5     9.612644   1.29362    1.29362   
6063       9.632641   1.317286   1.317286  
6063.5     9.612499   1.349626   1.349626  
6064       9.612427   1.30673    1.30673   
6064.5     9.592285   1.339806   1.339806  
6065       9.572145   1.286941   1.286941  
6065.5     9.572073   1.295937   1.295937  
6066       9.600586   1.364636   1.364636  
6066.5     9.551863   1.332703   1.332703  
6067       9.551792   1.332603   1.332603  
6067.5     9.571787   1.362413   1.362413  
6068       9.571714   1.334443   1.334443  
6068.5     9.516962   1.242573   1.242573  
6069       9.491312   1.274006   1.274006  
6069.5     9.491241   1.312164   1.312164  
6070       9.491171   1.338301   1.338301  
6070.5     9.43091    1.262114   1.262114  
6071       9.50382    1.291925   1.291925  
6071.5     9.52346    1.272584   1.272584  
6072       9.531015   1.293291   1.293291  
6072.5     9.522615   1.421237   1.421237  
6073       9.542255   1.371053   1.371053  
6073.5     9.570927   1.291426   1.291426  
6074       9.56147    1.340302   1.340302  
6074.5     9.570784   1.351047   1.351047  
6075       9.570713   1.291769   1.291769  
6075.5     9.570641   1.271087   1.271087  
6076       9.579952   1.271978   1.271978  
6076.5     9.590555   1.232173   1.232173  
6077       9.570425   1.240878   1.240878  
6077.5     9.570354   1.200898   1.200898  
6078       9.550224   1.14605    1.14605   
6078.5     9.557777   1.158952   1.158952  
6079       9.562866   1.20847    1.20847   
6079.5     9.523035   1.202773   1.202773  
6080       9.509827   1.17801    1.17801   
6080.5     9.509758   1.163043   1.163043  
6081       9.509687   1.187389   1.187389  
6081.5     9.489561   1.19013    1.19013   
6082       9.469437   1.113458   1.113458  
6082.5     9.469368   1.15005    1.15005   
6083       9.348974   1.146394   1.146394  
6083.5     9.348907   1.143634   1.143634  
6084       9.396921   1.141868   1.141868  
6084.5     9.30867    1.153791   1.153791  
6085       9.285151   1.153866   1.153866  
6085.5     9.268433   1.079662   1.079662  
6086       9.268368   1.069592   1.069592  
6086.5     9.245789   1.054652   1.054652  
6087       9.230246   1.089332   1.089332  
6087.5     9.228071   1.069292   1.069292  
6088       9.228006   1.054675   1.054675  
6088.5     9.207891   1.05475    1.05475   
6089       9.227877   1.053226   1.053226  
6089.5     9.227812   1.019043   1.019043  
6090       9.147556   1.018943   1.018943  
6090.5     9.187588   1.048753   1.048753  
6091       9.187523   1.021834   1.021834  
6091.5     9.18746    1.008674   1.008674  
6092       9.208614   1.014638   1.021576  
6092.5     9.227425   1.032671   1.032671  
6093       9.22736    0.9957232  0.9957232 
6093.5     9.247339   1.038186   1.038186  
6094       9.267321   1.516637   1.466787  
6094.5     9.247211   1.117734   1.062124  
6095       9.307278   1.035974   1.035974  
6095.5     9.347298   1.009615   1.009615  
6096       9.387304   1.059143   1.059143  
6096.5     9.467422   1.067498   1.08744   
6097       9.502426   1.157592   1.157592  
6097.5     9.587536   5.932653   5.454139  
6098       9.521629   1.635462   1.485189  
6098.5     9.416033   1.255364   1.255364  
6099       9.34683    1.105257   1.105257  
6099.5     9.266602   1.006729   1.006729  
6100       9.232897   0.9770691  0.9770691 
6100.5     9.206278   0.9471577  0.9471577 
6101       9.226181   1.005336   0.9766574 
6101.5     9.226046   0.959474   0.959474  
6102       9.260017   0.9970087  0.9970087 
6102.5     9.415359   1.037886   1.037886  
6103       9.520065   1.074423   1.094128  
6103.5     9.640074   1.306081   1.328836  
6104       9.686363   1.754735   1.605183  
6104.5     9.666193   2.362911   2.38285   
6105       9.605934   1.20638    1.18644   
6105.5     9.565716   1.234075   1.203057  
6106       9.490715   1.211189   1.211189  
6106.5     9.490465   1.355932   1.355932  
6107       9.329615   1.24802    1.24802   
6107.5     9.224417   1.116649   1.116649  
6108       9.152586   1.063592   1.063592  
6108.5     9.179831   1.046858   1.046858  
6109       9.179811   1.036889   1.036889  
6109.5     9.179792   1.014602   1.014602  
6110       9.18751    1.05284    1.05284   
6110.5     9.203552   1.00278    1.00278   
6111       9.163319   1.026919   1.026919  
6111.5     9.082985   1.002404   1.002404  
6112       9.042747   1.002169   1.002169  
6112.5     8.982456   0.9920235  0.9920235 
6113       9.002367   1.022168   1.022168  
6113.5     9.162634   1.036889   1.036889  
6114       9.262753   1.077993   1.077993  
6114.5     9.322773   1.222156   1.222156  
