~Version
 VERS              .         3.0                           : CWLS LOG ASCII STANDARD - VERSION 3.0
 WRAP              .         NO                            : ONE LINE PER DEPTH STEP
 DLM               .         SPACE                         : DELIMITING CHARACTER(SPACE TAB OR COMMA)
~Well Information
#_______________________________________________________________________________
#
#PARAMETER_NAME    .UNIT     VALUE                         : DESCRIPTION
#_______________________________________________________________________________
STRT               .ft       4750                          : First reference value
STOP               .ft       6400                          : Last reference value
STEP               .ft       0.5                           : Step increment
NULL               .         -9999                         : Missing value
COMP               .                                       : Company
WELL               .         EGBM-004                      : Well name
FLD                .         WILDCAT                       : Field
LOC                .                                       : Location
SRVC               .                                       : Service Company
CTRY               .                                       : Country
DATE               .                                       : Service Date
X                  .                                       : X or East-West coordinate
Y                  .                                       : Y or North South coordinate
GDAT               .                                       : Geodetic Datum
HZCS               .                                       : Horizontal Co-ordinate System
CREATION-TIME      .         2000/8/11 0_0                 : 
FIELD-NAME         .         WILDCAT                       : 
FILE-ID            .         SHELL.001                     : 
FILE-NUMBER        .         1                             : 
FILE-SET-NAME      .                                       : 
FILE-SET-NUMBER    .         0                             : 
FILE-TYPE          .         SHELL                         : 
NAME-SPACE-NAME    .         LIS                           : 
NAME-SPACE-VERSION .         0                             : 
PRODUCER-CODE      .         440                           : 
PRODUCER-NAME      .         Schlumberger                  : 
PRODUCT            .                                       : 
PROGRAMS           .                                       : 
VERSION            .         REV 2.00                      : 
WELL-NAME          .                                       : 
~Parameter Information Block
#_______________________________________________________________________________
#
#PARAMETER_NAME    .UNIT     VALUE                         : DESCRIPTION
#_______________________________________________________________________________
SET                .         SHELL_001_1                   : 
ACQUISITION-PRODUCT .         DLIS/U                        : 
CREATION-TIME      .         2026/5/13 10_33               : 
DLIS_FRAME_DIRECTION .         INCREASING                    : 
DLIS_FRAME_NAME    .         1                             : 
DLIS_FRAME_SPACING .0.1_in   60                            : 
FIELD-NAME         .         WILDCAT                       : 
FILE-ID            .         SHELL.001                     : 
FILE-NUMBER        .         1                             : 
FILE-SET-NAME      .         LIS-TO-DLIS-CONVERSION        : 
FILE-SET-NUMBER    .         1254                          : 
FILE-TYPE          .         SHELL                         : 
INDEX-TYPE         .         BOREHOLE-DEPTH                : 
NAME-SPACE-NAME    .                                       : 
NAME-SPACE-VERSION .         0                             : 
OriginalDatasetName .         1                             : 
PRODUCER-CODE      .         440                           : 
PRODUCER-NAME      .         Schlumberger                  : 
PRODUCT            .         DLIS/U                        : 
PROGRAMS           .         LIS-TO-DLIS                   : 
TLFamily_CALM      .         Caliper                       : 
TLFamily_DEPT      .         Measured Depth                : 
TLFamily_MINV      .         Resistivity - Micro           : 
TLFamily_MNOR      .         Resistivity - Micro           : 
VERSION            .         0.1                           : 
WELL-NAME          .                                       : 
~Curve Information
#_______________________________________________________________________________
#
#LOGNAME           .UNIT     LOG_ID                        : DESCRIPTION
#_______________________________________________________________________________
DEPT               .ft                                     :  {F}
CALM               .in                                     :  {F}
MINV               .ohm.m                                  :  {F}
MNOR               .ohm.m                                  :  {F}
~Ascii
# ...
5478       8.828009   1.641916   2.721834  
5478.5     8.88291    1.665005   2.637759  
5479       8.987785   1.446188   2.394395  
5479.5     9.043976   1.310629   2.023928  
5480       9.012823   1.684945   1.862412  
5480.5     8.842413   1.894317   2.29312   
5481       8.783533   1.873386   2.711864  
5481.5     8.772867   1.916881   3.000997  
5482       8.763855   1.787386   2.709124  
5482.5     8.723894   1.65451    2.648546  
5483       8.724094   1.681738   2.582253  
5483.5     8.717175   1.953785   2.801595  
5484       8.744577   2.15354    2.881355  
5484.5     8.764858   1.722435   2.530012  
5485       8.785139   1.689842   2.482552  
5485.5     8.810823   2.023928   2.76877   
5486       8.885942   1.609557   2.402792  
5486.5     8.825903   1.685703   2.545054  
5487       8.806023   1.839657   2.801595  
5487.5     8.806225   2.011509   2.991027  
5488       8.869837   2.009177   3.140578  
5488.5     8.826706   1.70436    2.671983  
5489       8.826906   2.003987   2.676414  
5489.5     8.867268   1.880149   2.751744  
5490       8.887548   1.888311   2.616128  
5490.5     8.86767    1.854437   2.704168  
5491       8.887951   1.955945   2.811565  
5491.5     8.908232   1.985739   2.864798  
5492       8.948122   1.515453   2.921236  
5492.5     8.989771   1.824527   2.577705  
5493       9.028143   1.276171   2.502492  
5493.5     9.009436   1.355932   2.063808  
5494       8.989557   1.408231   2.097392  
5494.5     8.952515   1.454525   2.204498  
5495       8.93322    1.355932   2.123629  
5495.5     8.889759   1.447412   2.216857  
5496       8.905552   1.446479   2.27318   
5496.5     8.89016    1.465602   2.313061  
5497       8.89036    1.557082   2.462612  
5497.5     8.910641   1.745815   2.634727  
5498       8.930923   1.824934   2.762939  
5498.5     8.924273   1.826276   2.852028  
5499       8.911243   2.073779   3.02187   
5499.5     8.891365   1.914024   2.980707  
5500       8.871492   1.655068   2.662064  
5500.5     8.81159    1.655134   2.652143  
5501       8.811937   1.665204   2.72174   
5501.5     8.85244    1.564378   2.621963  
5502       8.852861   1.586698   2.742222  
5502.5     8.873207   1.614362   2.692388  
5503       8.87355    1.527546   2.50397   
5503.5     8.873894   1.555098   2.59292   
5504       8.888613   1.515201   2.45168   
5504.5     8.879982   1.4665     2.473479  
5505       8.874926   1.540262   2.533431  
5505.5     8.875269   1.834472   2.832615  
5506       8.911512   1.986886   2.932366  
5506.5     8.992746   2.176058   2.154849  
5507       8.976673   2.109072   2.109072  
5507.5     8.977015   2.162031   2.162031  
5508       8.997431   2.147451   2.147451  
5508.5     9.057993   2.407008   2.407008  
5509       9.058332   2.531499   2.777585  
5509.5     9.419981   2.227731   2.796451  
5510       9.540037   1.537416   2.793618  
5510.5     9.29838    2.295225   2.816943  
5511       8.920013   2.009971   2.833698  
5511.5     8.820002   1.986341   2.870063  
5512       8.779383   1.959873   2.887502  
5512.5     8.779964   1.933229   2.862089  
5513       8.800144   1.853472   2.794216  
5513.5     8.820559   1.904398   3.003714  
5514       8.842873   1.959157   3.173272  
5514.5     8.841318   1.819558   2.816332  
5515       8.841661   1.831622   2.819248  
5515.5     8.842007   1.819172   2.934272  
5516       8.902554   1.743641   2.735228  
5516.5     8.902895   1.747      2.805236  
5517       8.903238   1.802638   2.890082  
5517.5     8.843384   1.858334   2.825025  
5518       8.843727   1.723575   2.74419   
5518.5     8.84407    1.733499   2.715552  
5519       8.864481   1.763363   2.851211  
5519.5     8.904953   1.79909    2.9175    
5520       8.905296   1.848454   2.965104  
5520.5     8.925703   1.854151   2.755821  
5521       8.926046   1.920086   2.775844  
5521.5     8.946451   1.954436   3.03515   
5522       8.926731   2.050673   2.995413  
5522.5     8.846825   2.009523   3.087941  
5523       8.840012   1.962301   3.115254  
5523.5     8.827452   1.928912   2.968308  
5524       8.83563    2.015478   2.896132  
5524.5     8.848202   1.952219   2.888514  
5525       8.848545   1.956073   2.776623  
5525.5     8.909069   1.892405   2.677104  
5526       8.92947    1.943839   2.587423  
5526.5     8.929813   1.952075   2.808579  
5527       8.950214   2.004562   2.765514  
5527.5     8.930498   2.172628   3.01055   
5528       8.941694   2.151134   2.939004  
5528.5     8.951241   2.081385   2.799522  
5529       8.931526   2.272827   3.086524  
5529.5     8.931868   2.327564   3.515303  
5530       8.932209   2.319042   2.987072  
5530.5     8.932552   2.250517   3.007045  
5531       8.932896   2.063692   2.967297  
5531.5     9.114918   1.979185   2.787886  
5532       9.73003    2.034261   2.987437  
5532.5     9.916574   2.458536   2.489016  
5533       10.01147   2.977665   2.977138  
5533.5     10.2744    2.469291   2.568959  
5534       10.14559   2.409927   2.269939  
5534.5     10.01813   2.507272   2.718709  
5535       10.21791   2.349366   2.349366  
5535.5     10.20005   2.260367   2.160667  
5536       10.09929   2.350114   2.529625  
5536.5     9.999949   2.591791   3.417094  
5537       9.919477   2.131054   3.32738   
5537.5     9.681646   2.06837    2.878859  
5538       9.639425   1.880554   2.629674  
5538.5     9.619705   1.233964   1.931952  
5539       9.599985   1.453675   1.964553  
5539.5     9.620361   1.792504   2.010883  
5540       9.663277   1.094665   1.812527  
5540.5     9.863132   1.712959   2.040498  
5541       10.16095   1.262377   2.161695  
5541.5     10.50374   1.055192   1.65229   
5542       10.45598   1.144964   1.344364  
5542.5     10.33602   1.563839   1.783164  
5543       10.08006   1.085343   1.666541  
5543.5     9.716885   1.285783   1.83318   
5544       9.656609   1.267115   1.9174    
5544.5     9.480032   1.443099   1.914694  
5545       9.303268   1.654034   2.28218   
5545.5     9.323647   1.246712   1.997609  
5546       9.232555   1.448618   2.132778  
5546.5     9.103844   2.182745   2.840776  
5547       9.309206   1.336315   2.000765  
5547.5     9.490625   1.166001   1.816989  
5548       9.645969   1.10628    1.795091  
5548.5     9.586189   1.100815   1.751346  
5549       9.40918    1.189089   1.817699  
5549.5     9.165997   1.570276   2.233192  
5550       9.212889   2.123621   2.921276  
5550.5     9.333675   2.572407   2.981195  
5551       9.467073   1.645291   2.463873  
5551.5     9.312086   1.883289   2.283424  
5552       9.186628   2.249273   2.981494  
5552.5     9.106524   1.665497   2.168758  
5553       9.046459   1.454284   2.158743  
5553.5     9.094622   1.487698   2.08812   
5554       9.175329   1.348334   1.999363  
5554.5     9.256039   1.291286   1.959492  
5555       9.25634    1.287138   1.925224  
5555.5     9.237831   2.005108   2.41388   
5556       9.177645   2.150547   2.150547  
5556.5     9.066931   2.337328   3.052162  
5557       9.087038   2.188562   2.872801  
5557.5     9.18733    2.263132   2.703426  
5558       9.127254   1.995088   2.532606  
5558.5     9.076611   1.982793   2.344636  
5559       9.007095   1.958747   2.462471  
5559.5     8.998075   1.822281   2.456295  
5560       8.929148   1.742503   2.354971  
5560.5     9.067423   1.60024    2.3949    
5561       9.067484   1.52052    2.076008  
5561.5     9.007399   1.447956   2.115955  
5562       8.891075   1.517846   2.246894  
5562.5     8.927319   1.48047    2.175974  
5563       8.954813   1.468196   2.219684  
5563.5     8.987587   1.420602   2.076505  
5564       9.000977   1.464642   2.182323  
5564.5     9.067915   1.491699   2.18774   
5565       9.130386   1.373791   1.98768   
5565.5     9.148247   1.511066   2.08596   
5566       9.117405   1.746658   2.475821  
5566.5     9.088213   1.699371   2.475872  
5567       9.224051   1.667982   2.446062  
5567.5     9.324976   1.778106   2.496012  
5568       9.499577   1.898495   2.548676  
5568.5     9.604431   1.926867   2.625823  
