~Version
 VERS              .         3.0                           : CWLS LOG ASCII STANDARD - VERSION 3.0
 WRAP              .         NO                            : ONE LINE PER DEPTH STEP
 DLM               .         SPACE                         : DELIMITING CHARACTER(SPACE TAB OR COMMA)
~Well Information
#_______________________________________________________________________________
#
#PARAMETER_NAME    .UNIT     VALUE                         : DESCRIPTION
#_______________________________________________________________________________
STRT               .ft       4750                          : First reference value
STOP               .ft       6400                          : Last reference value
STEP               .ft       0.5                           : Step increment
NULL               .         -9999                         : Missing value
COMP               .                                       : Company
WELL               .         EGBM-004                      : Well name
FLD                .         WILDCAT                       : Field
LOC                .                                       : Location
SRVC               .                                       : Service Company
CTRY               .                                       : Country
DATE               .                                       : Service Date
X                  .                                       : X or East-West coordinate
Y                  .                                       : Y or North South coordinate
GDAT               .                                       : Geodetic Datum
HZCS               .                                       : Horizontal Co-ordinate System
CREATION-TIME      .         2000/8/11 0_0                 : 
FIELD-NAME         .         WILDCAT                       : 
FILE-ID            .         SHELL.001                     : 
FILE-NUMBER        .         1                             : 
FILE-SET-NAME      .                                       : 
FILE-SET-NUMBER    .         0                             : 
FILE-TYPE          .         SHELL                         : 
NAME-SPACE-NAME    .         LIS                           : 
NAME-SPACE-VERSION .         0                             : 
PRODUCER-CODE      .         440                           : 
PRODUCER-NAME      .         Schlumberger                  : 
PRODUCT            .                                       : 
PROGRAMS           .                                       : 
VERSION            .         REV 2.00                      : 
WELL-NAME          .                                       : 
~Parameter Information Block
#_______________________________________________________________________________
#
#PARAMETER_NAME    .UNIT     VALUE                         : DESCRIPTION
#_______________________________________________________________________________
SET                .         SHELL_001_1                   : 
ACQUISITION-PRODUCT .         DLIS/U                        : 
CREATION-TIME      .         2026/5/13 10_33               : 
DLIS_FRAME_DIRECTION .         INCREASING                    : 
DLIS_FRAME_NAME    .         1                             : 
DLIS_FRAME_SPACING .0.1_in   60                            : 
FIELD-NAME         .         WILDCAT                       : 
FILE-ID            .         SHELL.001                     : 
FILE-NUMBER        .         1                             : 
FILE-SET-NAME      .         LIS-TO-DLIS-CONVERSION        : 
FILE-SET-NUMBER    .         1254                          : 
FILE-TYPE          .         SHELL                         : 
INDEX-TYPE         .         BOREHOLE-DEPTH                : 
NAME-SPACE-NAME    .                                       : 
NAME-SPACE-VERSION .         0                             : 
OriginalDatasetName .         1                             : 
PRODUCER-CODE      .         440                           : 
PRODUCER-NAME      .         Schlumberger                  : 
PRODUCT            .         DLIS/U                        : 
PROGRAMS           .         LIS-TO-DLIS                   : 
TLFamily_CALM      .         Caliper                       : 
TLFamily_DEPT      .         Measured Depth                : 
TLFamily_MINV      .         Resistivity - Micro           : 
TLFamily_MNOR      .         Resistivity - Micro           : 
VERSION            .         0.1                           : 
WELL-NAME          .                                       : 
~Curve Information
#_______________________________________________________________________________
#
#LOGNAME           .UNIT     LOG_ID                        : DESCRIPTION
#_______________________________________________________________________________
DEPT               .ft                                     :  {F}
CALM               .in                                     :  {F}
MINV               .ohm.m                                  :  {F}
MNOR               .ohm.m                                  :  {F}
~Ascii
# ...
5660       9.056911   1.685421   1.970379  
5660.5     8.979065   1.62966    1.956642  
5661       8.999477   1.677537   2.066455  
5661.5     9.156326   1.872436   2.149329  
5662       9.232389   1.877205   2.176338  
5662.5     9.221275   1.593148   1.593148  
5663       9.201542   1.416613   1.416613  
5663.5     9.20188    1.398881   1.189478  
5664       9.202215   1.40337    1.279269  
5664.5     9.189718   2.047398   1.708277  
5665       9.162754   1.351352   1.351352  
5665.5     9.133579   1.339497   1.189869  
5666       9.063091   1.256267   1.256267  
5666.5     9.013205   1.146906   1.146906  
5667       8.943371   1.070318   1.066915  
5667.5     8.894014   1.170399   1.170399  
5668       8.765329   1.206789   1.140634  
5668.5     8.694813   1.294003   1.100806  
5669       8.692629   1.260498   1.027308  
5669.5     8.724373   1.280558   1.027301  
5670       8.944244   1.222751   1.222751  
5670.5     9.16683    1.889236   2.038868  
5671       9.467758   3.86424    4.432774  
5671.5     9.488152   6.288206   6.337996  
5672       9.41762    1.938276   1.680128  
5672.5     9.168173   1.974436   2.168979  
5673       9.047787   2.198963   1.822311  
5673.5     8.998791   1.664699   1.895169  
5674       8.903263   1.625908   1.994977  
5674.5     9.017836   1.755757   2.164555  
5675       9.158951   1.979875   2.139702  
5675.5     9.169846   2.149717   1.94026   
5676       9.069887   1.581231   1.625555  
5676.5     9.041187   1.756284   1.756284  
5677       9.030449   1.568601   1.47181   
5677.5     9.030788   1.581625   1.581625  
5678       9.071245   1.506311   1.506311  
5678.5     9.171871   1.422245   1.422245  
5679       9.23238    1.298448   1.123112  
5679.5     9.203629   1.251072   1.251072  
5680       9.023979   1.518263   1.518263  
5680.5     8.952608   1.492533   1.492533  
5681       8.91284    1.669829   1.669829  
5681.5     8.981487   1.851386   1.870289  
5682       9.274538   1.985283   2.490536  
5682.5     9.375113   8.306997   8.297022  
5683       9.335339   2.038614   1.922076  
5683.5     9.335672   2.919955   2.467676  
5684       9.315954   2.407998   2.590825  
5684.5     9.236078   2.175676   2.175676  
5685       9.296572   2.110042   2.072188  
5685.5     9.385841   2.44731    2.44731   
5686       9.337265   2.46999    2.482768  
5686.5     9.229216   2.449051   2.449051  
5687       9.069616   2.062754   2.441883  
5687.5     9.057644   1.668717   2.012987  
5688       9.010382   1.447166   2.010699  
5688.5     8.978127   1.322471   1.961047  
5689       8.978468   1.277129   1.851527  
5689.5     8.978809   1.359108   1.945706  
5690       9.046606   1.438812   2.041462  
5690.5     9.207682   1.530364   2.129052  
5691       9.481016   1.671808   1.70452   
5691.5     9.581581   1.794407   2.050459  
5692       9.679213   2.223594   2.373333  
5692.5     9.891893   1.844535   1.724789  
5693       10.04362   1.635138   2.114074  
5693.5     9.94594    2.004488   1.647473  
5694       9.863777   1.695245   2.134254  
5694.5     9.655645   1.625471   1.725278  
5695       9.495974   1.533792   1.533792  
5695.5     9.181719   1.463061   1.306331  
5696       8.996763   1.516066   2.434178  
5696.5     8.943501   1.435628   2.223996  
5697       8.9238     1.467548   2.309906  
5697.5     8.877964   1.848519   2.684019  
5698       8.904444   2.026287   3.332868  
5698.5     8.910799   1.933438   3.06346   
5699       8.997553   1.456334   2.295186  
5699.5     9.266199   1.496892   2.005636  
5700       9.506996   1.237525   1.726596  
5700.5     9.731749   1.098432   1.70651   
5701       9.997225   1.028144   1.527128  
5701.5     9.91807    1.139784   1.548966  
5702       9.777672   1.826777   2.106219  
5702.5     9.867735   1.154191   1.687124  
5703       9.907814   1.104273   1.690747  
5703.5     9.980385   1.147002   1.743003  
5704       9.921877   1.123317   1.637505  
5704.5     9.907814   1.39869    1.942309  
5705       9.942204   1.561876   2.002993  
5705.5     9.907814   1.288522   1.860848  
5706       9.947895   1.321321   1.795197  
5706.5     10.06814   1.039221   1.64765   
5707       9.974066   1.124763   1.650905  
5707.5     9.579321   1.27897    1.631237  
5708       8.792406   2.057479   1.289016  
5708.5     8.699718   1.465122   1.212451  
5709       9.061152   1.482423   1.468856  
5709.5     9.147234   5.011836   5.031835  
5710       9.166332   1.401197   1.295409  
5710.5     9.227041   1.506674   1.558991  
5711       9.326653   3.265677   2.986227  
5711.5     9.344688   4.473329   5.171947  
5712       9.116407   6.708941   6.659106  
5712.5     8.822821   1.988523   2.881736  
5713       8.76553    1.778689   2.655523  
5713.5     8.76553    1.788299   2.506862  
5714       8.760696   1.769261   2.507784  
5714.5     8.76553    1.773587   2.497903  
5715       8.76553    1.785428   2.498003  
5715.5     8.76553    1.80948    2.468163  
5716       8.737946   1.7996     2.491804  
5716.5     8.70541    1.82964    2.458382  
5717       8.696451   1.80978    2.478443  
5717.5     8.685369   1.759979   2.458582  
5718       8.695686   1.777222   2.427451  
5718.5     8.696398   1.837436   2.478742  
5719       8.70541    1.824973   2.488822  
5719.5     8.725451   1.750398   2.406863  
5720       8.758575   1.790418   2.467065  
5720.5     8.725451   1.810478   2.507261  
5721       8.725451   1.805353   2.542761  
5721.5     8.725451   1.916231   2.646183  
5722       8.745491   1.911804   2.763959  
5722.5     8.725451   1.832834   2.690119  
5723       8.70541    1.732781   2.519512  
5723.5     8.685369   1.760003   2.48972   
5724       8.742661   1.850275   2.699435  
5724.5     8.70541    1.811629   2.619835  
5725       8.70541    1.771456   2.52994   
5725.5     8.665331   1.791692   2.580115  
5726       8.665331   1.822379   2.639919  
5726.5     8.685369   1.84279    2.661153  
5727       8.685369   1.941517   2.719959  
5727.5     8.685369   1.941616   2.709081  
5728       8.777319   1.911775   2.639144  
5728.5     8.685369   1.881935   2.601907  
5729       8.685369   1.943501   2.693588  
5729.5     8.685369   2.021855   2.870189  
5730       8.739361   1.982036   2.826346  
5730.5     8.70541    1.950023   2.736274  
5731       8.70541    1.944722   2.717999  
5731.5     8.70541    2.047381   2.878307  
5732       8.70541    2.069496   2.8524    
5732.5     8.70541    2.078343   2.746007  
5733       8.70541    2.232135   2.960209  
5733.5     8.725451   2.045549   2.960772  
5734       8.725451   1.915791   2.880998  
5734.5     8.70541    1.823253   2.711453  
5735       8.70541    1.931137   2.801373  
5735.5     8.725451   1.943213   2.911319  
5736       8.780737   1.940084   3.011169  
5736.5     8.769773   1.784554   2.693559  
5737       8.78557    1.818558   2.676433  
5737.5     8.78557    1.963572   2.921656  
5738       8.76553    1.938898   2.911817  
5738.5     8.725451   2.043612   2.991716  
5739       8.725451   1.918374   2.735563  
5739.5     8.685369   1.944012   2.716642  
5740       8.725805   1.896207   2.522977  
5740.5     8.76553    1.79451    2.516889  
5741       8.78557    1.678431   2.439204  
5741.5     8.78557    1.681525   2.383767  
5742       8.76553    1.671879   2.350052  
5742.5     8.781445   1.722055   2.473552  
5743       8.78557    1.725149   2.46649   
5743.5     8.805611   1.667952   2.406475  
5744       8.76553    1.557743   2.311412  
5744.5     8.76553    1.513695   2.334268  
5745       8.76553    1.358283   2.202594  
5745.5     8.76553    1.369067   2.089009  
5746       8.76553    1.369637   2.124421  
5746.5     8.915241   1.346606   2.125049  
5747       8.92585    1.600023   2.272384  
5747.5     8.92585    1.727046   2.34481   
5748       8.94589    1.707009   2.383186  
5748.5     8.92585    1.695133   2.404303  
5749       8.885771   1.846107   2.534319  
5749.5     8.872213   1.7167     2.684764  
5750       8.993986   1.616766   2.465053  
5750.5     9.106213   0.9381046  1.506371  
