~Version
 VERS              .         3.0                           : CWLS LOG ASCII STANDARD - VERSION 3.0
 WRAP              .         NO                            : ONE LINE PER DEPTH STEP
 DLM               .         SPACE                         : DELIMITING CHARACTER(SPACE TAB OR COMMA)
~Well Information
#_______________________________________________________________________________
#
#PARAMETER_NAME    .UNIT     VALUE                         : DESCRIPTION
#_______________________________________________________________________________
STRT               .ft       4750                          : First reference value
STOP               .ft       6400                          : Last reference value
STEP               .ft       0.5                           : Step increment
NULL               .         -9999                         : Missing value
COMP               .                                       : Company
WELL               .         EGBM-004                      : Well name
FLD                .         WILDCAT                       : Field
LOC                .                                       : Location
SRVC               .                                       : Service Company
CTRY               .                                       : Country
DATE               .                                       : Service Date
X                  .                                       : X or East-West coordinate
Y                  .                                       : Y or North South coordinate
GDAT               .                                       : Geodetic Datum
HZCS               .                                       : Horizontal Co-ordinate System
CREATION-TIME      .         2000/8/11 0_0                 : 
FIELD-NAME         .         WILDCAT                       : 
FILE-ID            .         SHELL.001                     : 
FILE-NUMBER        .         1                             : 
FILE-SET-NAME      .                                       : 
FILE-SET-NUMBER    .         0                             : 
FILE-TYPE          .         SHELL                         : 
NAME-SPACE-NAME    .         LIS                           : 
NAME-SPACE-VERSION .         0                             : 
PRODUCER-CODE      .         440                           : 
PRODUCER-NAME      .         Schlumberger                  : 
PRODUCT            .                                       : 
PROGRAMS           .                                       : 
VERSION            .         REV 2.00                      : 
WELL-NAME          .                                       : 
~Parameter Information Block
#_______________________________________________________________________________
#
#PARAMETER_NAME    .UNIT     VALUE                         : DESCRIPTION
#_______________________________________________________________________________
SET                .         SHELL_001_1                   : 
ACQUISITION-PRODUCT .         DLIS/U                        : 
CREATION-TIME      .         2026/5/13 10_33               : 
DLIS_FRAME_DIRECTION .         INCREASING                    : 
DLIS_FRAME_NAME    .         1                             : 
DLIS_FRAME_SPACING .0.1_in   60                            : 
FIELD-NAME         .         WILDCAT                       : 
FILE-ID            .         SHELL.001                     : 
FILE-NUMBER        .         1                             : 
FILE-SET-NAME      .         LIS-TO-DLIS-CONVERSION        : 
FILE-SET-NUMBER    .         1254                          : 
FILE-TYPE          .         SHELL                         : 
INDEX-TYPE         .         BOREHOLE-DEPTH                : 
NAME-SPACE-NAME    .                                       : 
NAME-SPACE-VERSION .         0                             : 
OriginalDatasetName .         1                             : 
PRODUCER-CODE      .         440                           : 
PRODUCER-NAME      .         Schlumberger                  : 
PRODUCT            .         DLIS/U                        : 
PROGRAMS           .         LIS-TO-DLIS                   : 
TLFamily_CALM      .         Caliper                       : 
TLFamily_DEPT      .         Measured Depth                : 
TLFamily_MINV      .         Resistivity - Micro           : 
TLFamily_MNOR      .         Resistivity - Micro           : 
VERSION            .         0.1                           : 
WELL-NAME          .                                       : 
~Curve Information
#_______________________________________________________________________________
#
#LOGNAME           .UNIT     LOG_ID                        : DESCRIPTION
#_______________________________________________________________________________
DEPT               .ft                                     :  {F}
CALM               .in                                     :  {F}
MINV               .ohm.m                                  :  {F}
MNOR               .ohm.m                                  :  {F}
~Ascii
# ...
5296       9.262592   1.078365   1.048455  
5296.5     9.272095   1.061882   1.048255  
5297       9.372076   1.084476   1.011518  
5297.5     9.490644   1.067796   1.007976  
5298       9.563959   1.057626   1.007777  
5298.5     9.520811   1.071373   0.9876368 
5299       9.620546   1.107103   0.9775254 
5299.5     9.776066   1.223881   1.223881  
5300       9.924318   1.615148   2.14356   
5300.5     10.03948   3.938038   4.22717   
5301       9.909254   3.349277   4.556132  
5301.5     9.698481   2.402501   2.003688  
5302       9.397669   1.235887   1.810637  
5302.5     9.491035   1.375084   1.784174  
5303       9.670292   2.093113   2.910625  
5303.5     9.702789   2.780998   3.089986  
5304       9.455904   1.494715   1.97329   
5304.5     9.194975   1.355033   1.977086  
5305       9.194529   1.384844   2.065918  
5305.5     9.234112   1.344864   1.985824  
5306       9.293592   1.306291   1.91306   
5306.5     9.273052   1.264904   1.805576  
5307       9.327738   1.350687   1.942771  
5307.5     9.332001   1.503987   1.922727  
5308       9.471512   1.483947   2.014766  
5308.5     9.486191   1.44514    1.992322  
5309       9.600672   1.287413   1.779959  
5309.5     9.62998    1.341034   1.754424  
5310       9.664671   1.491536   1.761194  
5310.5     9.898512   1.426696   1.882266  
5311       10.02857   1.353737   1.353737  
5311.5     9.978382   1.21409    1.244143  
5312       9.736336   1.223985   1.223985  
5312.5     9.646824   1.293444   1.293444  
5313       9.646296   1.213933   1.173895  
5313.5     9.645769   1.363209   1.363209  
5314       9.625231   1.342934   1.253456  
5314.5     9.644714   1.371734   1.263309  
5315       9.604164   1.243794   1.243794  
5315.5     9.583622   1.181061   1.181061  
5316       9.525997   1.113459   1.013759  
5316.5     9.502512   1.20309    1.20309   
5317       9.539316   1.263685   1.342589  
5317.5     9.584215   1.250747   1.302625  
5318       9.520935   1.225063   1.561698  
5318.5     9.500389   1.242571   1.242571  
5319       9.499861   1.164169   1.164169  
5319.5     9.424566   1.201017   1.201017  
5320       9.438751   1.243788   1.243788  
5320.5     9.298103   1.172369   1.198891  
5321       9.297569   1.285218   1.223882  
5321.5     9.33707    1.283603   1.231956  
5322       9.33736    1.242349   1.084568  
5322.5     9.336002   1.241774   1.207916  
5323       9.335468   1.271584   1.271584  
5323.5     9.314917   1.177062   0.9823235 
5324       9.254324   1.14428    1.116994  
5324.5     9.233768   1.191525   1.16418   
5325       9.233232   1.246202   1.191425  
5325.5     9.212677   1.141474   1.09872   
5326       9.232161   1.13551    1.091524  
5326.5     9.211603   1.088316   1.001695  
5327       9.211067   1.15257    1.044798  
5327.5     9.170488   1.161016   1.021435  
5328       9.209995   1.091125   1.011364  
5328.5     9.229481   1.150847   1.021235  
5329       9.207508   1.164659   1.021136  
5329.5     9.188362   1.094521   1.021036  
5330       9.087706   1.120638   1.020936  
5330.5     9.067142   1.140477   1.020836  
5331       9.046577   1.08654    1.020737  
5331.5     9.066063   1.040578   1.010667  
5332       9.085548   1.060418   0.9906274 
5332.5     9.067911   1.04595    0.966013  
5333       9.207207   1.039287   1.039287  
5333.5     9.468168   1.260448   1.260448  
5334       9.584074   1.5559     1.757881  
5334.5     9.519669   1.658164   1.814362  
5335       9.186388   1.317154   1.317154  
5335.5     9.081776   1.074851   1.109612  
5336       9.188175   1.124252   1.124252  
5336.5     9.30102    1.372267   1.372267  
5337       9.403561   1.304721   1.304721  
5337.5     9.477392   1.018502   1.018502  
5338       9.479689   0.9838009  0.9838009 
5338.5     9.452726   0.9878567  0.9793613 
5339       9.461876   0.985092   0.985092  
5339.5     9.458063   0.9891319  0.9891319 
5340       9.494179   1.034836   1.034836  
5340.5     9.497065   1.002774   1.002774  
5341       9.44869    1.032584   1.032584  
5341.5     9.375803   0.9976535  0.9976535 
5342       9.398167   1.150312   1.150312  
5342.5     9.359272   1.463852   2.115111  
5343       9.478594   1.38976    2.015344  
5343.5     9.594055   1.165098   1.676279  
5344       9.589401   1.236501   1.696923  
5344.5     9.633066   1.227411   1.845604  
5345       9.612503   1.187482   1.965279  
5345.5     9.636347   7.308981   7.308948  
5346       9.846212   0.888114   1.979625  
5346.5     9.931513   1.13949    1.761205  
5347       9.93099    1.266793   1.85506   
5347.5     9.830383   9.671501   7.567787  
5348       9.669643   1.904662   3.589602  
5348.5     9.315451   2.018597   2.502791  
5349       9.227528   1.514458   2.302464  
5349.5     9.360044   1.31532    2.090868  
5350       9.552849   1.073309   1.88439   
5350.5     9.647095   6.041738   6.071648  
5351       9.631397   2.083525   2.223123  
5351.5     9.506413   4.795331   4.197128  
5352       9.421598   1.225951   1.664617  
5352.5     9.485971   1.240049   1.601129  
5353       9.452641   1.21153    1.63712   
5353.5     10.02909   1.252501   1.664334  
5354       10.24693   1.241593   1.554497  
5354.5     10.24669   1.276305   1.434789  
5355       10.26653   1.221312   1.464566  
5355.5     10.24639   1.045762   1.3648    
5356       9.90551    1.349664   1.349664  
5356.5     9.604609   1.464307   1.464307  
5357       9.643557   1.381983   1.381983  
5357.5     9.604208   1.267372   1.267372  
5358       9.583967   1.179216   1.025302  
5358.5     9.583769   1.061664   0.985355  
5359       9.583567   1.216947   1.216947  
5359.5     9.506018   1.105899   0.9751352 
5360       9.482965   1.162932   1.162932  
5360.5     9.482765   1.244168   1.244168  
5361       9.522646   1.088452   1.088452  
5361.5     9.502405   1.04066    1.004685  
5362       9.487204   1.074377   1.004586  
5362.5     9.481964   1.064307   0.9745362 
5363       9.475821   1.002579   1.002579  
5363.5     9.467852   0.9749632  0.8348054 
5364       9.401201   1.019871   0.9443434 
5364.5     9.360922   1.009743   1.009743  
5365       9.360722   1.043868   0.9541639 
5365.5     9.38056    1.013858   0.944068  
5366       9.428995   0.9883966  0.8941269 
5366.5     9.328829   0.9837489  0.8541374 
5367       9.299799   1.008837   0.8939182 
5367.5     9.279558   1.058179   0.9237283 
5368       9.239279   0.99342    0.9084398 
5368.5     9.219038   0.9883932  0.8641165 
5369       9.218838   0.983192   0.983192  
5369.5     9.198597   0.9432787  0.9731803 
5370       9.171831   1.012553   1.012553  
5370.5     9.218237   1.043413   1.043413  
5371       9.218035   0.9629109  0.7785821 
5371.5     9.257915   0.9628111  0.7833502 
5372       9.257715   0.98615    0.9228554 
5372.5     9.217434   1.002492   0.8583635 
5373       9.257315   1.025231   1.09208   
5373.5     9.292389   1.241616   1.309617  
5374       9.111944   1.869613   1.620378  
5374.5     9.036272   1.075849   0.9721901 
5375       9.012047   1.03995    0.9503524 
5375.5     8.975752   0.9819545  0.8183516 
5376       8.975552   0.9818547  0.8223236 
5376.5     8.975349   0.9717846  0.8421733 
5377       8.955109   0.9716849  0.8121637 
5377.5     8.954908   1.011466   0.8556759 
5378       8.95471    0.9814559  0.9216577 
5378.5     8.954508   0.9414759  0.7919466 
5379       8.954309   0.9829472  0.7888513 
5379.5     8.954107   1.001096   0.801695  
5380       8.953907   0.9874704  0.8614215 
5380.5     8.953707   1.000897   0.8812561 
5381       8.991838   0.960917   0.8911153 
5381.5     9.033466   1.022493   0.9508696 
5382       9.073347   1.206377   1.419296  
5382.5     9.073147   1.264178   1.264178  
5383       9.016575   0.9976586  0.9406    
5383.5     8.952505   1.03021    0.9603896 
5384       9.067768   1.08993    1.08993   
5384.5     9.316437   1.253294   1.253294  
5385       9.432888   1.54511    1.54511   
5385.5     9.412624   1.819303   1.794957  
5386       9.29224    1.757528   2.236078  
5386.5     9.03857    1.659535   2.43543   
