~Version
 VERS              .         3.0                           : CWLS LOG ASCII STANDARD - VERSION 3.0
 WRAP              .         NO                            : ONE LINE PER DEPTH STEP
 DLM               .         SPACE                         : DELIMITING CHARACTER(SPACE TAB OR COMMA)
~Well Information
#_______________________________________________________________________________
#
#PARAMETER_NAME    .UNIT     VALUE                         : DESCRIPTION
#_______________________________________________________________________________
STRT               .ft       4750                          : First reference value
STOP               .ft       6400                          : Last reference value
STEP               .ft       0.5                           : Step increment
NULL               .         -9999                         : Missing value
COMP               .                                       : Company
WELL               .         EGBM-004                      : Well name
FLD                .         WILDCAT                       : Field
LOC                .                                       : Location
SRVC               .                                       : Service Company
CTRY               .                                       : Country
DATE               .                                       : Service Date
X                  .                                       : X or East-West coordinate
Y                  .                                       : Y or North South coordinate
GDAT               .                                       : Geodetic Datum
HZCS               .                                       : Horizontal Co-ordinate System
CREATION-TIME      .         2000/8/11 0_0                 : 
FIELD-NAME         .         WILDCAT                       : 
FILE-ID            .         SHELL.001                     : 
FILE-NUMBER        .         1                             : 
FILE-SET-NAME      .                                       : 
FILE-SET-NUMBER    .         0                             : 
FILE-TYPE          .         SHELL                         : 
NAME-SPACE-NAME    .         LIS                           : 
NAME-SPACE-VERSION .         0                             : 
PRODUCER-CODE      .         440                           : 
PRODUCER-NAME      .         Schlumberger                  : 
PRODUCT            .                                       : 
PROGRAMS           .                                       : 
VERSION            .         REV 2.00                      : 
WELL-NAME          .                                       : 
~Parameter Information Block
#_______________________________________________________________________________
#
#PARAMETER_NAME    .UNIT     VALUE                         : DESCRIPTION
#_______________________________________________________________________________
SET                .         SHELL_001_1                   : 
ACQUISITION-PRODUCT .         DLIS/U                        : 
CREATION-TIME      .         2026/5/13 10_33               : 
DLIS_FRAME_DIRECTION .         INCREASING                    : 
DLIS_FRAME_NAME    .         1                             : 
DLIS_FRAME_SPACING .0.1_in   60                            : 
FIELD-NAME         .         WILDCAT                       : 
FILE-ID            .         SHELL.001                     : 
FILE-NUMBER        .         1                             : 
FILE-SET-NAME      .         LIS-TO-DLIS-CONVERSION        : 
FILE-SET-NUMBER    .         1254                          : 
FILE-TYPE          .         SHELL                         : 
INDEX-TYPE         .         BOREHOLE-DEPTH                : 
NAME-SPACE-NAME    .                                       : 
NAME-SPACE-VERSION .         0                             : 
OriginalDatasetName .         1                             : 
PRODUCER-CODE      .         440                           : 
PRODUCER-NAME      .         Schlumberger                  : 
PRODUCT            .         DLIS/U                        : 
PROGRAMS           .         LIS-TO-DLIS                   : 
TLFamily_CALM      .         Caliper                       : 
TLFamily_DEPT      .         Measured Depth                : 
TLFamily_MINV      .         Resistivity - Micro           : 
TLFamily_MNOR      .         Resistivity - Micro           : 
VERSION            .         0.1                           : 
WELL-NAME          .                                       : 
~Curve Information
#_______________________________________________________________________________
#
#LOGNAME           .UNIT     LOG_ID                        : DESCRIPTION
#_______________________________________________________________________________
DEPT               .ft                                     :  {F}
CALM               .in                                     :  {F}
MINV               .ohm.m                                  :  {F}
MNOR               .ohm.m                                  :  {F}
~Ascii
# ...
6206       8.608135   1.473877   1.965013  
6206.5     8.648588   1.497003   1.957444  
6207       8.616251   1.377676   1.862131  
6207.5     8.609003   1.367013   1.985654  
6208       8.609255   1.323624   1.816502  
6208.5     8.609507   1.379476   1.866476  
6209       8.60976    1.358655   1.996334  
6209.5     8.610012   1.346237   1.996573  
6210       8.610266   1.306665   1.945312  
6210.5     8.610519   1.289584   1.877479  
6211       8.610771   1.279844   1.841551  
6211.5     8.611025   1.280069   1.828129  
6212       8.611277   1.351844   1.871976  
6212.5     8.611528   1.330344   1.908321  
6213       8.611782   1.317982   1.88484   
6213.5     8.652138   1.310864   1.831737  
6214       8.667133   1.338306   1.829308  
6214.5     8.652643   1.278853   1.786124  
6215       8.652897   1.264231   1.786359  
6215.5     8.668367   1.287026   1.803729  
6216       8.673458   1.37009    1.838566  
6216.5     8.658232   1.401917   1.936273  
6217       8.578388   1.392179   1.906669  
6217.5     8.498541   1.392406   1.879548  
6218       8.504782   1.374446   1.861095  
6218.5     8.614563   1.300529   1.834052  
6219       8.674984   1.325951   1.851601  
6219.5     8.872845   1.612633   1.981443  
6220       9.052048   2.360549   2.360509  
6220.5     9.197216   1.938141   1.792564  
6221       9.335743   2.062593   2.062593  
6221.5     9.378262   2.151866   2.114982  
6222       9.438704   3.149078   3.178985  
6222.5     9.458855   2.05445    2.246161  
6223       9.459301   2.218992   2.322151  
6223.5     9.439512   2.003211   1.963416  
6224       9.459841   1.485112   1.482111  
6224.5     9.46011    1.510327   1.365589  
6225       9.460203   1.552244   1.891898  
6225.5     9.44059    1.602209   1.972205  
6226       9.440859   1.515913   1.966671  
6226.5     9.521376   1.565906   1.918818  
6227       9.521646   2.034801   2.124579  
6227.5     9.521917   1.817514   1.636204  
6228       9.482063   1.722517   2.10516   
6228.5     9.460979   1.576877   1.517088  
6229       9.422415   1.488477   1.676748  
6229.5     9.362492   1.44223    1.44223   
6230       9.362761   1.504745   1.348328  
6230.5     9.363029   1.507063   1.507063  
6231       9.363297   1.508237   1.697662  
6231.5     9.363565   1.502437   1.502437  
6232       9.441971   1.426055   1.426055  
6232.5     9.366226   1.48898    1.558895  
6233       9.344301   1.416538   1.416538  
6233.5     9.324503   1.307291   1.307291  
6234       9.32477    1.260273   1.315422  
6234.5     9.385241   1.29042    1.358407  
6235       9.382692   1.290644   1.307968  
6235.5     9.282736   1.29087    1.270922  
6236       9.205427   1.291095   1.273862  
6236.5     9.225761   1.293902   1.293902  
6237       9.326374   1.358628   1.358628  
6237.5     9.380558   1.71071    1.630567  
6238       9.410852   1.940452   2.389379  
6238.5     9.283516   6.280045   5.46201   
6239       8.915279   6.649301   9.30278   
6239.5     8.50289    1.482214   2.292694  
6240       8.48295    1.439681   2.052886  
6240.5     8.445049   1.422815   1.987494  
6241       8.465374   1.363183   1.981724  
6241.5     8.465624   1.436124   1.99194   
6242       8.445799   1.426358   1.992179  
6242.5     8.466125   1.46657    2.024521  
6243       8.463556   1.453887   2.022591  
6243.5     8.426474   1.444138   2.006866  
6244       8.4468     1.414537   2.02307   
6244.5     8.44705    1.42178    2.013332  
6245       8.427223   1.387756   2.003594  
6245.5     8.427473   1.427955   2.00786   
6246       8.4478     1.4296     2.123814  
6246.5     8.532375   1.525339   2.144014  
6247       8.544462   1.47865    1.994518  
6247.5     8.508783   1.426008   2.108809  
6248       8.533604   1.407728   2.015075  
6248.5     8.549446   1.192152   1.775809  
6249       8.549698   1.282164   1.893314  
6249.5     8.54995    1.297183   1.955852  
6250       8.570299   1.47708    1.984036  
6250.5     8.550955   1.54347    2.114641  
6251       8.636986   1.564228   2.266667  
6251.5     8.768192   1.338183   1.627583  
6252       8.57971    1.401286   1.937664  
6252.5     8.497978   1.348739   1.991714  
6253       8.49448    1.411954   2.027626  
6253.5     8.491264   1.488904   2.151458  
6254       8.455833   1.660068   2.273117  
6254.5     8.456585   1.755058   2.357774  
6255       8.457338   1.715482   2.323475  
6255.5     8.397865   1.659801   2.253312  
6256       8.398621   1.576555   2.20851   
6256.5     8.399376   1.5506     2.169281  
6257       8.400131   1.550883   2.219452  
6257.5     8.381172   1.537454   2.179119  
6258       8.401373   1.501559   2.15612   
6258.5     8.464962   1.531779   2.212443  
6259       8.543661   1.552019   2.214959  
6259.5     8.606991   1.586287   2.061116  
6260       8.895247   1.665296   2.350755  
6260.5     9.0509     2.001877   1.972059  
6261       9.128719   1.852466   1.923777  
6261.5     8.921066   1.694002   1.992458  
6262       8.605114   1.475872   1.997289  
6262.5     8.528851   1.424297   1.983039  
6263       8.489464   1.374694   1.953387  
6263.5     8.510286   1.381106   1.993576  
6264       8.55212    1.449215   2.061955  
6264.5     8.612133   1.423233   2.183579  
6265       8.612885   1.363793   1.475634  
6265.5     8.573498   1.282596   1.588845  
6266       8.574249   1.230394   1.836228  
6266.5     8.515036   1.256972   1.865554  
6267       8.555685   1.323057   1.97555   
6267.5     8.556437   1.506959   2.118421  
6268       8.476923   1.501903   2.175666  
6268.5     8.457611   1.497552   2.165967  
6269       8.458364   1.562415   2.183069  
6269.5     8.459118   1.713018   2.346092  
6270       8.5        1.672637   2.338901  
6270.5     8.559887   1.663671   2.289414  
6271       8.619997   1.617645   2.235388  
6271.5     8.702061   1.318021   1.975628  
6272       8.62595    1.410402   1.867283  
6272.5     8.525572   1.580216   1.961628  
6273       8.504513   1.480044   2.288043  
6273.5     8.485205   1.385383   2.078886  
6274       8.483715   1.425951   2.020159  
6274.5     8.506769   1.441112   2.082322  
6275       8.507523   1.392097   2.062591  
6275.5     8.545813   1.386553   2.030124  
6276       8.571785   1.456724   2.221667  
6276.5     8.569954   1.452225   2.260181  
6277       8.628168   1.387675   2.080879  
6277.5     8.65169    1.174899   1.835     
6278       8.592264   1.162344   1.748735  
6278.5     8.572958   1.184056   1.792493  
6279       8.573708   1.165671   1.776188  
6279.5     8.594517   1.199123   1.803029  
6280       8.635151   1.263998   1.857253  
6280.5     8.676262   1.488683   1.973149  
6281       8.600754   1.484709   1.985736  
6281.5     8.557405   1.360031   1.993656  
6282       8.502657   1.352117   1.993935  
6282.5     8.498745   1.425721   2.048356  
6283       8.519552   1.455925   2.142629  
6283.5     8.520302   1.460351   2.144373  
6284       8.515865   1.42086    2.086386  
6284.5     8.501753   1.341651   2.015239  
6285       8.522558   1.297495   1.975665  
6285.5     8.52331    1.307754   1.965971  
6286       8.498146   1.39091    1.996169  
6286.5     8.524813   1.378136   2.066257  
6287       8.525564   1.434327   2.15452   
6287.5     8.526314   1.422505   2.167299  
6288       8.540865   1.40492    2.037089  
6288.5     8.567917   1.565526   2.177025  
6289       8.568668   1.588346   2.326471  
6289.5     8.569418   1.486527   2.147706  
6290       8.550119   1.383439   2.043419  
6290.5     8.577837   1.290671   1.956686  
6291       8.571671   1.403185   1.909081  
6291.5     8.57242    1.378626   2.009217  
6292       8.533075   1.241671   1.650616  
6292.5     8.533829   1.295898   1.790451  
6293       8.514534   1.308056   1.869033  
6293.5     8.515285   1.262474   1.889381  
6294       8.548107   1.312493   1.948891  
6294.5     8.516787   1.340414   1.958538  
6295       8.51754    1.559827   2.130818  
6295.5     8.51829    1.802155   2.262136  
6296       8.550522   1.69404    2.293669  
6296.5     8.559879   1.367682   1.92671   
