~Version
 VERS              .         3.0                           : CWLS LOG ASCII STANDARD - VERSION 3.0
 WRAP              .         NO                            : ONE LINE PER DEPTH STEP
 DLM               .         SPACE                         : DELIMITING CHARACTER(SPACE TAB OR COMMA)
~Well Information
#_______________________________________________________________________________
#
#PARAMETER_NAME    .UNIT     VALUE                         : DESCRIPTION
#_______________________________________________________________________________
STRT               .ft       4750                          : First reference value
STOP               .ft       6400                          : Last reference value
STEP               .ft       0.5                           : Step increment
NULL               .         -9999                         : Missing value
COMP               .                                       : Company
WELL               .         EGBM-004                      : Well name
FLD                .         WILDCAT                       : Field
LOC                .                                       : Location
SRVC               .                                       : Service Company
CTRY               .                                       : Country
DATE               .                                       : Service Date
X                  .                                       : X or East-West coordinate
Y                  .                                       : Y or North South coordinate
GDAT               .                                       : Geodetic Datum
HZCS               .                                       : Horizontal Co-ordinate System
CREATION-TIME      .         2000/8/11 0_0                 : 
FIELD-NAME         .         WILDCAT                       : 
FILE-ID            .         SHELL.001                     : 
FILE-NUMBER        .         1                             : 
FILE-SET-NAME      .                                       : 
FILE-SET-NUMBER    .         0                             : 
FILE-TYPE          .         SHELL                         : 
NAME-SPACE-NAME    .         LIS                           : 
NAME-SPACE-VERSION .         0                             : 
PRODUCER-CODE      .         440                           : 
PRODUCER-NAME      .         Schlumberger                  : 
PRODUCT            .                                       : 
PROGRAMS           .                                       : 
VERSION            .         REV 2.00                      : 
WELL-NAME          .                                       : 
~Parameter Information Block
#_______________________________________________________________________________
#
#PARAMETER_NAME    .UNIT     VALUE                         : DESCRIPTION
#_______________________________________________________________________________
SET                .         SHELL_001_1                   : 
ACQUISITION-PRODUCT .         DLIS/U                        : 
CREATION-TIME      .         2026/5/13 10_33               : 
DLIS_FRAME_DIRECTION .         INCREASING                    : 
DLIS_FRAME_NAME    .         1                             : 
DLIS_FRAME_SPACING .0.1_in   60                            : 
FIELD-NAME         .         WILDCAT                       : 
FILE-ID            .         SHELL.001                     : 
FILE-NUMBER        .         1                             : 
FILE-SET-NAME      .         LIS-TO-DLIS-CONVERSION        : 
FILE-SET-NUMBER    .         1254                          : 
FILE-TYPE          .         SHELL                         : 
INDEX-TYPE         .         BOREHOLE-DEPTH                : 
NAME-SPACE-NAME    .                                       : 
NAME-SPACE-VERSION .         0                             : 
OriginalDatasetName .         1                             : 
PRODUCER-CODE      .         440                           : 
PRODUCER-NAME      .         Schlumberger                  : 
PRODUCT            .         DLIS/U                        : 
PROGRAMS           .         LIS-TO-DLIS                   : 
TLFamily_CALM      .         Caliper                       : 
TLFamily_DEPT      .         Measured Depth                : 
TLFamily_MINV      .         Resistivity - Micro           : 
TLFamily_MNOR      .         Resistivity - Micro           : 
VERSION            .         0.1                           : 
WELL-NAME          .                                       : 
~Curve Information
#_______________________________________________________________________________
#
#LOGNAME           .UNIT     LOG_ID                        : DESCRIPTION
#_______________________________________________________________________________
DEPT               .ft                                     :  {F}
CALM               .in                                     :  {F}
MINV               .ohm.m                                  :  {F}
MNOR               .ohm.m                                  :  {F}
~Ascii
# ...
5751       8.931627   1.129335   1.666585  
5751.5     8.78557    1.208103   1.786305  
5752       8.840181   1.327242   1.985865  
5752.5     8.800304   1.277319   2.005789  
5753       8.86573    1.368278   2.048013  
5753.5     8.86573    1.437631   2.144705  
5754       8.86573    1.458499   2.127875  
5754.5     8.78557    1.566586   2.215172  
5755       8.78557    1.556576   2.255039  
5755.5     8.78557    1.506657   2.235039  
5756       8.78557    1.434332   2.222566  
5756.5     8.78557    1.408113   2.14257   
5757       8.78557    1.344113   2.095223  
5757.5     8.76553    1.366858   2.066768  
5758       8.780882   1.431592   2.130146  
5758.5     8.76553    1.611347   2.211413  
5759       8.76553    1.884617   2.514085  
5759.5     8.749969   2.076353   2.66366   
5760       8.78557    2.374302   2.693537  
5760.5     8.745491   2.663555   2.99273   
5761       8.725451   2.260041   2.683427  
5761.5     8.669455   1.729687   2.359607  
5762       8.681269   1.521403   2.174608  
5762.5     8.685369   1.49626    2.211955  
5763       8.701426   1.43638    2.13462   
5763.5     8.741482   1.544196   2.314101  
5764       8.745491   1.544816   2.344     
5764.5     8.70541    1.429236   2.194355  
5765       8.725451   1.430281   2.194311  
5765.5     8.725451   1.342717   2.071455  
5766       8.76553    1.528829   2.124407  
5766.5     8.821901   1.658881   2.423553  
5767       8.958008   1.655797   2.400156  
5767.5     8.982103   1.857965   2.523173  
5768       8.869385   1.604106   2.372018  
5768.5     8.725451   1.475955   2.266377  
5769       8.782055   1.408465   2.192478  
5769.5     8.885771   1.344099   2.028279  
5770       8.942375   1.382129   1.705228  
5770.5     8.889189   1.38433    1.707537  
5771       8.902412   1.376091   1.914562  
5771.5     8.94589    1.424513   1.910241  
5772       9.022652   1.495684   1.65523   
5772.5     8.929033   1.405922   1.74493   
5773       8.905811   1.371375   2.004143  
5773.5     8.92585    1.340763   1.826394  
5774       8.94589    1.420589   1.914342  
5774.5     8.94589    1.41578    1.70491   
5775       8.92585    1.425722   1.91424   
5775.5     8.923021   1.291217   1.824254  
5776       8.928663   1.38019    1.744696  
5776.5     8.885771   1.415666   1.840333  
5777       8.885771   1.360398   1.864257  
5777.5     8.885771   1.280532   1.778987  
5778       8.890957   1.266049   1.792055  
5778.5     8.885771   1.310179   1.933936  
5779       8.885771   1.321647   1.899819  
5779.5     8.885771   1.294071   1.862264  
5780       8.885771   1.341706   1.883974  
5780.5     8.885771   1.479705   1.965904  
5781       8.981491   1.574897   2.033412  
5781.5     9.301691   1.913764   2.165528  
5782       9.454319   2.571545   2.561594  
5782.5     9.466932   1.94359    1.987476  
5783       9.466932   1.704339   1.664482  
5783.5     9.469276   2.023246   2.212592  
5784       9.509253   1.504956   1.514913  
5784.5     9.507013   1.521757   1.425195  
5785       9.509134   1.695236   1.695236  
5785.5     9.544983   1.610257   1.610257  
5786       9.587173   2.28217    2.26223   
5786.5     9.548979   1.903418   1.923343  
5787       9.565258   4.295062   4.295034  
5787.5     9.647293   1.33533    1.325356  
5788       9.572407   2.680553   2.551035  
5788.5     9.567133   1.516924   1.516924  
5789       9.567133   1.578733   1.414952  
5789.5     9.486973   1.763679   1.703911  
5790       9.468348   1.365076   1.512555  
5790.5     9.307901   1.523193   1.693856  
5791       9.266533   1.743665   1.305248  
5791.5     9.246492   1.374958   1.454677  
5792       9.206411   1.519644   1.519644  
5792.5     9.206411   1.843192   1.873076  
5793       9.225513   1.300776   1.564183  
5793.5     9.266533   1.853069   1.885185  
5794       9.268993   1.394751   2.002471  
5794.5     9.186373   1.344917   2.011287  
5795       9.225748   1.535168   2.241468  
5795.5     9.086758   2.221521   2.869059  
5796       8.906282   1.314952   2.043789  
5796.5     8.846159   1.471498   2.10974   
5797       8.92585    1.623701   2.200874  
5797.5     9.085819   1.553473   2.122663  
5798       9.266296   1.792961   1.845224  
5798.5     9.306612   1.552708   1.484164  
5799       9.366613   1.543361   1.324766  
5799.5     9.28669    1.952226   1.961377  
5800       9.126253   2.061755   2.061755  
5800.5     9.025652   2.07169    2.609363  
5801       9.247107   2.409928   2.240639  
5801.5     9.50699    4.401793   1.861953  
5802       9.522387   3.62467    1.741529  
5802.5     9.232464   1.296989   1.432329  
5803       8.84918    1.333466   1.243862  
5803.5     8.579552   1.485247   1.363218  
5804       8.581963   1.49829    1.512388  
5804.5     8.581564   1.540391   1.540391  
5805       8.649298   1.406759   1.406759  
5805.5     8.885723   1.173107   1.173107  
5806       9.091028   1.300164   1.300164  
5806.5     9.216055   1.182844   1.093036  
5807       9.054895   1.162549   1.052931  
5807.5     8.959919   1.415163   1.128134  
5808       8.965883   1.490837   1.211952  
5808.5     9.026075   1.523663   1.304089  
5809       9.255194   2.088125   1.858975  
5809.5     9.547096   6.211396   6.111794  
5810       9.511021   5.284804   4.358608  
5810.5     9.313168   2.012807   1.794797  
5811       9.037273   1.457593   1.409907  
5811.5     9.036873   1.510886   1.487986  
5812       9.036472   1.519124   1.409477  
5812.5     9.006012   1.702777   1.702777  
5813       8.955511   1.638247   1.638247  
5813.5     8.99519    2.185873   2.280713  
5814       9.113262   1.558151   1.578137  
5814.5     9.446823   1.914659   2.125747  
5815       9.470942   1.60757    1.507987  
5815.5     9.24173    1.782317   1.856394  
5816       9.325144   1.51745    1.427809  
5816.5     9.453236   1.734532   1.905796  
5817       9.272356   1.710124   1.606694  
5817.5     8.911823   2.184317   2.443281  
5818       8.865685   1.573154   2.462948  
5818.5     8.905834   1.71603    2.515479  
5819       8.895414   1.785258   2.522369  
5819.5     8.8501     1.71112    2.525275  
5820       8.86974    1.655378   2.541832  
5820.5     8.772793   1.63772    2.524525  
5821       8.748697   1.634986   2.511553  
5821.5     8.745466   1.575099   2.481474  
5822       8.785515   1.602906   2.461354  
5822.5     8.787575   1.639704   2.397586  
5823       8.788824   1.546144   2.38315   
5823.5     8.747871   1.582915   2.540366  
5824       8.727077   1.729775   2.605038  
5824.5     8.66573    1.830655   2.717799  
5825       8.665331   1.931281   2.835833  
5825.5     8.66493    1.961952   2.878287  
5826       8.702959   2.040789   2.987645  
5826.5     8.665306   1.933724   2.899683  
5827       8.683767   1.782423   2.709011  
5827.5     8.703407   1.76201    2.648874  
5828       8.738371   1.811729   2.668127  
5828.5     8.702604   1.911249   2.757393  
5829       8.702204   2.071349   2.946547  
5829.5     8.761925   2.18951    2.796133  
5830       8.905811   1.581644   2.08961   
5830.5     8.910126   1.776251   2.414189  
5831       9.115902   2.079187   2.588881  
5831.5     9.075775   1.931079   2.688517  
5832       8.93474    1.87962    2.776095  
5832.5     8.879759   2.467037   2.830357  
5833       8.772793   2.168034   3.181838  
5833.5     8.758717   2.177961   2.933404  
5834       8.785547   2.058241   2.48646   
5834.5     8.80554    1.503927   2.093623  
5835       8.953907   1.545665   2.037848  
5835.5     9.423506   2.266742   2.575472  
5836       9.618437   1.937759   1.838257  
5836.5     9.528681   3.620989   5.114943  
5837       9.466923   3.491176   3.292106  
5837.5     9.496994   2.245927   3.670326  
5838       9.446138   1.566534   1.329496  
5838.5     9.275751   1.538797   1.628101  
5839       9.31543    1.578087   1.667729  
5839.5     9.234869   1.558788   1.607717  
5840       9.242485   1.463674   1.567205  
5840.5     9.16157    1.403245   1.622193  
5841       8.980337   1.502414   1.567347  
5841.5     8.852976   1.49741    1.517349  
