~Version
 VERS              .         3.0                           : CWLS LOG ASCII STANDARD - VERSION 3.0
 WRAP              .         NO                            : ONE LINE PER DEPTH STEP
 DLM               .         SPACE                         : DELIMITING CHARACTER(SPACE TAB OR COMMA)
~Well Information
#_______________________________________________________________________________
#
#PARAMETER_NAME    .UNIT     VALUE                         : DESCRIPTION
#_______________________________________________________________________________
STRT               .ft       4750                          : First reference value
STOP               .ft       6400                          : Last reference value
STEP               .ft       0.5                           : Step increment
NULL               .         -9999                         : Missing value
COMP               .                                       : Company
WELL               .         EGBM-004                      : Well name
FLD                .         WILDCAT                       : Field
LOC                .                                       : Location
SRVC               .                                       : Service Company
CTRY               .                                       : Country
DATE               .                                       : Service Date
X                  .                                       : X or East-West coordinate
Y                  .                                       : Y or North South coordinate
GDAT               .                                       : Geodetic Datum
HZCS               .                                       : Horizontal Co-ordinate System
CREATION-TIME      .         2000/8/11 0_0                 : 
FIELD-NAME         .         WILDCAT                       : 
FILE-ID            .         SHELL.001                     : 
FILE-NUMBER        .         1                             : 
FILE-SET-NAME      .                                       : 
FILE-SET-NUMBER    .         0                             : 
FILE-TYPE          .         SHELL                         : 
NAME-SPACE-NAME    .         LIS                           : 
NAME-SPACE-VERSION .         0                             : 
PRODUCER-CODE      .         440                           : 
PRODUCER-NAME      .         Schlumberger                  : 
PRODUCT            .                                       : 
PROGRAMS           .                                       : 
VERSION            .         REV 2.00                      : 
WELL-NAME          .                                       : 
~Parameter Information Block
#_______________________________________________________________________________
#
#PARAMETER_NAME    .UNIT     VALUE                         : DESCRIPTION
#_______________________________________________________________________________
SET                .         SHELL_001_1                   : 
ACQUISITION-PRODUCT .         DLIS/U                        : 
CREATION-TIME      .         2026/5/13 10_33               : 
DLIS_FRAME_DIRECTION .         INCREASING                    : 
DLIS_FRAME_NAME    .         1                             : 
DLIS_FRAME_SPACING .0.1_in   60                            : 
FIELD-NAME         .         WILDCAT                       : 
FILE-ID            .         SHELL.001                     : 
FILE-NUMBER        .         1                             : 
FILE-SET-NAME      .         LIS-TO-DLIS-CONVERSION        : 
FILE-SET-NUMBER    .         1254                          : 
FILE-TYPE          .         SHELL                         : 
INDEX-TYPE         .         BOREHOLE-DEPTH                : 
NAME-SPACE-NAME    .                                       : 
NAME-SPACE-VERSION .         0                             : 
OriginalDatasetName .         1                             : 
PRODUCER-CODE      .         440                           : 
PRODUCER-NAME      .         Schlumberger                  : 
PRODUCT            .         DLIS/U                        : 
PROGRAMS           .         LIS-TO-DLIS                   : 
TLFamily_CALM      .         Caliper                       : 
TLFamily_DEPT      .         Measured Depth                : 
TLFamily_MINV      .         Resistivity - Micro           : 
TLFamily_MNOR      .         Resistivity - Micro           : 
VERSION            .         0.1                           : 
WELL-NAME          .                                       : 
~Curve Information
#_______________________________________________________________________________
#
#LOGNAME           .UNIT     LOG_ID                        : DESCRIPTION
#_______________________________________________________________________________
DEPT               .ft                                     :  {F}
CALM               .in                                     :  {F}
MINV               .ohm.m                                  :  {F}
MNOR               .ohm.m                                  :  {F}
~Ascii
# ...
6297       8.569485   1.598881   2.092283  
6297.5     8.530437   1.741821   2.226123  
6298       8.502005   1.773413   2.319259  
6298.5     8.492325   1.49264    2.092302  
6299       8.503508   1.626646   2.184437  
6299.5     8.514048   1.85261    2.462326  
6300       8.484947   1.964108   2.430541  
6300.5     8.46513    1.670259   2.256932  
6301       8.44529    1.365984   1.983124  
6301.5     8.425451   1.332158   1.925476  
6302       8.44569    1.453879   2.026187  
6302.5     8.465931   1.525813   2.064637  
6303       8.466131   1.646992   2.227638  
6303.5     8.446293   1.675316   2.264448  
6304       8.446493   1.636556   2.2287    
6304.5     8.426653   1.676619   2.279313  
6305       8.426853   1.626956   2.26527   
6305.5     8.467134   1.627139   2.225279  
6306       8.467335   1.567508   2.155558  
6306.5     8.487337   1.545248   2.106008  
6307       8.508408   1.508064   1.996516  
6307.5     8.508114   1.578028   1.992081  
6308       8.509224   1.498175   1.986921  
6308.5     8.531301   1.41552    1.857584  
6309       8.528656   1.460918   1.867583  
6309.5     8.548897   1.508986   2.047248  
6310       8.549097   1.519139   2.100273  
6310.5     8.523365   1.513987   2.157275  
6311       8.516058   1.459699   2.092719  
6311.5     8.549698   1.405621   2.107791  
6312       8.538042   1.400262   2.078099  
6312.5     8.5501     1.344606   2.018413  
6313       8.550301   1.271056   1.94972   
6313.5     8.550501   1.231374   1.861173  
6314       8.570742   1.27827    1.908136  
6314.5     8.550901   1.301517   1.959353  
6315       8.591183   1.303977   1.948983  
6315.5     8.611422   1.157484   1.809334  
6316       8.611624   1.15039    1.771053  
6316.5     8.611824   1.192629   1.800604  
6317       8.612024   1.260684   1.892255  
6317.5     8.612225   1.322569   1.970422  
6318       8.609816   1.302823   1.957857  
6318.5     8.612625   1.193612   1.847877  
6319       8.612825   1.193801   1.801511  
6319.5     8.613026   1.254435   1.891388  
6320       8.613226   1.263703   1.901535  
6320.5     8.613426   1.26389    1.901715  
6321       8.615524   1.264077   1.906613  
6321.5     8.613827   1.316746   1.967178  
6322       8.614027   1.360941   2.03181   
6322.5     8.614227   1.357865   2.058349  
6323       8.614428   1.360551   2.104917  
6323.5     8.620321   1.394562   2.109417  
6324       8.634869   1.380493   2.122215  
6324.5     8.574949   1.29009    1.982799  
6325       8.57515    1.366107   2.002989  
6325.5     8.51523    1.425198   2.023099  
6326       8.51543    1.418994   2.013313  
6326.5     8.55571    1.335885   1.973634  
6327       8.535872   1.29289    1.904993  
6327.5     8.536072   1.263438   1.852876  
6328       8.516232   1.29399    1.92444   
6328.5     8.516432   1.276843   1.914742  
6329       8.556713   1.399405   2.005309  
6329.5     8.61158    1.398884   2.031816  
6330       8.61261    1.296268   1.825486  
6330.5     8.617434   1.385031   1.938655  
6331       8.617634   1.417388   2.047474  
6331.5     8.657915   1.367636   2.022495  
6332       8.736973   1.306196   1.940125  
6332.5     8.739065   1.148573   1.761399  
6333       8.678556   1.18031    1.765362  
6333.5     8.638678   1.373894   2.01602   
6334       8.697466   1.406132   2.195477  
6334.5     8.679159   1.418566   2.10603   
6335       8.699398   1.471869   2.081801  
6335.5     8.719639   1.388932   2.021056  
6336       8.670853   1.394304   1.945751  
6336.5     8.619839   1.564062   2.09342   
6337       8.574183   1.614031   2.186623  
6337.5     8.587233   1.559155   2.082603  
6338       8.56032    1.553571   2.087418  
6338.5     8.54048    1.489786   2.007831  
6339       8.54068    1.519856   2.124594  
6339.5     8.54088    1.493436   2.148716  
6340       8.561121   1.430565   1.978518  
6340.5     8.621443   1.370977   1.957736  
6341       8.661724   1.428519   2.027941  
6341.5     8.661924   1.461006   2.088602  
6342       8.721312   1.45123    2.089311  
6342.5     8.662325   1.441453   2.088079  
6343       8.647671   1.46998    2.101693  
6343.5     8.642685   1.551398   2.288544  
6344       8.642885   1.541797   2.256331  
6344.5     8.683167   1.520944   2.216473  
6345       8.643286   1.470862   2.170763  
6345.5     8.623447   1.433544   2.123036  
6346       8.622936   1.471215   2.207323  
6346.5     8.623848   1.423009   2.146226  
6347       8.644087   1.445238   2.140368  
6347.5     8.64583    1.433272   2.140547  
6348       8.682196   1.476315   2.175674  
6348.5     8.641624   1.513394   2.234882  
6349       8.604809   1.55342    2.270566  
6349.5     8.605009   1.557906   2.360384  
6350       8.590359   1.643251   2.417566  
6350.5     8.610769   1.713581   2.4105    
6351       8.625757   1.728603   2.383789  
6351.5     8.605968   1.703669   2.334343  
6352       8.58618    1.590311   2.265015  
6352.5     8.600965   1.496178   2.209141  
6353       8.53723    1.377597   2.084548  
6353.5     8.506765   1.339958   2.053187  
6354       8.527006   1.334576   2.049343  
6354.5     8.507267   1.3603     2.0895    
6355       8.507517   1.376494   2.109679  
6355.5     8.493265   1.416533   2.113745  
6356       8.487972   1.430794   2.133864  
6356.5     8.468178   1.440954   2.156327  
6357       8.468428   1.44875    2.148067  
6357.5     8.468678   1.343823   2.034908  
6358       8.488974   1.351617   2.0251    
6358.5     8.489223   1.425744   2.163032  
6359       8.489475   1.473554   2.244622  
6359.5     8.469677   1.380558   2.123376  
6360       8.489975   1.36474    2.111437  
6360.5     8.464197   1.332576   2.099952  
6361       8.450378   1.341592   2.039324  
6361.5     8.450628   1.319323   2.00104   
6362       8.46483    1.41303    2.032259  
6362.5     8.451126   1.497246   2.222229  
6363       8.451376   1.519124   2.256175  
6363.5     8.451626   1.459562   2.212573  
6364       8.42561    1.593553   2.206687  
6364.5     8.412024   1.699004   2.575541  
6365       8.472427   1.664864   2.505976  
6365.5     8.472677   1.673975   2.426439  
6366       8.472927   1.884041   2.516335  
6366.5     8.46661    1.889027   2.499934  
6367       8.453375   1.55008    2.21208   
6367.5     8.473679   1.699198   2.437263  
6368       8.52088    1.774807   2.583689  
6368.5     8.601662   1.969505   2.059145  
6369       8.547613   2.148919   2.338293  
6369.5     8.474678   1.949655   2.508233  
6370       8.474928   1.702354   2.278865  
6370.5     8.47518    1.549965   2.219323  
6371       8.455372   1.502391   2.179681  
6371.5     8.455622   1.449083   2.144525  
6372       8.455873   1.512749   2.155675  
6372.5     8.456123   1.486818   2.165866  
6373       8.456371   1.552988   2.185986  
6373.5     8.456621   1.533267   2.160758  
6374       8.456814   1.581204   2.201852  
6374.5     8.457121   1.599391   2.220916  
6375       8.477432   1.530079   2.155996  
6375.5     8.477682   1.507933   2.121714  
6376       8.470425   1.520575   2.156453  
6376.5     8.498243   1.522041   2.142032  
6377       8.470808   1.524701   2.142231  
6377.5     8.45862    1.471547   2.087562  
6378       8.471189   1.538788   2.127865  
6378.5     8.459122   1.525299   2.142828  
6379       8.459372   1.485658   2.103013  
6379.5     8.479685   1.475897   2.043626  
6380       8.479935   1.456176   2.01907   
6380.5     8.480186   1.449872   1.984263  
6381       8.480436   1.479465   2.029457  
6381.5     8.480686   1.480188   2.0046    
6382       8.521069   1.573916   2.149262  
6382.5     8.569952   1.69018    2.304605  
6383       8.780893   1.708413   2.213648  
6383.5     8.94323    1.499357   1.995419  
6384       9.003693   0.9000924  0.9399333 
6384.5     9.115929   0.8901989  1.109321  
6385       9.224964   1.80919    1.886454  
6385.5     9.265432   2.056026   1.817018  
6386       9.368183   1.538302   1.498407  
6386.5     9.346178   2.245667   2.195834  
6387       9.294804   1.508754   1.551617  
6387.5     9.094955   1.767915   1.787966  
