~Version
 VERS              .         3.0                           : CWLS LOG ASCII STANDARD - VERSION 3.0
 WRAP              .         NO                            : ONE LINE PER DEPTH STEP
 DLM               .         SPACE                         : DELIMITING CHARACTER(SPACE TAB OR COMMA)
~Well Information
#_______________________________________________________________________________
#
#PARAMETER_NAME    .UNIT     VALUE                         : DESCRIPTION
#_______________________________________________________________________________
STRT               .ft       4750                          : First reference value
STOP               .ft       6400                          : Last reference value
STEP               .ft       0.5                           : Step increment
NULL               .         -9999                         : Missing value
COMP               .                                       : Company
WELL               .         EGBM-004                      : Well name
FLD                .         WILDCAT                       : Field
LOC                .                                       : Location
SRVC               .                                       : Service Company
CTRY               .                                       : Country
DATE               .                                       : Service Date
X                  .                                       : X or East-West coordinate
Y                  .                                       : Y or North South coordinate
GDAT               .                                       : Geodetic Datum
HZCS               .                                       : Horizontal Co-ordinate System
CREATION-TIME      .         2000/8/11 0_0                 : 
FIELD-NAME         .         WILDCAT                       : 
FILE-ID            .         SHELL.001                     : 
FILE-NUMBER        .         1                             : 
FILE-SET-NAME      .                                       : 
FILE-SET-NUMBER    .         0                             : 
FILE-TYPE          .         SHELL                         : 
NAME-SPACE-NAME    .         LIS                           : 
NAME-SPACE-VERSION .         0                             : 
PRODUCER-CODE      .         440                           : 
PRODUCER-NAME      .         Schlumberger                  : 
PRODUCT            .                                       : 
PROGRAMS           .                                       : 
VERSION            .         REV 2.00                      : 
WELL-NAME          .                                       : 
~Parameter Information Block
#_______________________________________________________________________________
#
#PARAMETER_NAME    .UNIT     VALUE                         : DESCRIPTION
#_______________________________________________________________________________
SET                .         SHELL_001_1                   : 
ACQUISITION-PRODUCT .         DLIS/U                        : 
CREATION-TIME      .         2026/5/13 10_33               : 
DLIS_FRAME_DIRECTION .         INCREASING                    : 
DLIS_FRAME_NAME    .         1                             : 
DLIS_FRAME_SPACING .0.1_in   60                            : 
FIELD-NAME         .         WILDCAT                       : 
FILE-ID            .         SHELL.001                     : 
FILE-NUMBER        .         1                             : 
FILE-SET-NAME      .         LIS-TO-DLIS-CONVERSION        : 
FILE-SET-NUMBER    .         1254                          : 
FILE-TYPE          .         SHELL                         : 
INDEX-TYPE         .         BOREHOLE-DEPTH                : 
NAME-SPACE-NAME    .                                       : 
NAME-SPACE-VERSION .         0                             : 
OriginalDatasetName .         1                             : 
PRODUCER-CODE      .         440                           : 
PRODUCER-NAME      .         Schlumberger                  : 
PRODUCT            .         DLIS/U                        : 
PROGRAMS           .         LIS-TO-DLIS                   : 
TLFamily_CALM      .         Caliper                       : 
TLFamily_DEPT      .         Measured Depth                : 
TLFamily_MINV      .         Resistivity - Micro           : 
TLFamily_MNOR      .         Resistivity - Micro           : 
VERSION            .         0.1                           : 
WELL-NAME          .                                       : 
~Curve Information
#_______________________________________________________________________________
#
#LOGNAME           .UNIT     LOG_ID                        : DESCRIPTION
#_______________________________________________________________________________
DEPT               .ft                                     :  {F}
CALM               .in                                     :  {F}
MINV               .ohm.m                                  :  {F}
MNOR               .ohm.m                                  :  {F}
~Ascii
# ...
5205       8.967276   1.340936   1.796797  
5205.5     8.966814   1.320299   1.731128  
5206       9.010874   1.418169   1.869148  
5206.5     9.041849   1.311025   1.852497  
5207       9.065805   1.297284   1.798856  
5207.5     9.065342   1.307134   1.824334  
5208       8.98303    1.264529   1.792819  
5208.5     9.08449    1.342834   1.847822  
5209       9.100344   1.304268   1.738424  
5209.5     9.103634   1.259395   1.807413  
5210       9.243664   1.320727   1.727435  
5210.5     9.226799   1.230741   1.721235  
5211       9.242744   1.224411   1.703219  
5211.5     9.242277   1.309818   1.762653  
5212       9.101305   1.18574    1.841898  
5212.5     9.100853   1.32624    1.865504  
5213       9.197803   1.298291   1.774834  
5213.5     9.240412   1.325213   1.635927  
5214       9.394394   1.227212   1.794956  
5214.5     9.411974   1.296199   1.505803  
5215       9.459763   1.24627    1.296251  
5215.5     9.22299    1.287306   1.345876  
5216       9.124825   1.415192   1.614459  
5216.5     9.293381   1.324406   1.933133  
5217       9.45788    1.341557   1.556993  
5217.5     9.457409   1.326296   1.326296  
5218       9.456938   1.270646   1.270646  
5218.5     9.456469   1.192688   1.192688  
5219       9.474068   1.156693   1.156693  
5219.5     9.493778   1.206168   1.206168  
5220       9.553383   1.262242   1.262242  
5220.5     9.615095   1.47531    1.472468  
5221       9.574495   1.534596   1.534596  
5221.5     9.572378   1.553075   1.553075  
5222       9.593611   1.649633   1.649633  
5222.5     9.532951   1.667763   1.49899   
5223       9.394184   1.82968    1.431052  
5223.5     9.331392   1.809512   1.989288  
5224       9.330925   1.757756   2.367268  
5224.5     9.450352   1.578979   2.068041  
5225       9.32999    1.391455   1.968112  
5225.5     9.289402   1.280232   1.997728  
5226       9.268875   1.299876   1.98999   
5226.5     9.249054   1.29959    1.919486  
5227       9.288704   1.319236   1.976959  
5227.5     9.448698   1.353801   1.988802  
5228       9.766134   1.310196   2.016228  
5228.5     10.22187   1.240965   1.735875  
5229       10.60696   1.07207    1.502551  
5229.5     10.66652   1.065742   1.487229  
5230       11.09015   0.9388086  1.467085  
5230.5     11.87181   0.9266872  1.254016  
5231       11.87164   0.9382293  1.11261   
5231.5     9.825123   1.088876   1.088876  
5232       9.343346   1.367242   1.445973  
5232.5     9.019093   1.561468   2.213314  
5233       8.98159    1.751173   2.461989  
5233.5     8.981129   1.903853   2.619586  
5234       8.984304   2.062752   2.7637    
5234.5     8.980207   2.057549   2.752525  
5235       8.979748   1.603741   2.470846  
5235.5     8.919132   1.859953   2.553101  
5236       8.929995   1.963923   2.749484  
5236.5     8.938263   1.767081   2.400226  
5237       8.937803   1.482967   2.150861  
5237.5     8.937344   1.273313   2.070846  
5238       8.94169    1.426579   1.911134  
5238.5     8.976522   1.658289   2.249661  
5239       9.100927   1.44685    2.319252  
5239.5     9.086403   1.053024   1.611172  
5240       8.935045   2.109284   2.478071  
5240.5     8.97468    1.251617   1.949381  
5241       8.97422    1.789657   2.367764  
5241.5     9.431143   1.649916   1.719788  
5242       10.63555   1.021682   1.530377  
5242.5     11.27804   1.060861   1.599417  
5243       10.98355   0.964744   1.120599  
5243.5     9.548641   1.045901   1.489241  
5244       9.077742   1.897915   1.897726  
5244.5     9.480242   1.149646   2.166558  
5245       10.02117   1.099706   1.680016  
5245.5     10.43583   1.059428   1.557755  
5246       10.51295   1.079078   1.537666  
5246.5     10.34856   1.146419   1.637131  
5247       10.19612   1.068506   1.494507  
5247.5     9.493265   1.187994   1.476997  
5248       9.308662   2.244379   1.486683  
5248.5     10.41623   0.9780622  1.496368  
5249       10.53004   1.097289   1.515489  
5249.5     10.67785   1.256495   1.549227  
5250       11.14798   1.055241   1.491506  
5250.5     11.39587   1.050613   1.489601  
5251       11.71079   1.01655    1.385802  
5251.5     11.71048   1.052675   1.365304  
5252       11.64999   1.205537   1.464889  
5252.5     12.08188   1.048236   1.413753  
5253       12.36843   0.9784687  1.358806  
5253.5     12.29183   0.973341   1.312001  
5254       12.12933   1.080044   1.304574  
5254.5     12.36769   1.003334   1.451302  
5255       12.08389   0.975075   1.307038  
5255.5     11.8106    1.092593   1.503278  
5256       11.88525   0.9459391  1.223888  
5256.5     11.63893   1.010879   1.271422  
5257       11.35505   1.091368   1.442863  
5257.5     11.01061   1.166105   1.512463  
5258       10.55699   1.103487   1.574228  
5258.5     10.02326   1.511991   1.472177  
5259       10.26499   1.142937   1.88078   
5259.5     10.8741    1.06331    1.557065  
5260       10.95375   1.092722   1.534473  
5260.5     10.76941   1.122256   1.491326  
5261       10.40868   1.251556   1.735131  
5261.5     10.46227   1.106746   1.595703  
5262       10.46197   1.014612   1.470788  
5262.5     9.694914   1.111665   1.490528  
5263       9.541935   1.154844   1.598272  
5263.5     9.360334   1.382371   2.008503  
5264       9.338507   1.460603   2.129727  
5264.5     9.518261   1.280238   1.962802  
5265       9.658655   1.143329   1.729048  
5265.5     9.698788   1.244044   1.778814  
5266       9.838587   1.399401   1.888168  
5266.5     9.998756   1.470684   1.917997  
5267       10.07858   2.914513   2.485771  
5267.5     10.01751   1.827487   1.963315  
5268       9.797665   1.388577   1.298913  
5268.5     9.657207   1.375532   1.375532  
5269       9.653519   1.265114   1.265114  
5269.5     9.640524   1.122167   1.009121  
5270       9.656387   1.234575   1.234575  
5270.5     9.651285   1.283831   1.283831  
5271       9.635817   1.237934   1.247937  
5271.5     9.695612   1.112468   1.028266  
5272       9.755373   1.143006   1.143006  
5272.5     9.675043   1.112101   0.9581125 
5273       9.674768   1.118955   1.118955  
5273.5     9.654474   1.275767   1.275767  
5274       9.742128   1.088206   1.088206  
5274.5     9.838184   1.080059   1.080059  
5275       9.933933   1.08674    1.08674   
5275.5     9.933655   1.21275    1.21275   
5276       9.933376   1.132121   1.132121  
5276.5     9.913078   1.211682   1.211682  
5277       9.9128     1.068302   1.085942  
5277.5     9.68095    1.075773   1.055833  
5278       9.652014   1.087479   1.045663  
5278.5     9.651739   1.077025   1.045464  
5279       9.651466   1.056642   1.016644  
5279.5     9.671209   1.016211   0.9262452 
5280       9.650921   0.9850446  0.8753738 
5280.5     9.636316   1.06309    0.8851446 
5281       9.630358   1.035434   0.9048853 
5281.5     9.594675   1.003691   0.9345378 
5282       9.529741   1.024127   0.8845464 
5282.5     9.549484   1.024162   0.9042866 
5283       9.586061   1.005875   0.9639083 
5283.5     9.588968   1.022825   0.9437686 
5284       9.588696   1.01336    0.9236292 
5284.5     9.568411   1.011988   0.99322   
5285       9.56814    1.054073   0.9930209 
5285.5     9.587881   1.041147   1.041147  
5286       9.527575   1.022532   0.8530402 
5286.5     9.527067   1.01031    0.8379158 
5287       9.507841   0.9922231  0.8155016 
5287.5     9.527939   0.9892346  0.8524516 
5288       9.586521   1.133124   1.133124  
5288.5     9.602257   1.240877   1.240877  
5289       9.503338   1.237889   1.237889  
5289.5     9.465654   1.113975   1.027802  
5290       9.401478   1.080758   1.027388  
5290.5     9.369432   1.040678   0.980857  
5291       9.404825   1.024574   0.9265848 
5291.5     9.464577   1.001874   0.8707875 
5292       9.421137   1.102699   1.102699  
5292.5     9.337648   1.358922   1.358922  
5293       9.243708   1.060447   1.060447  
5293.5     9.250858   1.044525   0.8545651 
5294       9.401007   1.188716   1.188716  
5294.5     9.482965   1.308275   1.308275  
5295       9.402681   1.212386   1.212386  
5295.5     9.362406   1.132662   1.102668  
