~Version
 VERS              .         3.0                           : CWLS LOG ASCII STANDARD - VERSION 3.0
 WRAP              .         NO                            : ONE LINE PER DEPTH STEP
 DLM               .         SPACE                         : DELIMITING CHARACTER(SPACE TAB OR COMMA)
~Well Information
#_______________________________________________________________________________
#
#PARAMETER_NAME    .UNIT     VALUE                         : DESCRIPTION
#_______________________________________________________________________________
STRT               .ft       4750                          : First reference value
STOP               .ft       6400                          : Last reference value
STEP               .ft       0.5                           : Step increment
NULL               .         -9999                         : Missing value
COMP               .                                       : Company
WELL               .         EGBM-004                      : Well name
FLD                .         WILDCAT                       : Field
LOC                .                                       : Location
SRVC               .                                       : Service Company
CTRY               .                                       : Country
DATE               .                                       : Service Date
X                  .                                       : X or East-West coordinate
Y                  .                                       : Y or North South coordinate
GDAT               .                                       : Geodetic Datum
HZCS               .                                       : Horizontal Co-ordinate System
CREATION-TIME      .         2000/8/11 0_0                 : 
FIELD-NAME         .         WILDCAT                       : 
FILE-ID            .         SHELL.001                     : 
FILE-NUMBER        .         1                             : 
FILE-SET-NAME      .                                       : 
FILE-SET-NUMBER    .         0                             : 
FILE-TYPE          .         SHELL                         : 
NAME-SPACE-NAME    .         LIS                           : 
NAME-SPACE-VERSION .         0                             : 
PRODUCER-CODE      .         440                           : 
PRODUCER-NAME      .         Schlumberger                  : 
PRODUCT            .                                       : 
PROGRAMS           .                                       : 
VERSION            .         REV 2.00                      : 
WELL-NAME          .                                       : 
~Parameter Information Block
#_______________________________________________________________________________
#
#PARAMETER_NAME    .UNIT     VALUE                         : DESCRIPTION
#_______________________________________________________________________________
SET                .         SHELL_001_1                   : 
ACQUISITION-PRODUCT .         DLIS/U                        : 
CREATION-TIME      .         2026/5/13 10_33               : 
DLIS_FRAME_DIRECTION .         INCREASING                    : 
DLIS_FRAME_NAME    .         1                             : 
DLIS_FRAME_SPACING .0.1_in   60                            : 
FIELD-NAME         .         WILDCAT                       : 
FILE-ID            .         SHELL.001                     : 
FILE-NUMBER        .         1                             : 
FILE-SET-NAME      .         LIS-TO-DLIS-CONVERSION        : 
FILE-SET-NUMBER    .         1254                          : 
FILE-TYPE          .         SHELL                         : 
INDEX-TYPE         .         BOREHOLE-DEPTH                : 
NAME-SPACE-NAME    .                                       : 
NAME-SPACE-VERSION .         0                             : 
OriginalDatasetName .         1                             : 
PRODUCER-CODE      .         440                           : 
PRODUCER-NAME      .         Schlumberger                  : 
PRODUCT            .         DLIS/U                        : 
PROGRAMS           .         LIS-TO-DLIS                   : 
TLFamily_CALM      .         Caliper                       : 
TLFamily_DEPT      .         Measured Depth                : 
TLFamily_MINV      .         Resistivity - Micro           : 
TLFamily_MNOR      .         Resistivity - Micro           : 
VERSION            .         0.1                           : 
WELL-NAME          .                                       : 
~Curve Information
#_______________________________________________________________________________
#
#LOGNAME           .UNIT     LOG_ID                        : DESCRIPTION
#_______________________________________________________________________________
DEPT               .ft                                     :  {F}
CALM               .in                                     :  {F}
MINV               .ohm.m                                  :  {F}
MNOR               .ohm.m                                  :  {F}
~Ascii
# ...
5569       9.650074   1.880112   2.634026  
5569.5     9.724674   1.746905   2.560429  
5570       9.688681   1.596578   2.51643   
5570.5     9.61018    2.396905   2.935306  
5571       9.590195   3.174654   3.20458   
5571.5     9.590267   4.351203   4.401053  
5572       9.531221   2.586522   2.506879  
5572.5     9.49012    2.342209   2.247769  
5573       9.390835   2.371754   2.371754  
5573.5     9.349848   2.250771   2.250771  
5574       9.510389   2.447452   2.282545  
5574.5     9.390102   1.959023   1.959023  
5575       9.369991   1.779706   2.038845  
5575.5     9.330055   1.872483   1.872483  
5576       9.290001   2.308318   2.086396  
5576.5     9.270006   1.849794   1.720184  
5577       9.25001    1.8        1.8       
5577.5     9.270138   1.863615   1.802162  
5578       9.310328   1.690522   1.744073  
5578.5     9.328579   2.089458   1.876013  
5579       9.332647   2.44843    2.508267  
5579.5     9.476736   1.331865   1.292001  
5580       9.932581   1.960095   1.766231  
5580.5     10.67672   1.052941   1.646689  
5581       10.94442   1.0331     1.511625  
5581.5     10.94736   1.029212   1.521734  
5582       10.55495   1.055938   1.53157   
5582.5     10.0333    1.300468   1.63158   
5583       9.632057   1.471891   2.170129  
5583.5     9.652199   1.346787   1.978717  
5584       9.652271   1.148472   1.809372  
5584.5     9.652346   1.228626   1.739563  
5585       9.632349   1.153539   1.735536  
5585.5     9.612354   1.147983   1.721935  
5586       9.479338   1.207343   1.708662  
5586.5     9.271318   1.791913   1.70173   
5587       9.199272   1.124018   1.931643  
5587.5     9.00502    1.725283   2.260755  
5588       8.950386   1.871955   2.440265  
5588.5     8.950445   1.59607    2.250947  
5589       8.956644   1.565617   2.229405  
5589.5     9.010778   1.51336    2.192851  
5590       9.030912   1.559062   2.2762    
5590.5     8.930609   1.563409   2.311151  
5591       8.890522   1.633319   2.391026  
5591.5     8.844376   1.751692   2.490358  
5592       8.870565   1.677228   2.49122   
5592.5     8.830473   1.578443   2.392258  
5593       8.842857   1.506199   2.292253  
5593.5     8.878885   1.424427   2.152767  
5594       8.931021   1.28776    2.003316  
5594.5     8.93108    1.441616   1.843321  
5595       8.890987   1.793385   2.601228  
5595.5     8.790661   1.703929   2.510633  
5596       8.810772   1.584213   2.460765  
5596.5     8.830929   1.544666   2.40092   
5597       8.830986   1.554736   2.392222  
5597.5     8.831043   1.564805   2.412263  
5598       8.851177   1.473063   2.289573  
5598.5     8.882126   1.33493    2.08343   
5599       8.922752   1.397607   2.093484  
5599.5     8.931669   1.555235   2.247276  
5600       8.900019   1.724824   2.412406  
5600.5     8.854612   1.79275    2.522432  
5601       8.855087   1.699288   2.467335  
5601.5     8.879398   1.555334   2.340406  
5602       8.936834   1.562214   2.220823  
5602.5     9.058744   1.48179    2.116107  
5603       9.19277    1.399565   1.874377  
5603.5     9.07863    2.193419   2.614626  
5604       8.978462   2.159568   2.758391  
5604.5     8.931726   1.95619    2.65873   
5605       8.931726   1.951397   2.592223  
5605.5     8.965862   1.716954   2.482552  
5606       8.917635   1.787402   2.535804  
5606.5     8.891565   1.769046   2.592223  
5607       8.926174   1.13659    2.078589  
5607.5     9.067535   1.434749   1.934198  
5608       9.517443   2.22333    2.342971  
5608.5     9.614458   3.290129   3.33001   
5609       9.634539   2.185606   2.193419  
5609.5     9.634539   2.412761   2.482552  
5610       9.594378   1.804587   1.943468  
5610.5     9.554216   1.741325   1.741325  
5611       9.514055   1.591813   1.591813  
5611.5     9.514055   1.452231   1.452231  
5612       9.496544   1.276171   1.359333  
5612.5     9.341412   1.376459   1.376459  
5613       9.214848   1.496628   1.605184  
5613.5     9.154606   1.974078   2.22333   
5614       9.072289   1.856196   3.030907  
5614.5     9.270941   1.458198   2.417363  
5615       9.333332   1.11665    1.774676  
5615.5     9.253012   1.258049   1.874377  
5616       9.413654   1.006979   1.435694  
5616.5     9.273792   1.734795   1.734795  
5617       9.19277    1.415753   2.412761  
5617.5     9.173042   1.533283   2.29312   
5618       9.072872   1.276171   2.098645  
5618.5     8.913513   1.484136   2.143686  
5619       8.812418   1.704594   2.373406  
5619.5     8.771084   1.650137   2.432702  
5620       8.87101    1.640109   2.36209   
5620.5     8.87355    1.555334   2.18345   
5621       8.993042   1.704885   2.420679  
5621.5     9.478886   2.28315    2.711864  
5622       9.634539   1.445663   1.794616  
5622.5     9.507984   1.944167   1.799132  
5623       9.230818   1.515454   1.844467  
5623.5     9.108713   1.575274   1.763481  
5624       9.072289   1.655035   1.734795  
5624.5     9.052208   1.196411   1.380945  
5625       8.971888   1.565304   1.471503  
5625.5     8.974012   1.375872   1.774676  
5626       9.034622   1.914257   1.469685  
5626.5     9.13253    1.365902   1.457557  
5627       9.069235   1.714855   1.684946  
5627.5     9.055416   1.15653    1.306082  
5628       9.068766   1.734795   1.691279  
5628.5     8.971888   1.674975   1.674975  
5629       9.019415   1.622675   2.013958  
5629.5     9.197376   1.326021   1.824526  
5630       9.19277    1.774676   1.608741  
5630.5     9.253012   1.286141   1.43235   
5631       9.232931   1.694915   1.57813   
5631.5     9.212851   1.1665     1.196411  
5632       9.232931   1.635095   1.484136  
5632.5     9.212851   1.834496   1.525249  
5633       9.172691   1.445663   1.465603  
5633.5     9.072289   1.475574   1.622368  
5634       9.078196   1.764706   1.784646  
5634.5     9.152611   1.588392   1.588392  
5635       9.199621   1.276171   1.472641  
5635.5     9.253012   1.844467   1.667058  
5636       9.265575   1.415753   1.495922  
5636.5     9.232931   1.824526   1.652806  
5637       9.24526    1.446771   1.446771  
5637.5     9.212851   1.351592   1.351592  
5638       9.084854   1.714855   1.513646  
5638.5     9.072289   1.11665    1.224514  
5639       9.124428   1.262331   1.262331  
5639.5     9.13253    1.393994   1.393994  
5640       9.11245    1.433993   1.306082  
5640.5     9.161469   2.532403   2.502492  
5641       9.163649   1.508533   1.256231  
5641.5     9.212851   1.385843   1.385843  
5642       9.212851   1.41995    1.41995   
5642.5     9.19277    1.228902   1.228902  
5643       9.172691   1.091666   1.091666  
5643.5     9.172691   1.293883   1.293883  
5644       9.092369   1.199578   1.199578  
5644.5     9.062307   1.13659    1.13659   
5645       9.032127   1.205501   1.205501  
5645.5     9.032127   1.129069   1.129069  
5646       9.032127   1.056126   1.016949  
5646.5     9.032127   1.165218   0.9863932 
5647       9.032127   1.15653    0.9776521 
5647.5     9.012047   1.266668   0.9870383 
5648       9.032127   1.1665     0.9970089 
5648.5     9.032127   1.15653    0.9670987 
5649       9.052208   1.14656    0.9571284 
5649.5     9.19277    1.15653    0.9172481 
5650       9.225817   1.096712   0.9072795 
5650.5     9.21319    1.096822   0.9272933 
5651       9.233606   1.136581   0.8775867 
5651.5     9.233942   1.116983   0.9375548 
5652       9.274437   1.067242   0.8383292 
5652.5     9.327921   1.175979   0.9178134 
5653       9.43573    1.157198   0.8885777 
5653.5     9.496296   1.414451   1.296846  
5654       9.564344   6.711261   7.758179  
5654.5     9.503611   2.492712   2.492712  
5655       9.517366   2.289332   2.124881  
5655.5     9.557848   2.362052   2.362052  
5656       9.585264   3.999685   4.079477  
5656.5     9.585159   2.763373   2.494143  
5657       9.578915   4.309079   4.70789   
5657.5     9.539095   4.618318   4.588451  
5658       9.479202   2.664018   2.486176  
5658.5     9.366796   2.150877   2.150877  
5659       9.339355   1.939956   1.936385  
5659.5     9.227589   1.85056    1.85056   
