~Version
 VERS              .         3.0                           : CWLS LOG ASCII STANDARD - VERSION 3.0
 WRAP              .         NO                            : ONE LINE PER DEPTH STEP
 DLM               .         SPACE                         : DELIMITING CHARACTER(SPACE TAB OR COMMA)
~Well Information
#_______________________________________________________________________________
#
#PARAMETER_NAME    .UNIT     VALUE                         : DESCRIPTION
#_______________________________________________________________________________
STRT               .ft       4750                          : First reference value
STOP               .ft       6400                          : Last reference value
STEP               .ft       0.5                           : Step increment
NULL               .         -9999                         : Missing value
COMP               .                                       : Company
WELL               .         EGBM-004                      : Well name
FLD                .         WILDCAT                       : Field
LOC                .                                       : Location
SRVC               .                                       : Service Company
CTRY               .                                       : Country
DATE               .                                       : Service Date
X                  .                                       : X or East-West coordinate
Y                  .                                       : Y or North South coordinate
GDAT               .                                       : Geodetic Datum
HZCS               .                                       : Horizontal Co-ordinate System
CREATION-TIME      .         2000/8/11 0_0                 : 
FIELD-NAME         .         WILDCAT                       : 
FILE-ID            .         SHELL.001                     : 
FILE-NUMBER        .         1                             : 
FILE-SET-NAME      .                                       : 
FILE-SET-NUMBER    .         0                             : 
FILE-TYPE          .         SHELL                         : 
NAME-SPACE-NAME    .         LIS                           : 
NAME-SPACE-VERSION .         0                             : 
PRODUCER-CODE      .         440                           : 
PRODUCER-NAME      .         Schlumberger                  : 
PRODUCT            .                                       : 
PROGRAMS           .                                       : 
VERSION            .         REV 2.00                      : 
WELL-NAME          .                                       : 
~Parameter Information Block
#_______________________________________________________________________________
#
#PARAMETER_NAME    .UNIT     VALUE                         : DESCRIPTION
#_______________________________________________________________________________
SET                .         SHELL_001_1                   : 
ACQUISITION-PRODUCT .         DLIS/U                        : 
CREATION-TIME      .         2026/5/13 10_33               : 
DLIS_FRAME_DIRECTION .         INCREASING                    : 
DLIS_FRAME_NAME    .         1                             : 
DLIS_FRAME_SPACING .0.1_in   60                            : 
FIELD-NAME         .         WILDCAT                       : 
FILE-ID            .         SHELL.001                     : 
FILE-NUMBER        .         1                             : 
FILE-SET-NAME      .         LIS-TO-DLIS-CONVERSION        : 
FILE-SET-NUMBER    .         1254                          : 
FILE-TYPE          .         SHELL                         : 
INDEX-TYPE         .         BOREHOLE-DEPTH                : 
NAME-SPACE-NAME    .                                       : 
NAME-SPACE-VERSION .         0                             : 
OriginalDatasetName .         1                             : 
PRODUCER-CODE      .         440                           : 
PRODUCER-NAME      .         Schlumberger                  : 
PRODUCT            .         DLIS/U                        : 
PROGRAMS           .         LIS-TO-DLIS                   : 
TLFamily_CALM      .         Caliper                       : 
TLFamily_DEPT      .         Measured Depth                : 
TLFamily_MINV      .         Resistivity - Micro           : 
TLFamily_MNOR      .         Resistivity - Micro           : 
VERSION            .         0.1                           : 
WELL-NAME          .                                       : 
~Curve Information
#_______________________________________________________________________________
#
#LOGNAME           .UNIT     LOG_ID                        : DESCRIPTION
#_______________________________________________________________________________
DEPT               .ft                                     :  {F}
CALM               .in                                     :  {F}
MINV               .ohm.m                                  :  {F}
MNOR               .ohm.m                                  :  {F}
~Ascii
# ...
4932       9.078104   1.528792   2.114157  
4932.5     9.00803    1.605947   2.120003  
4933       8.966263   1.556957   2.105673  
4933.5     8.964659   1.433028   1.995325  
4934       8.987701   1.412616   1.874752  
4934.5     8.961445   1.474495   1.982623  
4935       9.113787   1.446768   1.910391  
4935.5     9.353767   1.302808   1.746318  
4936       9.559036   1.328148   1.481774  
4936.5     9.577509   1.590768   1.730373  
4937       9.66708    1.368853   1.579766  
4937.5     9.694778   1.279508   1.459621  
4938       9.693172   1.403542   1.463405  
4938.5     9.901009   1.459707   1.459707  
4939       9.853081   1.155213   1.167237  
4939.5     9.688353   1.196258   1.196258  
4940       9.600861   1.267572   1.267572  
4940.5     9.498613   1.41096    1.333739  
4941       9.741222   1.502894   1.430784  
4941.5     10.00321   1.701248   1.518632  
4942       10.11692   3.107348   2.618789  
4942.5     10.29571   1.220877   1.530034  
4943       10.11099   1.323912   1.419704  
4943.5     10.05703   1.190883   1.378998  
4944       10.28572   1.104414   1.337016  
4944.5     10.09398   1.147481   1.147481  
4945       9.960377   1.132696   1.156923  
4945.5     9.715652   1.085834   1.085834  
4946       9.667469   1.156492   1.156492  
4946.5     9.706022   1.142866   1.142866  
4947       9.55147    1.178391   1.178391  
4947.5     9.502008   1.248112   1.248112  
4948       9.523588   1.370805   1.370805  
4948.5     9.518875   1.256874   1.150285  
4949       9.517267   1.361084   1.361084  
4949.5     9.535742   1.527828   1.527828  
4950       9.574297   2.914348   2.505245  
4950.5     9.555223   5.368389   4.9493    
4951       9.473808   6.216164   6.185977  
4951.5     9.10763    1.495796   1.185318  
4952       8.976402   1.514113   2.352282  
4952.5     8.908983   1.431543   2.142144  
4953       8.942167   1.446729   2.098604  
4953.5     8.940561   1.470272   2.150649  
4954       8.938955   1.471341   2.139949  
4954.5     8.937349   1.48437    2.116819  
4955       8.935741   1.5509     2.198384  
4955.5     8.928638   1.570029   2.067873  
4956       8.892368   1.639243   2.306612  
4956.5     8.890762   1.575137   2.230367  
4957       8.895227   1.793573   2.604365  
4957.5     9.017441   2.493896   2.983087  
4958       9.094549   1.974536   2.533563  
4958.5     9.168497   1.745594   2.3428    
4959       9.294266   1.475198   2.043257  
4959.5     9.522764   1.210796   1.154174  
4960       9.522087   1.190377   1.123529  
4960.5     9.418198   1.189782   1.122819  
4961       9.280001   1.218774   1.101899  
4961.5     9.47699    1.361763   1.350952  
4962       9.535742   1.257052   1.257052  
4962.5     9.534134   1.217045   1.217045  
4963       9.533123   1.171178   1.171178  
4963.5     9.450127   1.178426   1.038504  
4964       9.449575   1.138145   1.14817   
4964.5     9.487549   1.106301   1.077228  
4965       9.506023   1.157706   1.157706  
4965.5     9.48398    1.085447   1.036028  
4966       9.386778   1.124294   1.124294  
4966.5     9.481123   1.1357     1.1357    
4967       9.499598   1.12311    1.12392   
4967.5     9.558001   1.010956   0.8731266 
4968       9.516464   1.002434   0.93286   
4968.5     9.433222   1.022839   0.8454111 
4969       9.453011   1.093823   1.093823  
4969.5     9.452681   1.238519   1.238519  
4970       9.5502     1.447509   1.438623  
4970.5     9.588636   1.617454   1.562474  
4971       9.626841   1.361356   1.361356  
4971.5     9.585541   1.206967   1.137143  
4972       9.583815   1.256966   1.256966  
4972.5     9.499601   1.235945   1.232856  
4973       9.460241   1.292562   1.292562  
4973.5     9.398392   1.792351   1.523293  
4974       9.457027   1.143694   1.003824  
4974.5     9.377901   1.053077   0.8626317 
4975       9.447609   1.042394   0.9127172 
4975.5     9.331236   1.05166    0.9120103 
4976       9.06262    1.050951   0.9013281 
4976.5     9.228111   1.060216   0.9105954 
4977       9.226505   1.089461   0.9439297 
4977.5     9.24498    1.128622   0.9889768 
4978       9.263453   1.145854   0.9982438 
4978.5     9.402409   1.107284   0.977517  
4979       9.481125   1.128928   0.9968278 
4979.5     9.411829   1.122667   0.9961195 
4980       9.477911   1.085178   0.9954109 
4980.5     9.425304   1.117331   0.9947027 
4981       9.552013   1.070164   0.9787437 
4981.5     9.292698   1.063148   0.983313  
4982       9.391163   1.112185   1.06033   
4982.5     9.489958   1.281754   1.281754  
4983       9.550695   1.928717   1.799199  
4983.5     9.607229   5.378537   4.351431  
4984       9.567549   8.739042   8.2705    
4984.5     9.308287   1.983199   1.983199  
4985       9.282644   1.521378   2.115317  
4985.5     9.704363   1.099895   1.496244  
4986       9.908884   1.176559   1.514903  
4986.5     9.995041   1.694366   1.803813  
4987       10.35904   1.021602   1.44268   
4987.5     10.00007   1.054598   1.381754  
4988       9.693172   1.177617   1.522597  
4988.5     9.43434    1.103338   1.729649  
4989       9.087549   1.999898   1.946522  
4989.5     9.093765   1.931035   2.45802   
4990       9.191885   2.546735   2.626621  
4990.5     9.343775   1.928847   1.928847  
4991       9.336702   1.441173   2.041841  
4991.5     9.320482   1.20932    1.686877  
4992       9.191263   1.340425   1.991415  
4992.5     9.096386   1.565927   1.975183  
4993       8.994375   1.727938   2.195112  
4993.5     9.021904   1.835794   2.276421  
4994       9.091566   1.53388    2.163187  
4994.5     9.157976   1.551727   2.087132  
4995       9.148594   1.439965   1.826067  
4995.5     9.167067   1.435204   1.711318  
4996       9.12184    1.612112   1.700872  
4996.5     9.143774   1.417233   1.809825  
4997       9.170187   1.380141   1.718791  
4997.5     9.160643   1.452696   1.628948  
4998       9.143862   1.505425   1.847082  
4998.5     9.19759    1.348512   1.617295  
4999       9.195982   1.367323   1.563797  
4999.5     9.128088   1.627807   1.526409  
5000       9.132647   1.411305   1.614148  
5000.5     9.051003   1.429589   1.782847  
5001       9.06988    1.419368   1.707032  
5001.5     9.078714   1.439031   1.814251  
5002       9.087549   1.566584   2.071168  
5002.5     9.166666   1.554265   1.991739  
5003       9.145382   1.452098   1.840878  
5003.5     9.083937   1.511153   1.92004   
5004       9.213081   1.556349   2.039276  
5004.5     9.121687   1.403608   1.812577  
5005       9.140562   1.455911   1.709107  
5005.5     9.155092   1.412199   1.798006  
5006       9.178312   1.348753   1.733848  
5006.5     9.177109   1.375909   1.647109  
5007       9.175903   1.444592   1.832947  
5007.5     9.194778   1.473788   1.783466  
5008       9.26549    1.475972   1.735851  
5008.5     9.353012   1.376971   1.694059  
5009       9.472288   1.410707   1.644267  
5009.5     9.531324   1.454237   1.524004  
5010       9.550201   1.355026   1.251021  
5010.5     9.569077   1.424016   1.173599  
5011       9.547792   1.320665   1.173102  
5011.5     9.515388   1.253834   1.182773  
5012       9.516544   1.174758   1.174758  
5012.5     9.544176   1.251247   1.010754  
5013       9.563051   1.236234   1.041276  
5013.5     9.581928   1.22014    1.010767  
5014       9.560642   1.159177   1.034891  
5014.5     9.551733   1.209105   1.069392  
5015       9.538153   1.192029   1.038884  
5015.5     9.557028   1.169537   1.020528  
5016       9.535744   1.231569   1.037843  
5016.5     9.534538   1.272929   0.9872386 
5017       9.473091   1.197093   0.9935659 
5017.5     9.491968   1.165504   0.9648864 
5018       9.470682   1.044053   0.8959913 
5018.5     9.469477   1.084546   0.8341346 
5019       9.488352   1.137834   0.9541174 
5019.5     9.482828   1.232484   0.9637089 
5020       9.465862   1.082821   0.8634104 
5020.5     9.500851   1.207684   0.9926033 
5021       9.483534   1.046119   0.8726581 
5021.5     9.46225    1.090928   0.8715849 
5022       9.440964   1.147352   1.030493  
5022.5     9.365805   1.199403   0.9717615 
