~Version
 VERS              .         3.0                           : CWLS LOG ASCII STANDARD - VERSION 3.0
 WRAP              .         NO                            : ONE LINE PER DEPTH STEP
 DLM               .         SPACE                         : DELIMITING CHARACTER(SPACE TAB OR COMMA)
~Well Information
#_______________________________________________________________________________
#
#PARAMETER_NAME    .UNIT     VALUE                         : DESCRIPTION
#_______________________________________________________________________________
STRT               .ft       4750                          : First reference value
STOP               .ft       6400                          : Last reference value
STEP               .ft       0.5                           : Step increment
NULL               .         -9999                         : Missing value
COMP               .                                       : Company
WELL               .         EGBM-004                      : Well name
FLD                .         WILDCAT                       : Field
LOC                .                                       : Location
SRVC               .                                       : Service Company
CTRY               .                                       : Country
DATE               .                                       : Service Date
X                  .                                       : X or East-West coordinate
Y                  .                                       : Y or North South coordinate
GDAT               .                                       : Geodetic Datum
HZCS               .                                       : Horizontal Co-ordinate System
CREATION-TIME      .         2000/8/11 0_0                 : 
FIELD-NAME         .         WILDCAT                       : 
FILE-ID            .         SHELL.001                     : 
FILE-NUMBER        .         1                             : 
FILE-SET-NAME      .                                       : 
FILE-SET-NUMBER    .         0                             : 
FILE-TYPE          .         SHELL                         : 
NAME-SPACE-NAME    .         LIS                           : 
NAME-SPACE-VERSION .         0                             : 
PRODUCER-CODE      .         440                           : 
PRODUCER-NAME      .         Schlumberger                  : 
PRODUCT            .                                       : 
PROGRAMS           .                                       : 
VERSION            .         REV 2.00                      : 
WELL-NAME          .                                       : 
~Parameter Information Block
#_______________________________________________________________________________
#
#PARAMETER_NAME    .UNIT     VALUE                         : DESCRIPTION
#_______________________________________________________________________________
SET                .         SHELL_001_1                   : 
ACQUISITION-PRODUCT .         DLIS/U                        : 
CREATION-TIME      .         2026/5/13 10_33               : 
DLIS_FRAME_DIRECTION .         INCREASING                    : 
DLIS_FRAME_NAME    .         1                             : 
DLIS_FRAME_SPACING .0.1_in   60                            : 
FIELD-NAME         .         WILDCAT                       : 
FILE-ID            .         SHELL.001                     : 
FILE-NUMBER        .         1                             : 
FILE-SET-NAME      .         LIS-TO-DLIS-CONVERSION        : 
FILE-SET-NUMBER    .         1254                          : 
FILE-TYPE          .         SHELL                         : 
INDEX-TYPE         .         BOREHOLE-DEPTH                : 
NAME-SPACE-NAME    .                                       : 
NAME-SPACE-VERSION .         0                             : 
OriginalDatasetName .         1                             : 
PRODUCER-CODE      .         440                           : 
PRODUCER-NAME      .         Schlumberger                  : 
PRODUCT            .         DLIS/U                        : 
PROGRAMS           .         LIS-TO-DLIS                   : 
TLFamily_CALM      .         Caliper                       : 
TLFamily_DEPT      .         Measured Depth                : 
TLFamily_MINV      .         Resistivity - Micro           : 
TLFamily_MNOR      .         Resistivity - Micro           : 
VERSION            .         0.1                           : 
WELL-NAME          .                                       : 
~Curve Information
#_______________________________________________________________________________
#
#LOGNAME           .UNIT     LOG_ID                        : DESCRIPTION
#_______________________________________________________________________________
DEPT               .ft                                     :  {F}
CALM               .in                                     :  {F}
MINV               .ohm.m                                  :  {F}
MNOR               .ohm.m                                  :  {F}
~Ascii
# ...
5387       8.978642   1.790523   2.466545  
5387.5     8.950901   1.782241   2.493783  
5388       8.970741   1.595975   2.334111  
5388.5     9.00165    1.471337   2.119217  
5389       8.999874   1.376492   1.946362  
5389.5     9.01022    1.235237   1.843879  
5390       8.99959    1.238286   1.82652   
5390.5     9.009819   1.296607   1.887408  
5391       9.01824    1.279308   1.88725   
5391.5     9.037615   1.317747   1.974724  
5392       9.117037   1.503756   2.100912  
5392.5     9.483768   4.428216   5.425191  
5393       9.597128   9.134029   8.545761  
5393.5     9.36676    5.903639   4.507744  
5394       8.996931   1.547377   1.959124  
5394.5     8.948095   1.44676    2.034995  
5395       8.927855   1.41745    2.006151  
5395.5     8.927654   1.426638   2.023777  
5396       8.931322   1.466401   2.0428    
5396.5     8.987375   1.406481   2.004686  
5397       9.050207   1.5364     2.062308  
5397.5     9.412476   1.736694   2.273647  
5398       9.602423   1.703827   2.034297  
5398.5     9.443275   1.655687   2.044343  
5399       9.346155   1.765256   2.19362   
5399.5     9.184698   1.994101   2.372948  
5400       9.026052   1.694932   2.392822  
5400.5     8.945951   1.61522    2.352924  
5401       8.946011   1.445863   2.203588  
5401.5     8.966112   1.425435   2.123342  
5402       8.946129   1.406182   1.994432  
5402.5     8.946188   1.346985   1.994516  
5403       8.946247   1.3665     2.024527  
5403.5     8.946306   1.417858   2.105091  
5404       9.009777   1.506281   2.154337  
5404.5     9.188717   1.499049   2.187866  
5405       9.2271     1.985044   2.502492  
5405.5     9.066809   1.435682   2.071551  
5406       9.129364   1.351264   1.943018  
5406.5     9.187202   1.391009   1.797202  
5407       9.187267   1.364483   1.686355  
5407.5     9.187332   1.347457   1.837508  
5408       9.207441   1.349141   1.749997  
5408.5     9.204086   1.299507   1.729922  
5409       9.227617   1.287935   1.754723  
5409.5     9.207634   1.278066   1.703026  
5410       9.315958   1.302094   1.906328  
5410.5     9.55703    1.313948   1.754206  
5411       9.733555   1.272826   1.477813  
5411.5     9.769272   1.358205   1.335998  
5412       9.769348   1.298504   1.298504  
5412.5     9.769424   1.360932   1.360932  
5413       9.774689   1.385854   1.385854  
5413.5     9.875256   1.301501   1.301501  
5414       9.910009   1.240656   1.240656  
5414.5     9.93014    1.232128   1.232128  
5415       9.930218   1.179461   1.179461  
5415.5     9.90403    1.219441   1.219441  
5416       9.870216   1.153307   1.153307  
5416.5     9.830187   1.17976    1.17976   
5417       9.770103   1.13001    1.13001   
5417.5     9.730072   1.16002    1.16002   
5418       9.662786   1.116662   1.116662  
5418.5     9.609892   1.156525   1.156525  
5419       9.589909   1.110469   1.110469  
5419.5     9.589979   1.090628   1.090628  
5420       9.64621    1.110668   1.110668  
5420.5     9.570066   1.086722   1.086722  
5421       9.590195   1.140778   1.140778  
5421.5     9.610325   1.120937   1.120937  
5422       9.581491   1.105495   1.105495  
5422.5     9.581379   1.126617   1.126617  
5423       9.570425   1.091326   1.091326  
5423.5     9.570498   1.076177   1.061515  
5424       9.570568   1.086744   1.071586  
5424.5     9.570641   1.126608   1.091625  
5425       9.520561   1.13659    1.12662   
5425.5     9.289463   1.361009   1.191517  
5426       9.290823   1.94931    1.610344  
5426.5     9.451738   1.101985   1.062114  
5427       9.490751   1.085907   1.042273  
5427.5     9.390511   1.062313   1.032403  
5428       9.350452   1.052443   1.002592  
5428.5     9.298946   1.048261   1.002692  
5429       9.290396   1.036866   0.9828517 
5429.5     9.23027    1.042771   0.9829513 
5430       9.210272   1.022931   0.9830511 
5430.5     9.222612   1.042971   0.983151  
5431       9.197964   1.04307    0.9832504 
5431.5     9.15027    1.04317    0.9833502 
5432       9.190464   1.06321    0.9635091 
5432.5     9.210594   1.02343    0.9354532 
5433       9.210659   1.006971   0.960327  
5433.5     9.210724   0.9910206  0.9837489 
5434       9.250923   1.063609   0.9439683 
5434.5     9.244768   1.063709   0.8842468 
5435       9.271122   1.061815   1.02395   
5435.5     9.480373   1.113759   1.113759  
5436       9.592358   1.58244    1.522637  
5436.5     9.472013   5.341264   5.341281  
5437       9.472082   8.57169    8.571672  
5437.5     9.527317   2.031444   1.901799  
5438       9.517176   2.829133   2.978701  
5438.5     9.285395   2.360622   1.539317  
5439       9.050861   1.384528   1.384528  
5439.5     9.030851   1.321304   1.244155  
5440       9.09115    1.234251   1.513496  
5440.5     9.176439   1.463662   1.124745  
5441       9.348562   1.559895   1.53185   
5441.5     9.442364   1.626596   1.633435  
5442       9.553076   2.620524   2.361302  
5442.5     9.556099   4.574761   4.614675  
5443       9.358107   1.573914   0.9956133 
5443.5     9.232088   1.045532   1.065504  
5444       9.194365   1.095514   1.065603  
5444.5     9.154146   1.034685   1.051288  
5445       9.151978   1.007976   0.9760715 
5445.5     9.093582   0.9761715  0.9662012 
5446       9.091873   0.9770874  0.9463612 
5446.5     9.13209    0.9364903  0.9172506 
5447       9.09436    0.9465607  0.8667998 
5447.5     9.071981   0.8882467  0.8274884 
5448       9.112202   0.8570291  0.767706  
5448.5     9.21266    0.7679842  0.7078707 
5449       9.15284    0.7475579  0.6877365 
5449.5     9.032303   0.7277168  0.5684289 
5450       8.971886   0.5782654  0.5782654 
5450.5     8.931927   0.9571284  0.9670981 
5451       8.932127   0.9670981  0.8677473 
5451.5     8.892166   1.005521   0.8967246 
5452       8.932529   1.006979   0.9766604 
5452.5     8.95281    1.02645    1.02645   
5453       8.990252   1.056829   1.056829  
5453.5     9.073694   1.056829   1.056829  
5454       9.114029   1.036889   1.036889  
5454.5     9.246363   0.9978834  0.9670981 
5455       9.355421   1.110703   1.110703  
5455.5     9.245474   1.127727   0.9970089 
5456       9.22098    1.019281   0.9970089 
5456.5     9.21546    1.036889   0.9970089 
5457       9.215662   1.046858   0.9970089 
5457.5     9.215862   1.056829   0.9770685 
5458       9.236143   1.038463   0.9770685 
5458.5     9.236345   1.046858   1.015258  
5459       9.248171   1.056829   0.9988163 
5459.5     9.308142   0.9851729  0.968964  
5460       9.477911   1.024936   0.9571284 
5460.5     9.478111   1.01485    0.9660487 
5461       9.478312   1.039105   0.9970089 
5461.5     9.458431   1.024645   0.9594022 
5462       9.380648   0.9894291  0.9272178 
5462.5     9.278112   1.016949   0.9272178 
5463       9.069878   1.011818   0.9770685 
5463.5     8.970263   1.268883   0.9897207 
5464       8.943886   1.135015   0.9985827 
5464.5     8.977711   1.07677    1.07677   
5465       9.009264   1.089713   1.089713  
5465.5     9.033186   1.14656    1.065399  
5466       8.998392   1.196411   1.149067  
5466.5     8.978512   1.169765   1.169765  
5467       8.975073   1.120031   1.120031  
5467.5     8.958834   1.056829   0.9237198 
5468       8.941639   1.11665    0.9272178 
5468.5     8.959236   1.112977   0.9172484 
5469       8.959436   1.11286    0.9633085 
5469.5     8.938383   1.224572   0.9970089 
5470       8.899597   1.425722   2.22333   
5470.5     8.839674   1.425722   2.392821  
5471       8.920078   1.284567   2.197093  
5471.5     8.979816   1.28186    2.143569  
5472       9.061043   1.225096   2.003987  
5472.5     9.062761   1.221831   1.864407  
5473       8.981123   1.292263   1.969471  
5473.5     8.94385    1.615155   2.15354   
5474       8.901203   2.213359   2.911267  
5474.5     8.821083   1.954138   3.011142  
5475       8.821283   2.29312    3.205413  
5475.5     8.801405   2.144094   3.235382  
5476       8.841707   1.960143   3.000997  
5476.5     8.821886   1.694915   2.758333  
5477       8.781927   1.704885   2.676589  
5477.5     8.802208   1.684945   2.700903  
