~Version
 VERS              .         3.0                           : CWLS LOG ASCII STANDARD - VERSION 3.0
 WRAP              .         NO                            : ONE LINE PER DEPTH STEP
 DLM               .         SPACE                         : DELIMITING CHARACTER(SPACE TAB OR COMMA)
~Well Information
#_______________________________________________________________________________
#
#PARAMETER_NAME    .UNIT     VALUE                         : DESCRIPTION
#_______________________________________________________________________________
STRT               .ft       4750                          : First reference value
STOP               .ft       6400                          : Last reference value
STEP               .ft       0.5                           : Step increment
NULL               .         -9999                         : Missing value
COMP               .                                       : Company
WELL               .         EGBM-004                      : Well name
FLD                .         WILDCAT                       : Field
LOC                .                                       : Location
SRVC               .                                       : Service Company
CTRY               .                                       : Country
DATE               .                                       : Service Date
X                  .                                       : X or East-West coordinate
Y                  .                                       : Y or North South coordinate
GDAT               .                                       : Geodetic Datum
HZCS               .                                       : Horizontal Co-ordinate System
CREATION-TIME      .         2000/8/11 0_0                 : 
FIELD-NAME         .         WILDCAT                       : 
FILE-ID            .         SHELL.001                     : 
FILE-NUMBER        .         1                             : 
FILE-SET-NAME      .                                       : 
FILE-SET-NUMBER    .         0                             : 
FILE-TYPE          .         SHELL                         : 
NAME-SPACE-NAME    .         LIS                           : 
NAME-SPACE-VERSION .         0                             : 
PRODUCER-CODE      .         440                           : 
PRODUCER-NAME      .         Schlumberger                  : 
PRODUCT            .                                       : 
PROGRAMS           .                                       : 
VERSION            .         REV 2.00                      : 
WELL-NAME          .                                       : 
~Parameter Information Block
#_______________________________________________________________________________
#
#PARAMETER_NAME    .UNIT     VALUE                         : DESCRIPTION
#_______________________________________________________________________________
SET                .         SHELL_001_1                   : 
ACQUISITION-PRODUCT .         DLIS/U                        : 
CREATION-TIME      .         2026/5/13 10_33               : 
DLIS_FRAME_DIRECTION .         INCREASING                    : 
DLIS_FRAME_NAME    .         1                             : 
DLIS_FRAME_SPACING .0.1_in   60                            : 
FIELD-NAME         .         WILDCAT                       : 
FILE-ID            .         SHELL.001                     : 
FILE-NUMBER        .         1                             : 
FILE-SET-NAME      .         LIS-TO-DLIS-CONVERSION        : 
FILE-SET-NUMBER    .         1254                          : 
FILE-TYPE          .         SHELL                         : 
INDEX-TYPE         .         BOREHOLE-DEPTH                : 
NAME-SPACE-NAME    .                                       : 
NAME-SPACE-VERSION .         0                             : 
OriginalDatasetName .         1                             : 
PRODUCER-CODE      .         440                           : 
PRODUCER-NAME      .         Schlumberger                  : 
PRODUCT            .         DLIS/U                        : 
PROGRAMS           .         LIS-TO-DLIS                   : 
TLFamily_CALM      .         Caliper                       : 
TLFamily_DEPT      .         Measured Depth                : 
TLFamily_MINV      .         Resistivity - Micro           : 
TLFamily_MNOR      .         Resistivity - Micro           : 
VERSION            .         0.1                           : 
WELL-NAME          .                                       : 
~Curve Information
#_______________________________________________________________________________
#
#LOGNAME           .UNIT     LOG_ID                        : DESCRIPTION
#_______________________________________________________________________________
DEPT               .ft                                     :  {F}
CALM               .in                                     :  {F}
MINV               .ohm.m                                  :  {F}
MNOR               .ohm.m                                  :  {F}
~Ascii
4750.0     9.621737   1.178824   0.9890136 
4750.5     9.640503   1.167348   0.9584733 
4751       9.655993   1.265565   1.107095  
4751.5     10.11952   1.42578    1.34387   
4752       10.49285   1.155082   1.135539  
4752.5     10.03476   1.493933   1.474361  
4753       9.307707   3.031384   2.47213   
4753.5     9.149622   1.488066   1.488066  
4754       9.181267   1.170794   1.135277  
4754.5     9.240505   1.229133   0.9908214 
4755       9.30652    1.377137   0.9899126 
4755.5     9.339207   1.283949   1.029682  
4756       9.437832   1.276606   0.9887968 
4756.5     9.362831   1.26002    1.018081  
4757       9.381599   1.337715   1.019439  
4757.5     9.360147   1.334966   0.9953567 
4758       9.318592   1.24317    0.9683964 
4758.5     9.297144   1.329488   1.00921   
4759       9.295805   1.252021   0.9469609 
4759.5     9.294466   1.2614     0.9046562 
4760       9.307417   1.240512   0.9087462 
4760.5     9.271685   1.262822   0.9499511 
4761       9.270346   1.1488     0.8891162 
4761.5     9.28911    1.173121   0.8984265 
4762       9.307875   1.176942   0.8760488 
4762.5     9.34248    1.17917    0.8994621 
4763       9.357971   1.141351   0.8803388 
4763.5     9.472881   1.094311   0.8406334 
4764       9.463303   1.103503   0.8537083 
4764.5     9.44186    1.112465   0.8428138 
4765       9.424051   1.133367   0.8319188 
4765.5     9.398981   1.169544   0.8909338 
4766       9.397638   1.129709   0.9199861 
4766.5     9.295191   1.171141   0.9356254 
4767       9.092976   1.207782   0.9542569 
4767.5     8.951916   1.200194   0.9671948 
4768       8.9303     1.262973   0.9700849 
4768.5     9.390926   1.195063   0.92629   
4769       9.329315   1.117349   0.864607  
4769.5     9.396585   1.043733   0.8317103 
4770       9.452957   1.232669   1.182603  
4770.5     9.506086   5.825143   4.456976  
4771       9.524828   4.94506    4.764854  
4771.5     9.491535   3.925703   4.444975  
4772       9.38674    2.71623    3.415494  
4772.5     9.415928   3.084681   3.344847  
4773       9.802284   2.615031   2.257428  
4773.5     10.04025   1.425723   2.127779  
4774       10.13937   1.714014   2.173817  
4774.5     10.85699   1.214286   1.603511  
4775       10.95852   1.143285   1.512731  
4775.5     10.9819    1.122405   1.491848  
4776       10.81718   1.142151   1.587151  
4776.5     10.95563   1.072286   1.549928  
4777       10.87391   1.15722    1.499091  
4777.5     10.73399   1.141552   1.490689  
4778       10.40952   1.215714   1.566446  
4778.5     10.04616   1.25054    1.694913  
4779       9.880463   1.19591    1.585295  
4779.5     9.602312   1.342672   1.738334  
4780       9.592562   1.469426   1.933033  
4780.5     9.65173    1.692726   1.556956  
4781       9.618336   1.575623   1.575623  
4781.5     9.560766   1.647936   1.647936  
4782       9.592302   1.619994   1.879501  
4782.5     9.694561   1.349155   1.229384  
4783       9.893885   1.408261   1.408261  
4783.5     9.892525   1.435254   1.487232  
4784       9.891165   1.287212   1.166651  
4784.5     9.887938   1.379986   1.405283  
4785       9.888443   1.277313   1.174682  
4785.5     9.786766   1.419178   1.533224  
4786       9.659235   1.362855   1.386369  
4786.5     9.656555   1.411857   1.411857  
4787       9.622211   1.300494   1.151574  
4787.5     9.467632   1.543354   1.599473  
4788       9.45904    1.578821   2.108397  
4788.5     9.565441   1.533017   2.021666  
4789       9.684      1.118039   1.587235  
4789.5     9.620153   1.446016   1.852703  
4790       9.650362   1.225567   1.834463  
4790.5     9.853437   1.593903   2.043273  
4791       9.612892   1.193829   1.874079  
4791.5     9.43594    1.512531   2.174431  
4792       9.472464   1.551545   2.28094   
4792.5     9.768381   1.436492   2.00003   
4793       10.04716   1.13131    1.706613  
4793.5     9.884186   1.180189   1.648616  
4794       9.602093   1.240023   1.615949  
4794.5     9.315281   1.568712   2.265519  
4795       9.452381   1.387087   1.985228  
4795.5     9.398825   1.28522    1.834329  
4796       9.223663   1.653815   2.13112   
4796.5     9.33601    1.403758   2.033176  
4797       9.374763   1.692372   2.014349  
4797.5     9.313293   1.319926   1.816481  
4798       9.294142   1.290641   1.737364  
4798.5     9.330666   1.280178   1.791374  
4799       9.289248   1.438951   1.697863  
4799.5     9.307953   1.372205   1.966923  
4800       9.226421   1.38368    1.97971   
4800.5     9.284147   1.435971   2.040563  
4801       9.389339   1.604329   2.196939  
4801.5     9.545141   1.123983   2.011496  
4802       9.485977   1.366513   1.961726  
4802.5     9.335672   1.478554   2.113712  
4803       9.417906   1.434398   2.043852  
4803.5     9.484022   1.261319   1.801136  
4804       9.48938    1.298707   1.837672  
4804.5     9.428391   1.329732   1.750768  
4805       9.497253   1.312847   1.736433  
4805.5     9.322445   1.406499   1.864071  
4806       9.32024    1.423346   1.839607  
4806.5     9.42333    1.512191   2.045408  
4807       9.456112   1.41017    2.028023  
4807.5     9.493986   1.321056   1.840007  
4808       9.459576   1.392786   1.978759  
4808.5     9.428894   1.395581   1.787904  
4809       9.48015    1.35219    1.617257  
4809.5     9.38497    1.456464   1.752179  
4810       9.242071   1.478478   1.771269  
4810.5     9.200199   1.435741   1.833618  
4811       9.177954   1.484787   1.94281   
4811.5     9.07555    1.515797   2.260699  
4812       9.133467   1.550871   2.299554  
4812.5     9.231462   1.55977    2.30566   
4813       9.269108   1.493413   2.210805  
4813.5     9.267134   1.385519   1.856904  
4814       9.265739   1.483843   1.866527  
4814.5     9.342886   1.39403    1.855118  
4815       9.480963   1.486047   1.494586  
4815.5     9.296717   1.47202    1.785499  
4816       9.232952   1.433529   1.911784  
4816.5     9.213827   1.463695   2.070041  
4817       9.231663   1.430227   2.019248  
4817.5     9.229458   1.505813   2.134133  
4818       9.227255   1.5594     2.221878  
4818.5     9.265131   1.516827   2.196047  
4819       9.448555   1.494661   2.327923  
4819.5     9.582411   1.290866   1.86483   
4820       9.555231   1.376936   1.776652  
4820.5     9.221212   1.454854   1.830126  
4821       9.033667   1.342599   1.860788  
4821.5     8.979263   1.414259   1.890017  
4822       9.021149   1.552949   2.257547  
4822.5     9.067135   2.146682   2.297295  
4823       9.105009   1.797146   2.575891  
4823.5     9.252932   1.559902   2.000937  
4824       9.397423   1.429459   1.904444  
4824.5     9.479158   1.3766     1.966006  
4825       9.597195   1.078991   1.822388  
4825.5     9.574949   1.114275   1.711351  
4826       9.486647   1.103783   1.71027   
4826.5     9.306499   1.278732   1.820246  
4827       9.173294   1.281633   1.860749  
4827.5     9.041731   1.472908   2.076273  
4828       9.042887   2.495009   2.724081  
4828.5     9.04068    2.194163   2.837077  
4829       9.038477   1.824438   2.581752  
4829.5     9.074383   1.332713   2.123357  
4830       9.095987   1.53417    1.971241  
4830.5     9.032341   1.301148   1.962383  
4831       9.181517   1.899424   2.136009  
4831.5     9.462511   1.301114   1.95483   
4832       9.404007   1.395961   1.970293  
4832.5     9.306231   2.265779   2.285391  
4833       9.301403   1.345497   1.961729  
4833.5     9.455673   2.143125   2.12298   
4834       9.697115   1.136384   1.710752  
4834.5     9.829359   1.159953   1.729981  
4835       9.806053   1.267965   1.749698  
4835.5     9.903116   1.269378   1.91973   
4836       9.858816   1.129762   1.678678  
4836.5     9.609953   1.148243   1.675645  
4837       9.403889   1.486467   1.834433  
4837.5     9.461924   1.924893   2.474048  
4838       9.669027   1.41229    1.374696  
4838.5     10.05091   1.106789   1.64328   
4839       10.05651   1.190881   1.638313  
4839.5     10.07435   1.138592   1.580936  
4840       9.982632   1.186178   1.716737  
4840.5     9.757544   1.206591   1.752715  
