~Version
 VERS              .         3.0                           : CWLS LOG ASCII STANDARD - VERSION 3.0
 WRAP              .         NO                            : ONE LINE PER DEPTH STEP
 DLM               .         SPACE                         : DELIMITING CHARACTER(SPACE TAB OR COMMA)
~Well Information
#_______________________________________________________________________________
#
#PARAMETER_NAME    .UNIT     VALUE                         : DESCRIPTION
#_______________________________________________________________________________
STRT               .ft       4750                          : First reference value
STOP               .ft       6400                          : Last reference value
STEP               .ft       0.5                           : Step increment
NULL               .         -9999                         : Missing value
COMP               .                                       : Company
WELL               .         EGBM-004                      : Well name
FLD                .         WILDCAT                       : Field
LOC                .                                       : Location
SRVC               .                                       : Service Company
CTRY               .                                       : Country
DATE               .                                       : Service Date
X                  .                                       : X or East-West coordinate
Y                  .                                       : Y or North South coordinate
GDAT               .                                       : Geodetic Datum
HZCS               .                                       : Horizontal Co-ordinate System
CREATION-TIME      .         2000/8/11 0_0                 : 
FIELD-NAME         .         WILDCAT                       : 
FILE-ID            .         SHELL.001                     : 
FILE-NUMBER        .         1                             : 
FILE-SET-NAME      .                                       : 
FILE-SET-NUMBER    .         0                             : 
FILE-TYPE          .         SHELL                         : 
NAME-SPACE-NAME    .         LIS                           : 
NAME-SPACE-VERSION .         0                             : 
PRODUCER-CODE      .         440                           : 
PRODUCER-NAME      .         Schlumberger                  : 
PRODUCT            .                                       : 
PROGRAMS           .                                       : 
VERSION            .         REV 2.00                      : 
WELL-NAME          .                                       : 
~Parameter Information Block
#_______________________________________________________________________________
#
#PARAMETER_NAME    .UNIT     VALUE                         : DESCRIPTION
#_______________________________________________________________________________
SET                .         SHELL_001_1                   : 
ACQUISITION-PRODUCT .         DLIS/U                        : 
CREATION-TIME      .         2026/5/13 10_33               : 
DLIS_FRAME_DIRECTION .         INCREASING                    : 
DLIS_FRAME_NAME    .         1                             : 
DLIS_FRAME_SPACING .0.1_in   60                            : 
FIELD-NAME         .         WILDCAT                       : 
FILE-ID            .         SHELL.001                     : 
FILE-NUMBER        .         1                             : 
FILE-SET-NAME      .         LIS-TO-DLIS-CONVERSION        : 
FILE-SET-NUMBER    .         1254                          : 
FILE-TYPE          .         SHELL                         : 
INDEX-TYPE         .         BOREHOLE-DEPTH                : 
NAME-SPACE-NAME    .                                       : 
NAME-SPACE-VERSION .         0                             : 
OriginalDatasetName .         1                             : 
PRODUCER-CODE      .         440                           : 
PRODUCER-NAME      .         Schlumberger                  : 
PRODUCT            .         DLIS/U                        : 
PROGRAMS           .         LIS-TO-DLIS                   : 
TLFamily_CALM      .         Caliper                       : 
TLFamily_DEPT      .         Measured Depth                : 
TLFamily_MINV      .         Resistivity - Micro           : 
TLFamily_MNOR      .         Resistivity - Micro           : 
VERSION            .         0.1                           : 
WELL-NAME          .                                       : 
~Curve Information
#_______________________________________________________________________________
#
#LOGNAME           .UNIT     LOG_ID                        : DESCRIPTION
#_______________________________________________________________________________
DEPT               .ft                                     :  {F}
CALM               .in                                     :  {F}
MINV               .ohm.m                                  :  {F}
MNOR               .ohm.m                                  :  {F}
~Ascii
# ...
5023       9.358232   1.163969   0.9595217 
5023.5     9.357029   1.051042   0.8194532 
5024       9.316059   1.064749   0.9982014 
5024.5     9.374699   1.077368   0.9674996 
5025       9.453814   1.066159   0.8574286 
5025.5     9.47175    1.086142   0.8667996 
5026       9.451405   1.055634   0.9258354 
5026.5     9.349798   1.084772   0.8774395 
5027       9.328514   1.094317   0.8728389 
5027.5     9.327309   1.083749   0.8644065 
5028       9.344639   0.990554   0.8538666 
5028.5     9.326778   1.022732   0.8133605 
5029       9.343775   1.043407   0.8100531 
5029.5     9.344906   1.011566   0.8385134 
5030       9.461847   0.995522   0.7518902 
5030.5     9.480722   1.020339   0.7510957 
5031       9.499598   1.063656   1.019766  
5031.5     9.518473   1.256182   1.258425  
5032       9.454294   1.099764   1.099764  
5032.5     9.306845   1.050972   1.050972  
5033       9.059706   0.9975424  0.7282772 
5033.5     9.031727   1.073544   0.8971097 
5034       8.9622     1.005736   0.9264213 
5034.5     8.948996   1.015554   1.015554  
5035       9.055943   1.068537   1.064744  
5035.5     9.214285   1.403      1.104322  
5036       9.286747   3.456345   3.51616   
5036.5     9.272118   2.010125   2.0002    
5037       9.311272   8.659643   8.629639  
5037.5     9.073418   1.650703   2.486173  
5038       9.020884   1.529103   2.458895  
5038.5     9.1        1.520233   2.496312  
5039       9.267492   1.412097   2.246306  
5039.5     9.249798   1.227358   1.97694   
5040       9.055508   1.46762    1.856615  
5040.5     8.934538   2.514083   2.620306  
5041       8.933332   1.376408   2.353485  
5041.5     8.932129   1.845315   2.525646  
5042       8.951004   1.555058   2.545047  
5042.5     8.929718   2.046689   2.793705  
5043       8.928514   2.15354    2.817791  
5043.5     8.927309   1.997364   2.681705  
5044       8.91901    1.482791   2.12062   
5044.5     8.884739   1.870695   2.330159  
5045       8.866917   1.551284   2.428968  
5045.5     8.882328   1.819658   2.248929  
5046       8.901205   1.670516   2.32534   
5046.5     8.88479    1.509917   2.187822  
5047       8.878716   1.793077   2.432743  
5047.5     8.87751    1.9301     2.511628  
5048       8.880344   1.996412   2.554736  
5048.5     8.875101   1.786473   2.623929  
5049       8.893974   1.955155   2.634857  
5049.5     8.912851   1.960527   2.64283   
5050       8.911648   1.904285   2.622198  
5050.5     8.910385   1.913579   2.611492  
5051       8.909122   1.95054    2.696089  
5051.5     8.927938   1.815636   2.630156  
5052       8.946754   1.490852   2.250418  
5052.5     8.94549    1.353174   2.000598  
5053       8.944225   1.504879   2.177659  
5053.5     8.922884   1.620353   2.408018  
5054       8.941698   1.544596   2.327603  
5054.5     8.935387   1.713404   2.556105  
5055       8.959248   1.794954   2.512974  
5055.5     8.937906   1.921547   2.560771  
5056       8.926487   1.803522   2.559783  
5056.5     8.964739   1.562499   2.320745  
5057       8.974266   1.431827   2.034497  
5057.5     8.964785   1.515419   2.013761  
5058       8.951664   1.454669   2.052855  
5058.5     8.970474   1.579547   2.255764  
5059       9.035461   1.497885   2.131389  
5059.5     9.2444     1.555842   2.330458  
5060       9.511398   1.311346   1.990654  
5060.5     9.505693   1.166872   1.70047   
5061       9.097765   1.528397   2.106446  
5061.5     8.98296    1.55958    2.324263  
5062       8.981697   1.4492     2.00788   
5062.5     9.003054   1.637995   2.322897  
5063       9.122753   1.387997   2.048211  
5063.5     9.218739   1.372412   1.995651  
5064       9.216084   1.476384   2.024891  
5064.5     9.2162     1.26622    1.904781  
5065       9.095461   2.043353   1.973671  
5065.5     9.111807   1.504063   2.382179  
5066       9.184414   1.394142   1.903402  
5066.5     9.187811   1.535392   1.971636  
5067       9.225864   1.392251   1.901671  
5067.5     9.228655   1.33197    1.871255  
5068       9.227386   1.404848   1.989757  
5068.5     9.226118   1.360277   2.010587  
5069       9.258562   1.294543   1.902052  
5069.5     9.44429    1.87813    2.027409  
5070       9.613564   9.956177   8.39019   
5070.5     9.521761   3.522002   3.831503  
5071       9.167492   1.745486   2.264592  
5071.5     9.154873   1.480806   1.994773  
5072       9.484472   1.527151   1.962142  
5072.5     9.952667   1.484713   1.973467  
5073       10.46094   1.469661   2.005353  
5073.5     10.77451   1.301683   1.683071  
5074       10.93382   1.602371   1.538391  
5074.5     10.86661   1.252714   1.511807  
5075       10.25129   1.389042   1.54116   
5075.5     10.01075   1.14217    0.8818384 
5076       10.05074   0.9811665  0.9811665 
5076.5     10.34334   1.050304   1.050304  
5077       10.46825   1.10947    1.199249  
5077.5     10.52293   1.261065   1.35056   
5078       10.74021   1.327233   1.518588  
5078.5     10.87788   1.42657    1.556435  
5079       10.73829   1.306267   1.695399  
5079.5     10.54216   2.113889   2.082965  
5080       10.32552   1.155498   1.145293  
5080.5     10.11645   1.181222   1.181222  
5081       10.07685   1.064068   1.064068  
5081.5     10.07557   1.097115   1.097115  
5082       10.07428   1.172432   1.172432  
5082.5     10.073     1.088237   1.088237  
5083       9.977577   1.061316   1.061316  
5083.5     9.950108   1.064341   1.064341  
5084       9.948824   1.030011   1.030011  
5084.5     9.967596   1.066248   1.066248  
5085       9.966312   1.427718   1.148504  
5085.5     9.965029   1.057877   1.057877  
5086       9.973066   1.067166   1.067166  
5086.5     9.992422   1.036547   1.036547  
5087       10.00128   1.078653   1.078653  
5087.5     10.06015   1.261661   1.261661  
5088       10.04249   1.772675   1.363862  
5088.5     9.676525   1.32274    1.32274   
5089       9.555075   1.11293    1.11293   
5089.5     9.523727   1.082309   1.082309  
5090       9.563375   1.044304   1.044304  
5090.5     9.551252   1.073205   1.073205  
5091       9.578068   1.100202   1.100202  
5091.5     9.636076   1.229233   1.229233  
5092       9.728342   1.144775   1.144775  
5092.5     9.927032   1.088161   1.088161  
5093       9.88566    0.9952439  0.9952439 
5093.5     9.739698   0.967041   0.967041  
5094       9.658241   1.016247   1.016247  
5094.5     9.661327   1.065453   1.065453  
5095       9.862577   1.17494    1.17494   
5095.5     10.13936   1.14332    1.312632  
5096       10.29951   1.084385   1.372745  
5096.5     10.09717   1.28064    1.476671  
5097       10.09588   1.141852   1.51801   
5097.5     9.995794   2.378727   2.408662  
5098       9.814383   1.381993   1.679948  
5098.5     9.929718   1.441835   1.738283  
5099       10.07071   1.380847   1.737942  
5099.5     10.01284   2.495545   2.505524  
5100       9.951555   1.067702   1.067785  
5100.5     9.926853   1.09689    1.09689   
5101       9.925852   1.028347   1.028347  
5101.5     9.924849   1.006488   1.006488  
5102       9.923847   1.005989   0.9983292 
5102.5     9.942884   1.035429   1.035429  
5103       10.01948   1.054994   1.065055  
5103.5     10.25941   2.780837   2.770774  
5104       10.04116   1.432884   1.402955  
5104.5     9.771795   1.502496   1.502496  
5105       9.637274   1.392215   1.392215  
5105.5     9.676352   1.318151   1.318151  
5106       9.758675   1.25876    1.25876   
5106.5     9.874748   1.241019   1.241019  
5107       9.873747   1.216816   1.216816  
5107.5     9.892784   1.216431   1.216431  
5108       9.891783   1.229541   1.229541  
5108.5     9.930861   1.204211   1.204211  
5109       9.929859   1.153039   1.128743  
5109.5     9.928858   1.164044   1.138223  
5110       9.921806   1.193578   1.147704  
5110.5     9.886772   1.200849   1.144965  
5111       9.885771   1.169815   1.128164  
5111.5     9.92485    1.166168   1.106287  
5112       9.971661   1.158065   1.105788  
5112.5     10.02304   1.149154   1.105289  
5113       10.02204   1.154691   1.10479   
5113.5     10.001     1.164172   1.104291  
