~Version
 VERS              .         3.0                           : CWLS LOG ASCII STANDARD - VERSION 3.0
 WRAP              .         NO                            : ONE LINE PER DEPTH STEP
 DLM               .         SPACE                         : DELIMITING CHARACTER(SPACE TAB OR COMMA)
~Well Information
#_______________________________________________________________________________
#
#PARAMETER_NAME    .UNIT     VALUE                         : DESCRIPTION
#_______________________________________________________________________________
STRT               .ft       4750                          : First reference value
STOP               .ft       6400                          : Last reference value
STEP               .ft       0.5                           : Step increment
NULL               .         -9999                         : Missing value
COMP               .                                       : Company
WELL               .         EGBM-004                      : Well name
FLD                .         WILDCAT                       : Field
LOC                .                                       : Location
SRVC               .                                       : Service Company
CTRY               .                                       : Country
DATE               .                                       : Service Date
X                  .                                       : X or East-West coordinate
Y                  .                                       : Y or North South coordinate
GDAT               .                                       : Geodetic Datum
HZCS               .                                       : Horizontal Co-ordinate System
CREATION-TIME      .         2000/8/11 0_0                 : 
FIELD-NAME         .         WILDCAT                       : 
FILE-ID            .         SHELL.001                     : 
FILE-NUMBER        .         1                             : 
FILE-SET-NAME      .                                       : 
FILE-SET-NUMBER    .         0                             : 
FILE-TYPE          .         SHELL                         : 
NAME-SPACE-NAME    .         LIS                           : 
NAME-SPACE-VERSION .         0                             : 
PRODUCER-CODE      .         440                           : 
PRODUCER-NAME      .         Schlumberger                  : 
PRODUCT            .                                       : 
PROGRAMS           .                                       : 
VERSION            .         REV 2.00                      : 
WELL-NAME          .                                       : 
~Parameter Information Block
#_______________________________________________________________________________
#
#PARAMETER_NAME    .UNIT     VALUE                         : DESCRIPTION
#_______________________________________________________________________________
SET                .         SHELL_001_1                   : 
ACQUISITION-PRODUCT .         DLIS/U                        : 
CREATION-TIME      .         2026/5/13 10_33               : 
DLIS_FRAME_DIRECTION .         INCREASING                    : 
DLIS_FRAME_NAME    .         1                             : 
DLIS_FRAME_SPACING .0.1_in   60                            : 
FIELD-NAME         .         WILDCAT                       : 
FILE-ID            .         SHELL.001                     : 
FILE-NUMBER        .         1                             : 
FILE-SET-NAME      .         LIS-TO-DLIS-CONVERSION        : 
FILE-SET-NUMBER    .         1254                          : 
FILE-TYPE          .         SHELL                         : 
INDEX-TYPE         .         BOREHOLE-DEPTH                : 
NAME-SPACE-NAME    .                                       : 
NAME-SPACE-VERSION .         0                             : 
OriginalDatasetName .         1                             : 
PRODUCER-CODE      .         440                           : 
PRODUCER-NAME      .         Schlumberger                  : 
PRODUCT            .         DLIS/U                        : 
PROGRAMS           .         LIS-TO-DLIS                   : 
TLFamily_CALM      .         Caliper                       : 
TLFamily_DEPT      .         Measured Depth                : 
TLFamily_MINV      .         Resistivity - Micro           : 
TLFamily_MNOR      .         Resistivity - Micro           : 
VERSION            .         0.1                           : 
WELL-NAME          .                                       : 
~Curve Information
#_______________________________________________________________________________
#
#LOGNAME           .UNIT     LOG_ID                        : DESCRIPTION
#_______________________________________________________________________________
DEPT               .ft                                     :  {F}
CALM               .in                                     :  {F}
MINV               .ohm.m                                  :  {F}
MNOR               .ohm.m                                  :  {F}
~Ascii
# ...
6115       9.313936   1.19641    1.19641   
6115.5     9.262348   1.18644    1.18644   
6116       9.262213   1.222743   1.222743  
6116.5     9.262077   1.272769   1.272769  
6117       9.322104   1.290246   1.263033  
6117.5     9.361078   1.299101   1.299101  
6118       9.422108   1.36379    1.36379   
6118.5     9.462086   1.714854   1.814556  
6119       9.463608   1.410591   1.410591  
6119.5     9.542048   1.343791   1.2662    
6120       9.561975   1.593219   1.593219  
6120.5     9.563135   1.670283   1.670283  
6121       9.521601   1.826109   1.800949  
6121.5     9.561586   1.999882   1.635094  
6122       9.580688   2.642073   2.512462  
6122.5     9.601444   5.66301    4.147556  
6123       9.601316   3.828513   3.240279  
6123.5     9.621246   4.277168   3.061404  
6124       9.621119   2.093718   2.062166  
6124.5     9.620991   1.655034   1.495513  
6125       9.620863   1.345961   1.485543  
6125.5     9.640795   1.357098   1.357098  
6126       9.660494   1.636325   1.636325  
6126.5     9.660131   1.864406   1.688463  
6127       9.579641   1.306902   1.306902  
6127.5     9.560036   1.375872   1.375872  
6128       9.519781   1.384617   1.384617  
6128.5     9.520596   1.263385   1.263385  
6129       9.498285   1.093444   1.093444  
6129.5     9.479265   1.066799   1.066799  
6130       9.378813   1.120638   1.120638  
6130.5     9.378679   1.309482   1.375872  
6131       9.378548   1.311242   1.311242  
6131.5     9.378414   1.371674   1.371674  
6132       9.378283   1.365902   1.465602  
6132.5     9.380156   1.21635    1.21635   
6133       9.398083   1.199636   1.199636  
6133.5     9.397949   1.229487   1.2662    
6134       9.397818   1.142982   1.149375  
6134.5     9.377617   1.157996   1.15653   
6135       9.397552   1.714854   1.58325   
6135.5     9.454693   1.416104   1.445662  
6136       9.494564   1.296404   1.246261  
6136.5     9.50069    2.073778   2.34297   
6137       9.497372   1.21635    1.12662   
6137.5     9.51379    2.24327    2.2333    
6138       9.4807     1.595213   1.635094  
6138.5     9.47691    2.263209   2.991026  
6139       9.210598   5.593219   5.583249  
6139.5     8.770945   1.894316   2.895489  
6140       8.673628   1.571286   2.588234  
6140.5     8.673481   1.528221   2.483951  
6141       8.693407   1.306081   2.31306   
6141.5     8.713331   1.236291   2.063808  
6142       8.733259   1.229956   2.007154  
6142.5     8.713041   1.370886   2.134595  
6143       8.672745   1.535393   2.392821  
6143.5     8.652523   1.485543   2.392821  
6144       8.632301   1.590432   2.612163  
6144.5     8.632153   1.569643   2.781654  
6145       8.632006   1.447656   2.518444  
6145.5     8.651934   1.423963   2.482552  
6146       8.671844   1.427305   2.442202  
6146.5     8.691824   1.367251   2.334349  
6147       8.686922   1.362383   2.293119  
6147.5     8.651344   1.455633   2.360917  
6148       8.671276   1.484781   2.420444  
6148.5     8.671127   1.505482   2.482552  
6149       8.67098    1.545011   2.512462  
6149.5     8.670834   1.555333   2.622133  
6150       8.670704   1.525426   2.492524  
6150.5     8.671034   1.465573   2.362872  
6151       8.71154    1.425896   2.273043  
6151.5     8.711887   1.425981   2.243093  
6152       8.712234   1.436036   2.373212  
6152.5     8.692503   1.436122   2.353323  
6153       8.672771   1.517488   2.465703  
6153.5     8.67312    1.506958   2.423261  
6154       8.673468   1.537127   2.483152  
6154.5     8.673817   1.526186   2.612827  
6155       8.674164   1.486394   2.493272  
6155.5     8.674511   1.5192     2.446903  
6156       8.71501    1.556345   2.473483  
6156.5     8.695282   1.731177   2.680909  
6157       8.675554   1.783917   3.001948  
6157.5     8.689754   1.692171   2.980125  
6158       8.716396   1.726146   2.962239  
6158.5     8.676598   1.713987   2.899818  
6159       8.676945   1.728716   2.87548   
6159.5     8.717438   1.711383   2.892705  
6160       8.684134   1.681912   2.873332  
6160.5     8.718132   1.752123   2.836289  
6161       8.718479   1.796416   2.922784  
6161.5     8.718826   1.8626     3.016263  
6162       8.719172   1.929482   3.205954  
6162.5     8.719519   1.976078   3.247827  
6163       8.719866   1.940627   3.18375   
6163.5     8.727179   1.970023   3.136854  
6164       8.881205   2.066006   3.12253   
6164.5     8.773952   0.9099019  1.408233  
6165       8.681116   1.438234   1.966505  
6165.5     8.681463   1.536134   2.315443  
6166       8.67477    1.620526   2.455081  
6166.5     8.654974   1.760848   2.469899  
6167       8.662439   1.774374   2.455082  
6167.5     8.662788   1.533801   2.41345   
6168       8.683201   1.444886   2.076629  
6168.5     8.683548   1.314592   1.987004  
6169       8.66383    1.513418   2.135758  
6169.5     8.664179   1.772597   2.616911  
6170       8.724718   1.702153   2.612952  
6170.5     8.765192   1.773614   2.701183  
6171       8.873999   1.788085   2.688534  
6171.5     9.084532   1.651442   2.492222  
6172       9.012318   1.526368   2.485848  
6172.5     8.746513   1.672729   2.495889  
6173       8.795126   1.473536   2.369636  
6173.5     8.936373   1.535512   2.366454  
6174       9.156843   1.63722    2.503281  
6174.5     9.480463   1.8883     2.805112  
6175       9.661926   2.197339   2.974579  
6175.5     9.768841   1.131165   1.778847  
6176       9.409496   1.459885   1.713169  
6176.5     9.080784   1.171185   1.729186  
6177       8.863449   2.257411   2.576307  
6177.5     8.749975   2.028275   2.038294  
6178       8.828192   1.948638   2.526595  
6178.5     8.960562   1.619905   2.217782  
6179       8.98225    1.768041   2.267681  
6179.5     8.951923   2.312155   2.706198  
6180       9.002052   2.337547   2.766007  
6180.5     9.072943   1.760553   1.83946   
6181       8.993647   1.650187   1.630287  
6181.5     8.732687   2.152451   2.975533  
6182       8.733032   2.080697   2.865446  
6182.5     8.713326   1.921486   2.495969  
6183       8.664652   1.639147   2.098944  
6183.5     8.545033   1.641785   2.387701  
6184       8.493784   1.595114   2.457872  
6184.5     8.494135   1.591907   2.45783   
6185       8.514538   1.581149   2.40809   
6185.5     8.543669   1.532121   2.21888   
6186       8.575394   1.52036    2.378389  
6186.5     8.584705   1.531586   2.378428  
6187       8.607046   1.590503   2.48808   
6187.5     8.605637   1.691099   2.793632  
6188       8.63694    1.541976   2.580295  
6188.5     8.597189   1.562163   2.498281  
6189       8.55744    1.690473   2.687626  
6189.5     8.557789   1.541356   2.426995  
6190       8.55814    1.482013   2.438729  
6190.5     8.518394   1.442602   2.347273  
6191       8.5096     1.482535   2.32731   
6191.5     8.46991    1.472658   2.297394  
6192       8.479353   1.442043   2.279643  
6192.5     8.47056    1.442944   2.257468  
6193       8.48937    1.434122   2.252375  
6193.5     8.520496   1.484249   2.352418  
6194       8.531336   1.532852   2.455544  
6194.5     8.521198   1.433323   2.363506  
6195       8.492008   1.484903   2.346319  
6195.5     8.481812   1.509454   2.399712  
6196       8.502905   1.445367   2.200573  
6196.5     8.502556   1.5055     2.409849  
6197       8.522949   1.511209   2.39604   
6197.5     8.5233     1.505903   2.380098  
6198       8.662319   1.553457   2.46853   
6198.5     8.735205   1.832188   2.525892  
6199       8.614124   1.649189   2.358321  
6199.5     8.544741   1.523818   2.255253  
6200       8.595543   1.54383    2.320822  
6200.5     8.614902   1.524136   1.982337  
6201       8.565636   1.657174   2.371012  
6201.5     8.60597    1.717287   2.416228  
6202       8.617306   1.824591   2.500977  
6202.5     8.646561   1.753636   2.102904  
6203       8.606728   1.741386   2.258628  
6203.5     8.606981   1.767445   2.382614  
6204       8.639019   1.635322   2.258426  
6204.5     8.587442   1.678645   2.287651  
6205       8.607738   1.536164   2.209162  
6205.5     8.607992   1.530255   2.154042  
