~Version
 VERS              .         3.0                           : CWLS LOG ASCII STANDARD - VERSION 3.0
 WRAP              .         NO                            : ONE LINE PER DEPTH STEP
 DLM               .         SPACE                         : DELIMITING CHARACTER(SPACE TAB OR COMMA)
~Well Information
#_______________________________________________________________________________
#
#PARAMETER_NAME    .UNIT     VALUE                         : DESCRIPTION
#_______________________________________________________________________________
STRT               .ft       4750                          : First reference value
STOP               .ft       6400                          : Last reference value
STEP               .ft       0.5                           : Step increment
NULL               .         -9999                         : Missing value
COMP               .                                       : Company
WELL               .         EGBM-004                      : Well name
FLD                .         WILDCAT                       : Field
LOC                .                                       : Location
SRVC               .                                       : Service Company
CTRY               .                                       : Country
DATE               .                                       : Service Date
X                  .                                       : X or East-West coordinate
Y                  .                                       : Y or North South coordinate
GDAT               .                                       : Geodetic Datum
HZCS               .                                       : Horizontal Co-ordinate System
CREATION-TIME      .         2000/8/11 0_0                 : 
FIELD-NAME         .         WILDCAT                       : 
FILE-ID            .         SHELL.001                     : 
FILE-NUMBER        .         1                             : 
FILE-SET-NAME      .                                       : 
FILE-SET-NUMBER    .         0                             : 
FILE-TYPE          .         SHELL                         : 
NAME-SPACE-NAME    .         LIS                           : 
NAME-SPACE-VERSION .         0                             : 
PRODUCER-CODE      .         440                           : 
PRODUCER-NAME      .         Schlumberger                  : 
PRODUCT            .                                       : 
PROGRAMS           .                                       : 
VERSION            .         REV 2.00                      : 
WELL-NAME          .                                       : 
~Parameter Information Block
#_______________________________________________________________________________
#
#PARAMETER_NAME    .UNIT     VALUE                         : DESCRIPTION
#_______________________________________________________________________________
SET                .         SHELL_001_1                   : 
ACQUISITION-PRODUCT .         DLIS/U                        : 
CREATION-TIME      .         2026/5/13 10_33               : 
DLIS_FRAME_DIRECTION .         INCREASING                    : 
DLIS_FRAME_NAME    .         1                             : 
DLIS_FRAME_SPACING .0.1_in   60                            : 
FIELD-NAME         .         WILDCAT                       : 
FILE-ID            .         SHELL.001                     : 
FILE-NUMBER        .         1                             : 
FILE-SET-NAME      .         LIS-TO-DLIS-CONVERSION        : 
FILE-SET-NUMBER    .         1254                          : 
FILE-TYPE          .         SHELL                         : 
INDEX-TYPE         .         BOREHOLE-DEPTH                : 
NAME-SPACE-NAME    .                                       : 
NAME-SPACE-VERSION .         0                             : 
OriginalDatasetName .         1                             : 
PRODUCER-CODE      .         440                           : 
PRODUCER-NAME      .         Schlumberger                  : 
PRODUCT            .         DLIS/U                        : 
PROGRAMS           .         LIS-TO-DLIS                   : 
TLFamily_CALM      .         Caliper                       : 
TLFamily_DEPT      .         Measured Depth                : 
TLFamily_MINV      .         Resistivity - Micro           : 
TLFamily_MNOR      .         Resistivity - Micro           : 
VERSION            .         0.1                           : 
WELL-NAME          .                                       : 
~Curve Information
#_______________________________________________________________________________
#
#LOGNAME           .UNIT     LOG_ID                        : DESCRIPTION
#_______________________________________________________________________________
DEPT               .ft                                     :  {F}
CALM               .in                                     :  {F}
MINV               .ohm.m                                  :  {F}
MNOR               .ohm.m                                  :  {F}
~Ascii
# ...
5842       8.744595   1.617606   1.617606  
5842.5     8.745491   1.642045   1.642045  
5843       8.905764   1.550714   1.550714  
5843.5     9.046114   1.536861   1.536861  
5844       9.081316   1.765802   1.765802  
5844.5     9.190781   2.352774   2.245543  
5845       9.210421   2.093613   2.561837  
5845.5     9.193634   1.577276   1.638422  
5846       9.132641   1.316292   1.34757   
5846.5     9.149099   1.390457   1.390457  
5847       9.266462   2.232193   2.262074  
5847.5     9.468937   1.843583   1.763935  
5848       9.488577   2.56048    2.510756  
5848.5     9.308994   1.808073   1.504508  
5849       9.267334   1.613943   1.613943  
5849.5     9.246895   2.061977   2.051984  
5850       9.206413   1.455647   1.274961  
5850.5     9.185938   1.397367   1.324563  
5851       9.226051   1.428447   1.428447  
5851.5     9.26593    1.325743   1.553246  
5852       9.165529   1.434623   1.434623  
5852.5     9.046144   1.810779   1.810779  
5853       9.004808   1.85362    2.399256  
5853.5     8.88718    1.48841    1.48841   
5854       8.760647   1.392827   1.203575  
5854.5     8.94232    1.384895   1.405443  
5855       9.082174   1.478133   1.478133  
5855.5     9.259874   1.527966   1.527966  
5856       9.364325   1.939758   2.029433  
5856.5     9.346666   1.872004   1.894324  
5857       9.343887   1.870361   1.870361  
5857.5     9.323647   1.644363   1.903796  
5858       9.283367   1.614726   1.600415  
5858.5     9.246485   1.425722   1.425722  
5859       9.262926   1.539774   1.539774  
5859.5     9.262726   1.948353   1.47556   
5860       9.226429   1.385836   1.385836  
5860.5     9.182163   1.290637   1.290637  
5861       9.121843   1.496126   1.496126  
5861.5     9.137022   1.569123   1.569123  
5862       9.332273   1.7218     1.7218    
5862.5     9.496964   1.701468   1.701468  
5863       9.501802   1.917074   2.123615  
5863.5     9.506994   1.711811   2.031328  
5864       9.538319   1.55106    1.87194   
5864.5     9.501202   1.707197   1.904274  
5865       9.521042   2.013955   2.013955  
5865.5     9.514629   2.812519   2.971947  
5866       9.545721   4.495647   4.545447  
5866.5     9.48036    1.931288   1.616871  
5867       9.4        1.835927   1.814538  
5867.5     9.411753   1.709728   1.855547  
5868       9.310179   1.597629   1.597629  
5868.5     9.259117   1.563627   1.753985  
5869       9.431662   1.819744   1.819744  
5869.5     9.499199   2.492163   2.362748  
5870       9.322645   2.422309   2.063711  
5870.5     8.922205   2.202986   1.814541  
5871       8.676954   1.98614    2.770513  
5871.5     8.636673   1.784965   2.51135   
5872       8.596392   1.674968   2.344162  
5872.5     8.556112   1.665623   2.273193  
5873       8.535872   1.426381   2.094992  
5873.5     8.515631   1.4747     2.112151  
5874       8.51543    1.495529   2.206168  
5874.5     8.535271   1.502902   2.221314  
5875       8.585112   1.590479   2.323728  
5875.5     8.635071   1.911688   2.507081  
5876       8.74468    2.280502   3.077212  
5876.5     8.97406    1.612873   2.489441  
5877       9.174026   1.224295   2.005214  
5877.5     9.482983   1.572767   1.801749  
5878       9.636072   0.9306391  1.104341  
5878.5     9.214912   1.422899   1.522509  
5879       8.868874   1.731429   2.269322  
5879.5     8.813828   1.52543    2.19741   
5880       8.893787   1.40239    2.0996    
5880.5     8.893587   1.557753   2.134932  
5881       8.921043   1.850284   2.258583  
5881.5     9.04085    1.621964   2.24849   
5882       9.279406   1.122729   1.8943    
5882.5     9.320658   1.262037   1.76997   
5883       9.313427   2.945033   2.078502  
5883.5     9.253105   2.048487   1.630062  
5884       9.319471   1.659843   2.476473  
5884.5     9.195396   1.928466   2.313052  
5885       8.945927   1.597551   1.597551  
5885.5     8.931664   1.573715   1.573715  
5886       8.988419   1.541364   1.541364  
5886.5     9.071543   1.519322   1.519322  
5887       9.131462   1.549003   1.549003  
5887.5     9.181421   1.422176   1.422176  
5888       9.426037   1.502047   1.502047  
5888.5     9.511623   1.687824   1.6808    
5889       9.591583   1.727565   1.837026  
5889.5     9.611423   1.946321   2.225371  
5890       9.631262   1.607577   1.756979  
5890.5     9.647352   1.542166   1.965875  
5891       9.610821   1.415773   1.415773  
5891.5     9.53046    1.232796   1.232796  
5892       9.51022    1.409365   1.409365  
5892.5     9.510019   1.345756   1.345756  
5893       9.489779   1.574048   1.574048  
5893.5     9.364182   2.064244   2.243526  
5894       9.184063   1.385862   1.915207  
5894.5     9.168537   1.22729    1.864391  
5895       9.066145   1.217888   1.774667  
5895.5     8.927654   1.444967   2.090547  
5896       8.927454   1.42607    2.123106  
5896.5     8.927254   1.435657   2.161992  
5897       8.927053   1.475298   2.19243   
5897.5     8.926853   1.455179   2.144657  
5898       8.906612   1.42574    2.152191  
5898.5     8.846292   1.542557   2.213374  
5899       8.846092   1.633864   2.273178  
5899.5     8.845892   1.488107   2.195395  
5900       8.865732   1.501071   2.171314  
5900.5     8.845291   1.573506   2.226566  
5901       8.90501    1.631553   2.290437  
5901.5     8.944689   1.692629   2.282388  
5902       8.944288   1.616791   2.242278  
5902.5     8.943888   1.532964   2.265959  
5903       8.923447   1.731934   2.194695  
5903.5     8.913025   1.064307   1.462745  
5904       8.882565   1.980506   2.219449  
5904.5     8.862123   1.563827   2.156163  
5905       8.861723   1.332086   1.890367  
5905.5     8.861322   1.489037   1.976036  
5906       8.860922   1.54073    2.258493  
5906.5     8.920641   1.532563   2.2485    
5907       8.92024    1.272111   1.840778  
5907.5     8.91984    1.292008   1.918332  
5908       8.819239   1.340565   1.92006   
5908.5     8.838879   1.580278   2.197772  
5909       8.838478   1.470869   2.177784  
5909.5     8.797997   1.390637   2.028118  
5910       8.817635   1.479963   2.084853  
5910.5     8.877356   1.539524   2.11733   
5911       8.896994   1.469544   2.031026  
5911.5     8.896593   1.38984    2.007467  
5912       8.896193   1.419814   1.93745   
5912.5     8.915831   1.449553   2.034755  
5913       8.91543    1.498804   2.136254  
5913.5     8.91503    1.488235   2.126678  
5914       8.914629   1.478486   2.055359  
5914.5     8.894188   1.427841   2.085856  
5915       8.893787   1.379301   2.055486  
5915.5     8.873346   1.429709   2.115045  
5916       8.892986   1.528189   2.233263  
5916.5     8.872545   1.559268   2.253159  
5917       8.892185   1.56617    2.204968  
5917.5     8.891783   1.41733    2.054681  
5918       8.871342   1.495816   2.064659  
5918.5     8.850903   1.440501   2.084204  
5919       8.890581   1.460345   2.093672  
5919.5     8.890181   1.386653   2.024138  
5920       8.86974    1.386454   1.983239  
5920.5     8.829258   1.407699   1.974428  
5921       8.888977   1.495617   2.073306  
5921.5     8.828457   1.475498   2.072638  
5922       8.888176   1.495219   2.041855  
5922.5     8.827656   1.483371   2.122577  
5923       8.827255   1.413264   2.072509  
5923.5     8.826853   1.400996   2.051687  
5924       8.866533   1.408858   2.021491  
5924.5     8.826052   1.446461   2.061952  
5925       8.825651   1.46624    2.074318  
5925.5     8.825251   1.513745   2.172621  
5926       8.88497    1.545465   2.241277  
5926.5     8.864529   1.563148   2.249754  
5927       8.824049   1.636618   2.210358  
5927.5     8.823648   1.63247    2.218469  
5928       8.883368   1.590204   2.180079  
5928.5     8.822845   1.592997   2.190883  
5929       8.822445   1.454593   2.128657  
5929.5     8.862123   1.410977   2.03015   
5930       8.861723   1.54965    2.211479  
5930.5     8.881363   1.671115   2.418097  
5931       8.921041   1.738352   2.477725  
5931.5     9.000801   1.132848   2.060872  
5932       8.96032    1.52694    1.969395  
5932.5     8.91984    1.540837   2.173867  
