~Version
 VERS              .         3.0                           : CWLS LOG ASCII STANDARD - VERSION 3.0
 WRAP              .         NO                            : ONE LINE PER DEPTH STEP
 DLM               .         SPACE                         : DELIMITING CHARACTER(SPACE TAB OR COMMA)
~Well Information
#_______________________________________________________________________________
#
#PARAMETER_NAME    .UNIT     VALUE                         : DESCRIPTION
#_______________________________________________________________________________
STRT               .ft       7185.5                        : First reference value
STOP               .ft       8158.5                        : Last reference value
STEP               .ft       0.5                           : Step increment
NULL               .         -9999                         : Missing value
COMP               .         UNKNOWN                       : Company
WELL               .         EGBM-008                      : Well name
FLD                .         EGBEMA                        : Field
LOC                .                                       : Location
SRVC               .                                       : Service Company
CTRY               .                                       : Country
DATE               .         1982/08/24                    : Service Date
LATI               .         5.5418848363                  : Latitude
LONG               .         6.7703148139                  : Longitude
GDAT               .                                       : Geodetic Datum
APIN               .         10800/01                      : 
BHT                .degF     170                           : 
BLI                .ft       8140                          : 
BS                 .in       8.5                           : 
COMPANY            .         UNKNOWN                       : 
CREATION-TIME      .         1982/8/24 0_0                 : 
CSIZ               .in       9.625                         : 
DFD                .lbm/gal  9.800001                      : 
DFT                .         CMC POLYMER                   : 
DFV                .s        -999.25                       : 
EDF                .         82.00000                      : 
ELZ                .ohm.m    -999.25                       : 
ENGI               .         phcon2                        : 
FIELD-NAME         .         EGBEMA                        : 
FILE-ID            .         SOH18 .4                      : 
FILE-NUMBER        .         0                             : 
FILE-SET-NAME      .                                       : 
FILE-SET-NUMBER    .         0                             : 
FILE-TYPE          .         PTF                           : 
HIDE               .         4540_300_185_8_1_DATE_82/08/24_SOH_18_SEQ_4: 
LCC                .         0                             : 
LMF                .         1                             : 
MCST               .degF     75                            : 
MFST               .degF     75                            : 
MST                .degF     95                            : 
NAME-SPACE-NAME    .         LIS                           : 
NAME-SPACE-VERSION .         0                             : 
PRODUC             .         SHELL(PARASOL)                : 
PRODUCER-CODE      .         0                             : 
PRODUCER-NAME      .         Schlumberger                  : 
PRODUCT            .                                       : 
PROGRAMS           .         INC                           : 
R1                 .         BEAM WIDTH _ 24"              : 
R2                 .         UNABLE TO REACH DRILLERS TD   : 
R3                 .         EXTENSIVE WASHOUT AFFECTS MSFL READINGS: 
R4                 .         DEPTH MATCHED TO RUN 2  LLD AS GR WAS 2FT SHALLOW.: 
R5                 .         LOGGERS TD IS 15FT DEEPER THAN TENSION PICKUP.: 
RMCS               .ohm.m    1.89                          : 
RMFS               .ohm.m    0.6                           : 
RMS                .ohm.m    0.5320001                     : 
TCS                .h        -999.25                       : 
TDD                .ft       8188                          : 
TDL                .ft       8155                          : 
TLI                .ft       7200                          : 
VERSION            .         2P01                          : 
WELL-ID            .         10800/01                      : 
WELL-NAME          .         EGBM-008                      : 
WITN               .         phcon2                        : 
WN                 .         EGBM-008                      : 
~Parameter Information Block
#_______________________________________________________________________________
#
#PARAMETER_NAME    .UNIT     VALUE                         : DESCRIPTION
#_______________________________________________________________________________
SET                .         SOH18 _4_1                    : 
ACQUISITION-PRODUCT .         DLIS/U                        : 
COMPANY            .         UNKNOWN                       : 
CREATION-TIME      .         2026/5/13 12_11               : 
DLIS_FRAME_DIRECTION .         INCREASING                    : 
DLIS_FRAME_NAME    .         1                             : 
DLIS_FRAME_SPACING .ft       0.5                           : 
FIELD-NAME         .         EGBEMA                        : 
FILE-ID            .         SOH18 .4                      : 
FILE-NUMBER        .         4                             : 
FILE-SET-NAME      .         LIS-TO-DLIS-CONVERSION        : 
FILE-SET-NUMBER    .         9191                          : 
FILE-TYPE          .         PTF                           : 
INDEX-TYPE         .         BOREHOLE-DEPTH                : 
NAME-SPACE-NAME    .                                       : 
NAME-SPACE-VERSION .         0                             : 
OriginalDatasetName .         1                             : 
PRODUCER-CODE      .         440                           : 
PRODUCER-NAME      .         Schlumberger                  : 
PRODUCT            .         DLIS/U                        : 
PROGRAMS           .         LIS-TO-DLIS                   : 
TLFamily_CAMS      .         Caliper                       : 
TLFamily_DEPT      .         Measured Depth                : 
TLFamily_GRL       .         Gamma Ray                     : 
TLFamily_LL9D      .         Resistivity - Deep            : 
TLFamily_LL9S      .         Resistivity - Medium          : 
TLFamily_MSFL      .         Resistivity - Spherically Focused: 
TLFamily_SPL       .         Spontaneous Potential         : 
TLFamily_TENS      .         Tension                       : 
VERSION            .         0.1                           : 
WELL-ID            .         10800/01                      : 
WELL-NAME          .         EGBM-008                      : 
~Curve Information
#_______________________________________________________________________________
#
#LOGNAME           .UNIT     LOG_ID                        : DESCRIPTION
#_______________________________________________________________________________
DEPT               .ft                                     :  {F}
CAMS               .in                                     :  {F}
GRL                .gAPI                                   :  {F}
LL9D               .ohm.m                                  :  {F}
LL9S               .ohm.m                                  :  {F}
MSFL               .ohm.m                                  :  {F}
SPL                .mV                                     :  {F}
TENS               .                                       :  {F}
~Ascii
# ...
8050       8.820313   116.0625   2.824798   2.516612   3.066406   -32.53125  3134      
8050.5     8.820313   113.8125   2.838132   2.508786   2.615234   -32.25     3100      
8051       8.820313   114.625    2.805258   2.509659   2.582031   -32.1875   3114      
8051.5     8.820313   115        2.843803   2.527385   3.426432   -32.1875   3104      
8052       8.820313   117.9375   2.854262   2.550968   3.378255   -32.8125   3110      
8052.5     8.78125    118.4375   2.87629    2.578197   2.875      -32.0625   3104      
8053       8.828125   114.875    2.893252   2.595616   2.84375    -32.3125   3114      
8053.5     8.84375    115.25     2.911439   2.61515    3.540364   -32.59375  3124      
8054       8.757813   114.875    2.893898   2.604456   3.361979   -32.34375  3130      
8054.5     8.625      114        2.853771   2.579346   2.8444     -32.25     3140      
8055       8.796875   114.1875   2.826428   2.55811    2.671875   -32.5      3120      
8055.5     8.820313   114.5      2.833899   2.563495   2.538411   -32.65625  3080      
8056       8.8125     115.75     2.821196   2.559855   2.709635   -32.46875  3070      
8056.5     8.765625   115.1875   2.874846   2.603406   3.147786   -32.75     3130      
8057       8.742188   115.75     2.90029    2.624993   2.929036   -32.8125   3204      
8057.5     8.796875   118.125    2.889323   2.625925   3.067057   -32.53125  3144      
8058       8.867188   118.375    2.906568   2.644477   3.401692   -32.625    3104      
8058.5     8.796875   120.0625   2.891863   2.630026   3.355469   -32.5625   3080      
8059       8.851563   114.75     2.89246    2.618906   3.535156   -32.75     3094      
8059.5     8.96875    114.1875   2.882433   2.622102   3.649088   -32.84375  3170      
8060       8.820313   110.1875   2.895721   2.662827   3.338541   -32.8125   3144      
8060.5     8.921875   109.6875   2.952005   2.723889   2.593099   -32.6875   3114      
8061       8.867188   112.6875   3.036634   2.791539   2.942708   -32.6875   3114      
8061.5     8.867188   113        3.145656   2.889415   3.18815    -32.59375  3120      
8062       8.859375   117.4375   3.193733   2.939154   3.968099   -32.96875  3140      
8062.5     8.820313   119.4375   3.226778   2.98476    4.473958   -33.03125  3124      
8063       8.835938   123.875    3.264487   3.006546   3.727864   -32.15625  3084      
8063.5     8.820313   125.4375   3.230848   2.980337   3.611979   -32.46875  3090      
8064       8.851563   122.6875   3.164493   2.930979   4.09375    -32.5      3130      
8064.5     8.765625   120.625    3.075523   2.855994   4.416666   -32.4375   3164      
8065       8.75       119.8125   3.031216   2.81255    3.943359   -32.5      3124      
8065.5     8.96875    116.9375   3.039419   2.794309   3.691406   -32.5625   3080      
8066       8.8125     114.5625   2.986565   2.763761   3.070313   -32.625    3100      
8066.5     8.867188   111.4375   2.969322   2.747759   2.58138    -32.375    3110      
8067       8.757813   118.3125   2.932797   2.703477   3.026041   -32.34375  3110      
8067.5     8.796875   119.75     2.857125   2.65222    3.246744   -32.46875  3174      
8068       8.8125     120.8125   2.811765   2.605081   3.324219   -32.84375  3160      
8068.5     8.984375   114.1875   2.782108   2.592321   3.242188   -32.8125   3130      
8069       8.789063   112.0625   2.824956   2.634789   2.847005   -32.28125  3100      
8069.5     8.578125   114.25     2.877857   2.66318    2.792317   -32.375    3110      
8070       8.617188   115.5      2.908415   2.683604   3.024088   -32.4375   3104      
8070.5     8.703125   113.4375   2.854029   2.660522   3.173828   -30.95313  3110      
8071       8.703125   109.375    2.767586   2.586619   3.080729   -32.53125  3110      
8071.5     8.726563   104.625    2.722125   2.546394   3.045572   -32.59375  3140      
8072       8.757813   104.875    2.712766   2.532068   2.710938   -32.625    3130      
8072.5     8.8125     104.875    2.71912    2.518279   2.934244   -32.9375   3094      
8073       8.6875     108.8125   2.728255   2.535706   2.897135   -32.1875   3090      
8073.5     8.703125   108.9375   2.712673   2.523123   2.742838   -32.40625  3110      
8074       8.8125     105.375    2.676839   2.476505   2.574869   -32.53125  3124      
8074.5     8.835938   104.6875   2.66011    2.468922   2.845052   -32.5625   3114      
8075       8.835938   106.875    2.658498   2.486045   3.078125   -32.40625  3090      
8075.5     8.828125   109.0625   2.620354   2.432878   2.640625   -32.71875  3084      
8076       8.851563   109.75     2.620211   2.426439   3.150391   -32.5      3110      
8076.5     8.859375   111.9375   2.650316   2.476667   2.722005   -32.71875  3170      
8077       8.890625   117.875    2.655002   2.479012   3.136067   -32.9375   3150      
8077.5     8.820313   116.375    2.64543    2.461361   2.606771   -33.1875   3120      
8078       8.898438   117.5625   2.609641   2.443272   3.138021   -32.25     3110      
8078.5     8.890625   116.25     2.606423   2.455838   2.632813   -32.84375  3130      
8079       9.125      114.75     2.573356   2.411929   2.748047   -33.0625   3124      
8079.5     8.898438   112.875    2.552729   2.392228   2.852864   -33        3134      
8080       9.234375   111.125    2.527508   2.365558   2.909505   -32.9375   3124      
8080.5     9.21875    108.5625   2.429694   2.297562   2.58138    -32.46875  3140      
8081       9.375      107.25     2.379533   2.240928   2.369791   -32.78125  3130      
8081.5     8.851563   103.75     2.365359   2.241529   1.999349   -33.09375  3134      
8082       8.945313   105.8125   2.361897   2.231123   2.193359   -33.5      3120      
8082.5     9.140625   102.375    2.356566   2.22731    2.321614   -34        3104      
8083       9.148438   105.5      2.392269   2.244104   2.583333   -32.6875   3134      
8083.5     8.984375   107.8125   2.373714   2.220479   2.430338   -33.03125  3160      
8084       9.015625   109.4375   2.345883   2.218319   2.210286   -33.09375  3164      
8084.5     8.984375   108.375    2.297962   2.178288   2.054361   -33.09375  3160      
8085       9.054688   108.75     2.258852   2.160495   2.160156   -32.96875  3110      
8085.5     9.179688   107        2.240536   2.136493   2.435547   -33.15625  3104      
8086       9.179688   104.3125   2.250978   2.149537   2.222656   -33.46875  3120      
8086.5     9.265625   105.6875   2.361478   2.257133   2.478516   -33.46875  3164      
8087       9.460938   105.1875   2.48541    2.38142    2.214844   -33.6875   3124      
8087.5     9.242188   105.9375   2.619699   2.50275    2.25       -34        3140      
8088       9.140625   104.8125   2.77215    2.65029    2.115885   -32.15625  3120      
8088.5     9.15625    107.1875   2.862863   2.749599   2.2819     -33.03125  3140      
8089       9.171875   113.5      2.912613   2.787814   2.179036   -33.40625  3180      
8089.5     9.140625   115.8125   2.938025   2.826834   2.227213   -32.59375  3194      
8090       9.101563   112.6875   2.941091   2.820164   3.274739   -32.78125  3120      
8090.5     9.179688   113.3125   3.051634   2.909615   3.5944     -33.09375  3140      
8091       9.0625     117.0625   3.165305   2.982289   3.555989   -33.03125  3114      
8091.5     8.898438   123.75     3.245371   3.08145    3.948567   -33.15625  3154      
8092       8.867188   121.8125   3.278495   3.096964   3.571614   -33.21875  3180      
8092.5     9          118        3.234549   3.051832   3.824869   -33.84375  3114      
8093       8.867188   110.9375   3.138669   2.974514   4.899739   -32.40625  3104      
8093.5     8.820313   104.5625   3.109501   2.950414   3.68815    -33.15625  3124      
8094       8.859375   105.8125   3.071757   2.944849   3.417969   -33.21875  3160      
8094.5     8.835938   114.5625   3.105039   2.972001   3.275391   -33.21875  3150      
8095       8.96875    121.625    3.232129   3.103289   3.288411   -32.78125  3120      
