~Version
 VERS              .         3.0                           : CWLS LOG ASCII STANDARD - VERSION 3.0
 WRAP              .         NO                            : ONE LINE PER DEPTH STEP
 DLM               .         SPACE                         : DELIMITING CHARACTER(SPACE TAB OR COMMA)
~Well Information
#_______________________________________________________________________________
#
#PARAMETER_NAME    .UNIT     VALUE                         : DESCRIPTION
#_______________________________________________________________________________
STRT               .ft       7185.5                        : First reference value
STOP               .ft       8158.5                        : Last reference value
STEP               .ft       0.5                           : Step increment
NULL               .         -9999                         : Missing value
COMP               .         UNKNOWN                       : Company
WELL               .         EGBM-008                      : Well name
FLD                .         EGBEMA                        : Field
LOC                .                                       : Location
SRVC               .                                       : Service Company
CTRY               .                                       : Country
DATE               .         1982/08/24                    : Service Date
LATI               .         5.5418848363                  : Latitude
LONG               .         6.7703148139                  : Longitude
GDAT               .                                       : Geodetic Datum
APIN               .         10800/01                      : 
BHT                .degF     170                           : 
BLI                .ft       8140                          : 
BS                 .in       8.5                           : 
COMPANY            .         UNKNOWN                       : 
CREATION-TIME      .         1982/8/24 0_0                 : 
CSIZ               .in       9.625                         : 
DFD                .lbm/gal  9.800001                      : 
DFT                .         CMC POLYMER                   : 
DFV                .s        -999.25                       : 
EDF                .         82.00000                      : 
ELZ                .ohm.m    -999.25                       : 
ENGI               .         phcon2                        : 
FIELD-NAME         .         EGBEMA                        : 
FILE-ID            .         SOH18 .4                      : 
FILE-NUMBER        .         0                             : 
FILE-SET-NAME      .                                       : 
FILE-SET-NUMBER    .         0                             : 
FILE-TYPE          .         PTF                           : 
HIDE               .         4540_300_185_8_1_DATE_82/08/24_SOH_18_SEQ_4: 
LCC                .         0                             : 
LMF                .         1                             : 
MCST               .degF     75                            : 
MFST               .degF     75                            : 
MST                .degF     95                            : 
NAME-SPACE-NAME    .         LIS                           : 
NAME-SPACE-VERSION .         0                             : 
PRODUC             .         SHELL(PARASOL)                : 
PRODUCER-CODE      .         0                             : 
PRODUCER-NAME      .         Schlumberger                  : 
PRODUCT            .                                       : 
PROGRAMS           .         INC                           : 
R1                 .         BEAM WIDTH _ 24"              : 
R2                 .         UNABLE TO REACH DRILLERS TD   : 
R3                 .         EXTENSIVE WASHOUT AFFECTS MSFL READINGS: 
R4                 .         DEPTH MATCHED TO RUN 2  LLD AS GR WAS 2FT SHALLOW.: 
R5                 .         LOGGERS TD IS 15FT DEEPER THAN TENSION PICKUP.: 
RMCS               .ohm.m    1.89                          : 
RMFS               .ohm.m    0.6                           : 
RMS                .ohm.m    0.5320001                     : 
TCS                .h        -999.25                       : 
TDD                .ft       8188                          : 
TDL                .ft       8155                          : 
TLI                .ft       7200                          : 
VERSION            .         2P01                          : 
WELL-ID            .         10800/01                      : 
WELL-NAME          .         EGBM-008                      : 
WITN               .         phcon2                        : 
WN                 .         EGBM-008                      : 
~Parameter Information Block
#_______________________________________________________________________________
#
#PARAMETER_NAME    .UNIT     VALUE                         : DESCRIPTION
#_______________________________________________________________________________
SET                .         SOH18 _4_1                    : 
ACQUISITION-PRODUCT .         DLIS/U                        : 
COMPANY            .         UNKNOWN                       : 
CREATION-TIME      .         2026/5/13 12_11               : 
DLIS_FRAME_DIRECTION .         INCREASING                    : 
DLIS_FRAME_NAME    .         1                             : 
DLIS_FRAME_SPACING .ft       0.5                           : 
FIELD-NAME         .         EGBEMA                        : 
FILE-ID            .         SOH18 .4                      : 
FILE-NUMBER        .         4                             : 
FILE-SET-NAME      .         LIS-TO-DLIS-CONVERSION        : 
FILE-SET-NUMBER    .         9191                          : 
FILE-TYPE          .         PTF                           : 
INDEX-TYPE         .         BOREHOLE-DEPTH                : 
NAME-SPACE-NAME    .                                       : 
NAME-SPACE-VERSION .         0                             : 
OriginalDatasetName .         1                             : 
PRODUCER-CODE      .         440                           : 
PRODUCER-NAME      .         Schlumberger                  : 
PRODUCT            .         DLIS/U                        : 
PROGRAMS           .         LIS-TO-DLIS                   : 
TLFamily_CAMS      .         Caliper                       : 
TLFamily_DEPT      .         Measured Depth                : 
TLFamily_GRL       .         Gamma Ray                     : 
TLFamily_LL9D      .         Resistivity - Deep            : 
TLFamily_LL9S      .         Resistivity - Medium          : 
TLFamily_MSFL      .         Resistivity - Spherically Focused: 
TLFamily_SPL       .         Spontaneous Potential         : 
TLFamily_TENS      .         Tension                       : 
VERSION            .         0.1                           : 
WELL-ID            .         10800/01                      : 
WELL-NAME          .         EGBM-008                      : 
~Curve Information
#_______________________________________________________________________________
#
#LOGNAME           .UNIT     LOG_ID                        : DESCRIPTION
#_______________________________________________________________________________
DEPT               .ft                                     :  {F}
CAMS               .in                                     :  {F}
GRL                .gAPI                                   :  {F}
LL9D               .ohm.m                                  :  {F}
LL9S               .ohm.m                                  :  {F}
MSFL               .ohm.m                                  :  {F}
SPL                .mV                                     :  {F}
TENS               .                                       :  {F}
~Ascii
# ...
7731.5     10.79688   94.4375    4.115248   4.36654    3.400391   -30.65625  2984      
7732       11.58594   85.75      4.262006   4.530682   1.479817   -30.71875  3040      
7732.5     12.28125   85         4.267358   4.546811   1.166341   -30.67188  3040      
7733       10.96875   85.8125    4.137187   4.404048   2.158203   -30.92188  3024      
7733.5     11.67188   88.25      4.119349   4.391648   4.732422   -31.60938  2980      
7734       11.03125   90.5       4.433532   4.729115   4.790364   -30.14063  2964      
7734.5     10.6875    91.25      4.62189    4.867972   3.035807   -30.70313  2964      
7735       9.8125     91.625     4.345345   4.561363   3.274739   -30.82813  3024      
7735.5     10.20313   89.3125    4.432912   4.622627   4.475911   -31.26563  3010      
7736       10.36719   92.1875    4.082988   4.340182   2.033203   -31.03125  2974      
7736.5     11.03906   92.1875    3.481539   3.658336   1.547525   -30.53125  3010      
7737       11.375     92.375     3.540831   3.724019   1.58138    -30.21875  2964      
7737.5     11.23438   94.4375    3.879676   4.045913   1.749349   -30.21875  3070      
7738       11.66406   102.5625   4.25596    4.412394   3.690755   -30.53125  3060      
7738.5     10.03125   109        4.54121    4.68236    5.774739   -30.65625  3024      
7739       10.36719   113.5625   4.426693   4.615923   4.25065    -31.10938  2994      
7739.5     11.14063   112.6875   4.24311    4.425027   6.317708   -30.54688  3034      
7740       11.51563   117.6875   4.185114   4.372251   4.441406   -31.17188  3024      
7740.5     10.86719   116.1875   4.213038   4.416903   6.25       -30.8125   3044      
7741       10.09375   125        4.415735   4.642414   4.959635   -31.1875   3010      
7741.5     10.09375   124.0625   4.508971   4.706808   5.307291   -30.78125  3004      
7742       10.14844   123.6875   4.530559   4.743569   5.602864   -30.79688  2940      
7742.5     10.9375    119.6875   4.370143   4.592731   5.121094   -30.85938  2944      
7743       11.00781   121.5625   4.295861   4.461809   3.597005   -30.67188  3014      
7743.5     11.04688   120.8125   4.321315   4.463428   3.169271   -31.01563  3030      
7744       11.14844   117.9375   4.122946   4.251479   3.093099   -30.95313  3024      
7744.5     10.9375    112.3125   3.817145   3.942835   4.899739   -29.71875  2990      
7745       11.15625   111.75     3.420423   3.531746   3.748697   -29.90625  2964      
7745.5     11.17188   116.375    3.10171    3.233775   2.116211   -29.84375  3014      
7746       11.08594   121.0625   3.057469   3.174875   2.450521   -29.90625  3030      
7746.5     11.82813   117.125    3.238716   3.332277   2.852864   -29.90625  2974      
7747       11.51563   109.1875   3.818089   3.877138   3.841797   -30.03125  3010      
7747.5     10.88281   108.1875   4.400221   4.426418   4.358072   -29.98438  3030      
7748       11.10156   106        4.43084    4.446873   5.104166   -29.92188  3004      
7748.5     10.99219   104.1875   4.216056   4.241871   6.048177   -29.98438  2964      
7749       11.32031   100        3.643264   3.753688   3.632813   -30.42188  2954      
7749.5     11.57031   107.125    3.27157    3.432114   2.442708   -29.75     3044      
7750       12.1875    110.0625   3.38096    3.536282   3.014974   -29.46875  3074      
7750.5     12.125     110.4375   3.514184   3.674066   4.41276    -30.15625  3044      
7751       12.15625   107        3.82352    3.979811   4.779947   -30.21875  3000      
7751.5     12.125     99.9375    4.162531   4.331755   2.918619   -30.54688  3054      
7752       11.5       98.1875    4.252438   4.416524   3.154947   -30.23438  3004      
7752.5     11.32813   97.5       3.950713   4.095912   5.347656   -30.29688  3030      
7753       12.17188   102.25     3.533547   3.676225   3.795572   -30.3125   2964      
7753.5     11.91406   96.5625    2.868881   3.036077   1.681641   -30.09375  2954      
7754       12.38281   93.875     2.217448   2.374905   1.644205   -30.21875  2974      
7754.5     12.55469   92.3125    2.296467   2.412025   2.113606   -30.53125  3120      
7755       12.64063   93         2.323937   2.472728   2.613932   -29.53125  3144      
7755.5     12.59375   94.1875    2.329179   2.484039   2.637695   -29.98438  3040      
7756       12.47656   95.25      2.329672   2.483768   1.403646   -30.04688  2984      
7756.5     12.6875    99.6875    2.205843   2.374562   2.083984   -29.92188  2964      
7757       12.39063   98.9375    2.027798   2.185016   1.931641   -30.01563  3044      
7757.5     12.17969   97.5       1.930398   2.113024   2.080078   -29.90625  3054      
7758       12.38281   94.25      1.895887   2.071342   2.305338   -29.96875  3024      
7758.5     12.85156   94.125     1.825431   1.993876   1.676432   -30.15625  3000      
7759       13.5625    93.8125    1.716598   1.900907   1.283854   -30.15625  2984      
7759.5     14.04688   91.375     1.670075   1.840341   1.691731   -30.65625  3014      
7760       14.46875   91.375     1.697654   1.85564    1.823242   -29.28125  3030      
7760.5     14.08594   93.5625    1.729604   1.889909   1.620442   -30.35938  3054      
7761       14.09375   96         1.757188   1.931725   1.580403   -30.45313  3030      
7761.5     14.22656   96.3125    1.757529   1.920177   1.71875    -30.57813  3044      
7762       14.02344   97.3125    1.769618   1.923708   1.896158   -30.70313  3024      
7762.5     13.60156   98.3125    1.804632   1.935295   1.578775   -30.26563  3004      
7763       13.84375   99.3125    1.824564   1.935931   1.53776    -30.32813  3034      
7763.5     13.84375   99.875     1.817026   1.946137   1.797525   -30.70313  3010      
7764       13.40625   97.125     1.838026   1.952264   1.760742   -30.32813  3024      
7764.5     13.49219   94.125     1.809505   1.934896   1.813802   -30.51563  3040      
7765       13.89063   89.75      1.752134   1.898004   1.729817   -30.14063  3020      
7765.5     13.64844   92.875     1.704565   1.837042   1.592447   -30.70313  2974      
7766       13.82031   93.8125    1.699217   1.827579   1.639648   -30.76563  3004      
7766.5     13.95313   95.25      1.723046   1.85038    1.165039   -30.26563  3004      
7767       14.35156   93.75      1.733984   1.845445   1.334635   -30.51563  3000      
7767.5     14.03906   91.5       1.722477   1.837673   1.30306    -30.70313  3024      
7768       14.28125   94.375     1.70885    1.830786   1.844727   -30.64063  3040      
7768.5     14.00781   98.0625    1.720828   1.80595    1.613606   -30.64063  3014      
7769       14.15625   102.3125   1.709058   1.811671   1.386067   -30.57813  2990      
7769.5     14.33594   100        1.699479   1.792629   1.501953   -30.51563  3000      
7770       14.69531   95.625     1.696953   1.795245   1.519856   -31.20313  3024      
7770.5     14.1875    95.5       1.697345   1.758924   1.649088   -29.89063  3020      
7771       13.64063   93.75      1.659868   1.742109   1.743814   -30.64063  3024      
7771.5     14.15625   95.625     1.673076   1.733053   1.632813   -30.95313  3014      
7772       14.61719   90.9375    1.657304   1.721638   1.586588   -30.76563  3074      
7772.5     14.32813   93.6875    1.64776    1.717615   1.686523   -30.89063  3010      
7773       14.625     94.4375    1.649024   1.745765   1.711914   -30.82813  2994      
7773.5     15.27344   105.9375   1.686161   1.774716   1.867188   -30.82813  3014      
7774       14.46875   108.875    1.733063   1.810648   2.067708   -30.64063  3034      
7774.5     14.35156   113.9375   1.762504   1.849735   2.06901    -30.51563  3040      
7775       12.11719   112.875    1.721781   1.796637   1.861979   -30.95313  3024      
7775.5     12.28125   108.3125   1.677972   1.760511   1.762695   -30.14063  2994      
7776       13.55469   101.25     1.652061   1.745481   1.457682   -30.14063  3004      
7776.5     13.70313   91.75      1.593575   1.673682   1.500977   -30.65625  3010      
