~Version
 VERS              .         3.0                           : CWLS LOG ASCII STANDARD - VERSION 3.0
 WRAP              .         NO                            : ONE LINE PER DEPTH STEP
 DLM               .         SPACE                         : DELIMITING CHARACTER(SPACE TAB OR COMMA)
~Well Information
#_______________________________________________________________________________
#
#PARAMETER_NAME    .UNIT     VALUE                         : DESCRIPTION
#_______________________________________________________________________________
STRT               .ft       7185.5                        : First reference value
STOP               .ft       8158.5                        : Last reference value
STEP               .ft       0.5                           : Step increment
NULL               .         -9999                         : Missing value
COMP               .         UNKNOWN                       : Company
WELL               .         EGBM-008                      : Well name
FLD                .         EGBEMA                        : Field
LOC                .                                       : Location
SRVC               .                                       : Service Company
CTRY               .                                       : Country
DATE               .         1982/08/24                    : Service Date
LATI               .         5.5418848363                  : Latitude
LONG               .         6.7703148139                  : Longitude
GDAT               .                                       : Geodetic Datum
APIN               .         10800/01                      : 
BHT                .degF     170                           : 
BLI                .ft       8140                          : 
BS                 .in       8.5                           : 
COMPANY            .         UNKNOWN                       : 
CREATION-TIME      .         1982/8/24 0_0                 : 
CSIZ               .in       9.625                         : 
DFD                .lbm/gal  9.800001                      : 
DFT                .         CMC POLYMER                   : 
DFV                .s        -999.25                       : 
EDF                .         82.00000                      : 
ELZ                .ohm.m    -999.25                       : 
ENGI               .         phcon2                        : 
FIELD-NAME         .         EGBEMA                        : 
FILE-ID            .         SOH18 .4                      : 
FILE-NUMBER        .         0                             : 
FILE-SET-NAME      .                                       : 
FILE-SET-NUMBER    .         0                             : 
FILE-TYPE          .         PTF                           : 
HIDE               .         4540_300_185_8_1_DATE_82/08/24_SOH_18_SEQ_4: 
LCC                .         0                             : 
LMF                .         1                             : 
MCST               .degF     75                            : 
MFST               .degF     75                            : 
MST                .degF     95                            : 
NAME-SPACE-NAME    .         LIS                           : 
NAME-SPACE-VERSION .         0                             : 
PRODUC             .         SHELL(PARASOL)                : 
PRODUCER-CODE      .         0                             : 
PRODUCER-NAME      .         Schlumberger                  : 
PRODUCT            .                                       : 
PROGRAMS           .         INC                           : 
R1                 .         BEAM WIDTH _ 24"              : 
R2                 .         UNABLE TO REACH DRILLERS TD   : 
R3                 .         EXTENSIVE WASHOUT AFFECTS MSFL READINGS: 
R4                 .         DEPTH MATCHED TO RUN 2  LLD AS GR WAS 2FT SHALLOW.: 
R5                 .         LOGGERS TD IS 15FT DEEPER THAN TENSION PICKUP.: 
RMCS               .ohm.m    1.89                          : 
RMFS               .ohm.m    0.6                           : 
RMS                .ohm.m    0.5320001                     : 
TCS                .h        -999.25                       : 
TDD                .ft       8188                          : 
TDL                .ft       8155                          : 
TLI                .ft       7200                          : 
VERSION            .         2P01                          : 
WELL-ID            .         10800/01                      : 
WELL-NAME          .         EGBM-008                      : 
WITN               .         phcon2                        : 
WN                 .         EGBM-008                      : 
~Parameter Information Block
#_______________________________________________________________________________
#
#PARAMETER_NAME    .UNIT     VALUE                         : DESCRIPTION
#_______________________________________________________________________________
SET                .         SOH18 _4_1                    : 
ACQUISITION-PRODUCT .         DLIS/U                        : 
COMPANY            .         UNKNOWN                       : 
CREATION-TIME      .         2026/5/13 12_11               : 
DLIS_FRAME_DIRECTION .         INCREASING                    : 
DLIS_FRAME_NAME    .         1                             : 
DLIS_FRAME_SPACING .ft       0.5                           : 
FIELD-NAME         .         EGBEMA                        : 
FILE-ID            .         SOH18 .4                      : 
FILE-NUMBER        .         4                             : 
FILE-SET-NAME      .         LIS-TO-DLIS-CONVERSION        : 
FILE-SET-NUMBER    .         9191                          : 
FILE-TYPE          .         PTF                           : 
INDEX-TYPE         .         BOREHOLE-DEPTH                : 
NAME-SPACE-NAME    .                                       : 
NAME-SPACE-VERSION .         0                             : 
OriginalDatasetName .         1                             : 
PRODUCER-CODE      .         440                           : 
PRODUCER-NAME      .         Schlumberger                  : 
PRODUCT            .         DLIS/U                        : 
PROGRAMS           .         LIS-TO-DLIS                   : 
TLFamily_CAMS      .         Caliper                       : 
TLFamily_DEPT      .         Measured Depth                : 
TLFamily_GRL       .         Gamma Ray                     : 
TLFamily_LL9D      .         Resistivity - Deep            : 
TLFamily_LL9S      .         Resistivity - Medium          : 
TLFamily_MSFL      .         Resistivity - Spherically Focused: 
TLFamily_SPL       .         Spontaneous Potential         : 
TLFamily_TENS      .         Tension                       : 
VERSION            .         0.1                           : 
WELL-ID            .         10800/01                      : 
WELL-NAME          .         EGBM-008                      : 
~Curve Information
#_______________________________________________________________________________
#
#LOGNAME           .UNIT     LOG_ID                        : DESCRIPTION
#_______________________________________________________________________________
DEPT               .ft                                     :  {F}
CAMS               .in                                     :  {F}
GRL                .gAPI                                   :  {F}
LL9D               .ohm.m                                  :  {F}
LL9S               .ohm.m                                  :  {F}
MSFL               .ohm.m                                  :  {F}
SPL                .mV                                     :  {F}
TENS               .                                       :  {F}
~Ascii
# ...
7686       8.65625    65.4375    6.081933   5.784363   4.977864   -30.46875  3014      
7686.5     8.65625    61.5       5.846818   5.544732   5.731771   -30.40625  3034      
7687       8.882813   58.4375    5.712359   5.437704   7.075521   -31.34375  2980      
7687.5     8.890625   50.25      5.410456   5.161604   7.665364   -30.23438  2934      
7688       8.765625   50.875     4.9569     4.779007   8.126303   -31.82813  2950      
7688.5     8.742188   46.875     4.828629   4.647922   7.183594   -32.46875  2984      
7689       8.6875     48.03125   4.752292   4.620334   5.421875   -32.28125  2890      
7689.5     8.625      45.53125   4.858599   4.731109   4.880208   -32.40625  2900      
7690       8.625      43.96875   5.350412   5.132515   4.929688   -32.09375  2954      
7690.5     8.625      42.3125    5.582077   5.33457    4.91276    -32.15625  3024      
7691       8.625      49.0625    5.580913   5.337484   5.572916   -32.09375  3000      
7691.5     8.65625    58.21875   5.414491   5.189486   5.428385   -32.59375  2984      
7692       8.78125    71.375     4.939224   4.778594   3.552734   -32.40625  2954      
7692.5     9.382813   79.375     4.796615   4.636046   2.013997   -32.65625  3014      
7693       9.71875    85         4.798267   4.674156   1.791341   -31.76563  3084      
7693.5     9.742188   81.75      4.8149     4.691676   2.261067   -30.70313  3014      
7694       9.609375   80.1875    4.925448   4.77091    1.53776    -31.07813  2894      
7694.5     9.625      85.5625    5.50549    5.410442   1.607096   -31.01563  2934      
7695       9.367188   91.3125    5.792643   5.7941     2.653646   -31.01563  2994      
7695.5     9.671875   93.0625    5.952934   5.991756   4.794271   -31.01563  2994      
7696       10.38281   90.4375    5.998385   6.045945   2.532877   -30.95313  3004      
7696.5     10.72656   89.0625    5.513627   5.638366   1.562825   -30.76563  2970      
7697       10.40625   92.125     4.636703   4.736602   1.729817   -30.76563  3024      
7697.5     10.375     92.625     4.082733   4.185943   2.214844   -30.39063  3074      
7698       10.41406   92         3.946682   4.038452   1.452474   -29.32813  2984      
7698.5     11.57031   89.5625    3.566633   3.691778   1.552083   -30.14063  2924      
7699       11.54688   91         3.292347   3.41502    1.423828   -29.89063  2920      
7699.5     11.8125    95.8125    3.398711   3.497006   1.360352   -29.70313  2940      
7700       11.04688   98.4375    3.304714   3.438443   1.64388    -29.53125  3020      
7700.5     11.55469   93.4375    3.30061    3.442668   2.495442   -29.53125  2954      
7701       12.45313   91.125     3.269474   3.441647   1.355794   -29.59375  2900      
7701.5     11.85156   88.8125    3.295986   3.517236   1.764648   -29.71875  2890      
7702       12.33594   91.75      3.39229    3.615326   1.943685   -29.34375  2920      
7702.5     11.13281   92.9375    3.623201   3.8361     1.875325   -30.21875  2940      
7703       11.45313   94.625     3.712106   3.947262   1.350911   -28.73438  2910      
7703.5     10.79688   94.875     3.6365     3.902156   1.145182   -29.67188  2904      
7704       11.05469   92.3125    3.36887    3.599511   0.8440756  -29.10938  2910      
7704.5     11.35156   90.625     3.057752   3.303482   1.236328   -29.4375   2940      
7705       11.69531   92.75      2.912094   3.12447    2.069986   -29.4375   3004      
7705.5     12.38281   93.875     2.772485   2.984185   1.685547   -29.71875  3014      
7706       11.98438   89.875     2.738251   2.909138   1.446614   -29.59375  2970      
7706.5     12.1875    89.5       2.746696   2.958279   1.639974   -29.48438  2904      
7707       12.71875   89.875     2.788749   2.992676   1.75293    -29.54688  2910      
7707.5     12.92188   91.9375    2.790075   2.995849   1.884439   -29.48438  2924      
7708       12.57031   87.8125    2.780838   2.981808   1.980794   -29.3125   2930      
7708.5     12.67969   84.5625    2.767702   2.977066   1.869141   -29.0625   2920      
7709       12.64063   88.375     2.697992   2.92063    1.705729   -30.09375  2890      
7709.5     12.67969   90.4375    2.624019   2.889507   1.250977   -29.65625  2860      
7710       12.88281   90.875     2.644704   2.862113   1.597656   -29.67188  2930      
7710.5     13.24219   87.5       2.754904   2.979198   2.082031   -29.35938  3084      
7711       13.60156   91         2.7791     2.948491   1.972005   -29.42188  3124      
7711.5     13.45313   92.5625    2.783321   2.942374   1.931314   -29.75     3050      
7712       13.22656   92.3125    2.743484   2.950952   2.261719   -29.5      2944      
7712.5     12.54688   90.9375    2.75114    2.941158   1.811523   -29.75     2960      
7713       11.79688   92.625     2.812572   3.031434   1.598633   -30.17188  3034      
7713.5     10.20313   95.1875    3.244055   3.490343   1.667643   -29.20313  3070      
7714       10.41406   91.6875    3.561735   3.855735   1.707682   -29.70313  3074      
7714.5     11.10938   92.75      3.838078   4.097788   2.090169   -29.76563  3000      
7715       11.49219   95         4.803786   5.003303   2.311197   -29.82813  3014      
7715.5     11.07031   95.0625    5.653037   5.766096   2.733724   -29.89063  3044      
7716       10.1875    91.4375    4.989503   5.073708   2.860025   -30.39063  3034      
7716.5     9.257813   93         3.899309   4.097655   6.022135   -30.32813  3024      
7717       9.984375   94.0625    3.276326   3.513098   3.692057   -30.20313  2980      
7717.5     10.88281   90.6875    2.611751   2.78613    1.381836   -29.76563  2960      
7718       12.03125   83.0625    2.386778   2.512132   1.002278   -29.95313  2994      
7718.5     12.6875    80.125     2.769173   2.932975   1.228189   -29.20313  3044      
7719       12.5625    87.3125    3.101612   3.239744   1.532552   -29.76563  3014      
7719.5     11.77344   89.9375    3.327036   3.440098   1.527344   -29.89063  2990      
7720       12.125     96.75      3.725945   3.811647   1.853516   -29.70313  2990      
7720.5     12.44531   96.0625    3.529564   3.703286   1.326822   -30.20313  2964      
7721       11.875     95.4375    3.193294   3.418037   1.447266   -30.07813  2964      
7721.5     12.07031   93.0625    3.246592   3.411336   1.410156   -29.95313  3040      
7722       12.28125   91.5       3.42124    3.585786   1.788086   -30.14063  3110      
7722.5     12.98438   95.5       3.538947   3.71521    1.905924   -30.20313  3054      
7723       12.17969   95.5       3.727056   3.918929   2.402994   -30.45313  3014      
7723.5     12.19531   97.25      4.212103   4.378963   1.806641   -31.20313  2974      
7724       12.11719   93.5625    4.383301   4.555237   2.368164   -29.95313  2984      
7724.5     9.429688   90.375     4.056855   4.257043   5.533854   -30.39063  3010      
7725       10.92188   91.5625    3.859139   4.072469   3.326822   -30.32813  3014      
7725.5     11.42969   98.9375    3.348225   3.570687   1.522461   -29.82813  3000      
7726       11.85156   98.8125    3.05559    3.242589   1.488281   -29.70313  3000      
7726.5     11.95313   94.875     3.145113   3.28162    1.822916   -29.45313  2990      
7727       12.29688   87.5       2.980272   3.130777   1.453125   -29.32813  2980      
7727.5     11.71875   90.875     2.708865   2.853396   1.766602   -29.32813  2970      
7728       12.25      91.6875    2.609377   2.729362   2.436849   -29.39063  3004      
7728.5     12.42188   93.4375    2.445048   2.601921   1.648763   -30.01563  2984      
7729       12.27344   94.875     2.747888   2.913234   1.944661   -29.07813  2994      
7729.5     12.26563   96.5625    3.357141   3.529612   1.467447   -29.71875  3030      
7730       11.89844   99.625     3.572966   3.79831    1.731771   -30.09375  3004      
7730.5     11.13281   100.375    4.05464    4.29649    3.254557   -30.46875  2994      
7731       10.17969   98.75      4.551712   4.778543   3.606119   -30.71875  2980      
