~Version
 VERS              .         3.0                           : CWLS LOG ASCII STANDARD - VERSION 3.0
 WRAP              .         NO                            : ONE LINE PER DEPTH STEP
 DLM               .         SPACE                         : DELIMITING CHARACTER(SPACE TAB OR COMMA)
~Well Information
#_______________________________________________________________________________
#
#PARAMETER_NAME    .UNIT     VALUE                         : DESCRIPTION
#_______________________________________________________________________________
STRT               .ft       7185.5                        : First reference value
STOP               .ft       8158.5                        : Last reference value
STEP               .ft       0.5                           : Step increment
NULL               .         -9999                         : Missing value
COMP               .         UNKNOWN                       : Company
WELL               .         EGBM-008                      : Well name
FLD                .         EGBEMA                        : Field
LOC                .                                       : Location
SRVC               .                                       : Service Company
CTRY               .                                       : Country
DATE               .         1982/08/24                    : Service Date
LATI               .         5.5418848363                  : Latitude
LONG               .         6.7703148139                  : Longitude
GDAT               .                                       : Geodetic Datum
APIN               .         10800/01                      : 
BHT                .degF     170                           : 
BLI                .ft       8140                          : 
BS                 .in       8.5                           : 
COMPANY            .         UNKNOWN                       : 
CREATION-TIME      .         1982/8/24 0_0                 : 
CSIZ               .in       9.625                         : 
DFD                .lbm/gal  9.800001                      : 
DFT                .         CMC POLYMER                   : 
DFV                .s        -999.25                       : 
EDF                .         82.00000                      : 
ELZ                .ohm.m    -999.25                       : 
ENGI               .         phcon2                        : 
FIELD-NAME         .         EGBEMA                        : 
FILE-ID            .         SOH18 .4                      : 
FILE-NUMBER        .         0                             : 
FILE-SET-NAME      .                                       : 
FILE-SET-NUMBER    .         0                             : 
FILE-TYPE          .         PTF                           : 
HIDE               .         4540_300_185_8_1_DATE_82/08/24_SOH_18_SEQ_4: 
LCC                .         0                             : 
LMF                .         1                             : 
MCST               .degF     75                            : 
MFST               .degF     75                            : 
MST                .degF     95                            : 
NAME-SPACE-NAME    .         LIS                           : 
NAME-SPACE-VERSION .         0                             : 
PRODUC             .         SHELL(PARASOL)                : 
PRODUCER-CODE      .         0                             : 
PRODUCER-NAME      .         Schlumberger                  : 
PRODUCT            .                                       : 
PROGRAMS           .         INC                           : 
R1                 .         BEAM WIDTH _ 24"              : 
R2                 .         UNABLE TO REACH DRILLERS TD   : 
R3                 .         EXTENSIVE WASHOUT AFFECTS MSFL READINGS: 
R4                 .         DEPTH MATCHED TO RUN 2  LLD AS GR WAS 2FT SHALLOW.: 
R5                 .         LOGGERS TD IS 15FT DEEPER THAN TENSION PICKUP.: 
RMCS               .ohm.m    1.89                          : 
RMFS               .ohm.m    0.6                           : 
RMS                .ohm.m    0.5320001                     : 
TCS                .h        -999.25                       : 
TDD                .ft       8188                          : 
TDL                .ft       8155                          : 
TLI                .ft       7200                          : 
VERSION            .         2P01                          : 
WELL-ID            .         10800/01                      : 
WELL-NAME          .         EGBM-008                      : 
WITN               .         phcon2                        : 
WN                 .         EGBM-008                      : 
~Parameter Information Block
#_______________________________________________________________________________
#
#PARAMETER_NAME    .UNIT     VALUE                         : DESCRIPTION
#_______________________________________________________________________________
SET                .         SOH18 _4_1                    : 
ACQUISITION-PRODUCT .         DLIS/U                        : 
COMPANY            .         UNKNOWN                       : 
CREATION-TIME      .         2026/5/13 12_11               : 
DLIS_FRAME_DIRECTION .         INCREASING                    : 
DLIS_FRAME_NAME    .         1                             : 
DLIS_FRAME_SPACING .ft       0.5                           : 
FIELD-NAME         .         EGBEMA                        : 
FILE-ID            .         SOH18 .4                      : 
FILE-NUMBER        .         4                             : 
FILE-SET-NAME      .         LIS-TO-DLIS-CONVERSION        : 
FILE-SET-NUMBER    .         9191                          : 
FILE-TYPE          .         PTF                           : 
INDEX-TYPE         .         BOREHOLE-DEPTH                : 
NAME-SPACE-NAME    .                                       : 
NAME-SPACE-VERSION .         0                             : 
OriginalDatasetName .         1                             : 
PRODUCER-CODE      .         440                           : 
PRODUCER-NAME      .         Schlumberger                  : 
PRODUCT            .         DLIS/U                        : 
PROGRAMS           .         LIS-TO-DLIS                   : 
TLFamily_CAMS      .         Caliper                       : 
TLFamily_DEPT      .         Measured Depth                : 
TLFamily_GRL       .         Gamma Ray                     : 
TLFamily_LL9D      .         Resistivity - Deep            : 
TLFamily_LL9S      .         Resistivity - Medium          : 
TLFamily_MSFL      .         Resistivity - Spherically Focused: 
TLFamily_SPL       .         Spontaneous Potential         : 
TLFamily_TENS      .         Tension                       : 
VERSION            .         0.1                           : 
WELL-ID            .         10800/01                      : 
WELL-NAME          .         EGBM-008                      : 
~Curve Information
#_______________________________________________________________________________
#
#LOGNAME           .UNIT     LOG_ID                        : DESCRIPTION
#_______________________________________________________________________________
DEPT               .ft                                     :  {F}
CAMS               .in                                     :  {F}
GRL                .gAPI                                   :  {F}
LL9D               .ohm.m                                  :  {F}
LL9S               .ohm.m                                  :  {F}
MSFL               .ohm.m                                  :  {F}
SPL                .mV                                     :  {F}
TENS               .                                       :  {F}
~Ascii
# ...
7367.5     8.5        35.84375   6.569039   5.925256   5.147135   -21.76563  2794      
7368       8.617188   38.84375   6.32978    5.711007   5.320313   -21.89063  2780      
7368.5     8.65625    41.15625   6.329217   5.708774   5.855469   -21.4375   2770      
7369       8.6875     36.15625   6.998331   6.2374     5.561197   -22        2770      
7369.5     8.6875     33.53125   8.092213   7.072538   5.471354   -22.32813  2760      
7370       8.703125   33.09375   8.835285   7.727489   15.87891   -22.64063  2754      
7370.5     8.765625   35.96875   9.411303   8.352385   71.16666   -22.75     2764      
7371       8.617188   46.375     10.37987   9.252806   8.679688   -23        2784      
7371.5     8.515625   49.25      11.23893   9.874979   8.141928   -22.5      2780      
7372       8.421875   47.96875   11.26026   9.722412   11.45052   -22.42188  2770      
7372.5     8.429688   38.90625   11.02471   9.462307   12.75521   -21.98438  2764      
7373       8.515625   33.3125    9.264591   8.121929   6.736979   -21.48438  2790      
7373.5     8.554688   31.90625   7.557487   6.74762    5.735677   -21.1875   2784      
7374       8.546875   30.78125   6.870515   6.169045   4.800781   -21.0625   2774      
7374.5     8.546875   33.03125   6.834167   6.16188    5.742188   -21.53125  2760      
7375       8.546875   34.15625   7.375975   6.621164   6.279947   -20.46875  2770      
7375.5     8.554688   31.34375   8.267197   7.388795   6.007813   -20.92188  2784      
7376       8.546875   28.53125   8.444195   7.568427   6.402344   -20.98438  2794      
7376.5     8.554688   25.46875   8.475258   7.581841   7.123697   -21.04688  2760      
7377       8.554688   23.78125   7.947552   7.169733   5.595052   -21        2760      
7377.5     8.554688   24.625     7.269816   6.562791   5.414063   -21.375    2790      
7378       8.546875   26.39063   7.258182   6.519979   5.135416   -21.57813  2794      
7378.5     8.546875   30         7.40759    6.617901   5.322916   -21.45313  2794      
7379       8.546875   29.95313   7.612377   6.75874    5.864583   -21.40625  2764      
7379.5     8.570313   27.64063   7.925662   6.984638   6.097656   -21.84375  2760      
7380       8.578125   26.10938   8.009527   7.01068    6.233072   -21.23438  2764      
7380.5     8.625      24.26563   7.804987   6.866529   6.352864   -21.46875  2774      
7381       8.617188   25.84375   7.304716   6.486058   6.135416   -21.48438  2790      
7381.5     8.617188   27.14063   6.861314   6.142347   5.588541   -21.625    2774      
7382       8.632813   34.5625    6.60746    5.964029   4.776041   -21.28125  2764      
7382.5     8.6875     37.4375    6.453175   5.834932   4.822916   -21.45313  2780      
7383       8.726563   39.96875   6.49507    5.893748   5.311197   -21.14063  2780      
7383.5     8.742188   34.9375    6.687016   6.118332   5.44401    -20.96875  2770      
7384       8.742188   31.03125   6.89026    6.368522   5.089844   -21.29688  2770      
7384.5     8.742188   26.28125   7.23488    6.67831    4.782552   -21.3125   2784      
7385       8.75       24.03125   7.63263    7.097833   5.141927   -21.78125  2810      
7385.5     8.773438   23.78125   7.785446   7.266454   5.420572   -20.98438  2804      
7386       8.78125    25.40625   7.640739   7.209266   5.842447   -21.46875  2810      
7386.5     8.8125     36.34375   7.404653   7.04907    5.911458   -21.85938  2794      
7387       8.90625    45.625     7.007633   6.65463    6.360677   -21.5625   2794      
7387.5     8.945313   65.4375    6.94109    6.540339   5.063802   -20.84375  2810      
7388       8.992188   68.25      7.160501   6.681085   3.057942   -20.48438  2810      
7388.5     9.203125   69.875     8.249346   7.501583   5.234375   -21.125    2794      
7389       9.0625     55.9375    8.913002   7.95661    9.106771   -21.57813  2800      
7389.5     9.078125   56.40625   8.358322   7.555315   7.664063   -21.75     2804      
7390       9.289063   59.59375   7.522589   7.082317   1.508463   -22.10938  2814      
7390.5     8.9375     57.3125    6.48061    6.311775   1.274414   -22.0625   2800      
7391       8.929688   49.125     6.109996   5.983142   4.180989   -23.45313  2814      
7391.5     8.9375     43.5625    6.338244   6.259883   5.119791   -23.54688  2834      
7392       9.015625   50.40625   6.415851   6.421694   5.677083   -23.96875  2810      
7392.5     9.257813   64.125     6.643999   6.710394   4.005859   -23.70313  2790      
7393       9.070313   68.4375    6.959702   7.101305   1.926432   -24.39063  2814      
7393.5     8.9375     71.1875    7.197368   7.39439    3.805989   -24.23438  2820      
7394       8.859375   67.125     7.063767   7.301138   7.588541   -25.5625   2790      
7394.5     8.859375   71         7.326442   7.534678   7.490885   -26.625    2764      
7395       8.78125    73.8125    7.443919   7.609039   3.5625     -27.20313  2770      
7395.5     8.828125   72.625     6.801141   6.80897    3.395833   -27.57813  2800      
7396       9.125      77.4375    5.49349    5.54886    4.473307   -28.46875  2800      
7396.5     9.601563   88.75      4.270869   4.343705   3.079427   -29.26563  2804      
7397       10.49219   99.375     3.550825   3.669969   1.449544   -29.42188  2800      
7397.5     10.57813   102.125    3.294579   3.315613   1.309896   -29.60938  2794      
7398       9.078125   97.875     3.432343   3.458028   1.984375   -29.6875   2794      
7398.5     9.742188   96.5625    3.669566   3.718204   5.138021   -29.875    2790      
7399       10.13281   96.125     3.950084   4.034113   2.363932   -30.03125  2800      
7399.5     9.5        91.25      4.334487   4.524548   1.579752   -30.03125  2760      
7400       8.78125    87.3125    4.562806   4.78978    2.652994   -30.04688  2770      
7400.5     9.601563   88.1875    4.645697   4.882809   1.761719   -30.73438  2820      
7401       11.05469   96.1875    4.428877   4.755089   1.219238   -29.32813  2814      
7401.5     10.53906   103.25     4.03409    4.368362   0.8774414  -29.64063  2804      
7402       10.86719   105.6875   3.757859   4.041375   1.065918   -29.64063  2784      
7402.5     11.35938   102.875    3.608104   3.841499   2.446614   -29.70313  2780      
7403       11.95313   96.9375    3.558258   3.753649   1.261719   -29.76563  2790      
7403.5     11.41406   90.5625    3.389351   3.607465   1.338867   -29.89063  2820      
7404       11.73438   88.5625    3.370728   3.552588   1.549153   -29.59375  2814      
7404.5     11.85938   91.875     3.495311   3.661797   1.419271   -29.78125  2784      
7405       11.50781   95.1875    3.412271   3.611319   1.484375   -29.71875  2794      
7405.5     11.59375   97         3.730911   3.889985   1.412109   -29.96875  2824      
7406       11.35156   97.4375    4.228572   4.367794   1.016927   -29.46875  2850      
7406.5     8.796875   92.125     4.185721   4.317612   3.525716   -29.28125  2814      
7407       9.523438   92.9375    4.215465   4.333826   4.197266   -30.23438  2804      
7407.5     10.1875    89.125     3.835848   3.968576   2.635091   -29.73438  2870      
7408       10.8125    97.9375    3.764807   3.837852   1.385416   -29.67188  2900      
7408.5     10.50781   99.0625    3.98912    4.054671   1.20345    -29.625    2854      
7409       9.601563   105.125    4.408162   4.364674   2.765299   -29.625    2824      
7409.5     9.585938   102.3125   4.706045   4.600276   3.399088   -29.53125  2780      
7410       9.140625   96.875     4.421004   4.334683   4.324219   -29.21875  2814      
7410.5     9.445313   92.125     4.441216   4.372561   2.504883   -29.10938  2890      
7411       8.820313   88.9375    4.496022   4.420598   2.439127   -29.85938  2860      
7411.5     8.773438   89.5       4.845093   4.751759   4.847656   -29.35938  2824      
7412       8.804688   86.625     6.215282   5.966664   4.958333   -29.1875   2814      
7412.5     8.875      87.0625    6.223903   6.022776   4.639322   -28.9375   2824      
