~Version
 VERS              .         3.0                           : CWLS LOG ASCII STANDARD - VERSION 3.0
 WRAP              .         NO                            : ONE LINE PER DEPTH STEP
 DLM               .         SPACE                         : DELIMITING CHARACTER(SPACE TAB OR COMMA)
~Well Information
#_______________________________________________________________________________
#
#PARAMETER_NAME    .UNIT     VALUE                         : DESCRIPTION
#_______________________________________________________________________________
STRT               .ft       7185.5                        : First reference value
STOP               .ft       8158.5                        : Last reference value
STEP               .ft       0.5                           : Step increment
NULL               .         -9999                         : Missing value
COMP               .         UNKNOWN                       : Company
WELL               .         EGBM-008                      : Well name
FLD                .         EGBEMA                        : Field
LOC                .                                       : Location
SRVC               .                                       : Service Company
CTRY               .                                       : Country
DATE               .         1982/08/24                    : Service Date
LATI               .         5.5418848363                  : Latitude
LONG               .         6.7703148139                  : Longitude
GDAT               .                                       : Geodetic Datum
APIN               .         10800/01                      : 
BHT                .degF     170                           : 
BLI                .ft       8140                          : 
BS                 .in       8.5                           : 
COMPANY            .         UNKNOWN                       : 
CREATION-TIME      .         1982/8/24 0_0                 : 
CSIZ               .in       9.625                         : 
DFD                .lbm/gal  9.800001                      : 
DFT                .         CMC POLYMER                   : 
DFV                .s        -999.25                       : 
EDF                .         82.00000                      : 
ELZ                .ohm.m    -999.25                       : 
ENGI               .         phcon2                        : 
FIELD-NAME         .         EGBEMA                        : 
FILE-ID            .         SOH18 .4                      : 
FILE-NUMBER        .         0                             : 
FILE-SET-NAME      .                                       : 
FILE-SET-NUMBER    .         0                             : 
FILE-TYPE          .         PTF                           : 
HIDE               .         4540_300_185_8_1_DATE_82/08/24_SOH_18_SEQ_4: 
LCC                .         0                             : 
LMF                .         1                             : 
MCST               .degF     75                            : 
MFST               .degF     75                            : 
MST                .degF     95                            : 
NAME-SPACE-NAME    .         LIS                           : 
NAME-SPACE-VERSION .         0                             : 
PRODUC             .         SHELL(PARASOL)                : 
PRODUCER-CODE      .         0                             : 
PRODUCER-NAME      .         Schlumberger                  : 
PRODUCT            .                                       : 
PROGRAMS           .         INC                           : 
R1                 .         BEAM WIDTH _ 24"              : 
R2                 .         UNABLE TO REACH DRILLERS TD   : 
R3                 .         EXTENSIVE WASHOUT AFFECTS MSFL READINGS: 
R4                 .         DEPTH MATCHED TO RUN 2  LLD AS GR WAS 2FT SHALLOW.: 
R5                 .         LOGGERS TD IS 15FT DEEPER THAN TENSION PICKUP.: 
RMCS               .ohm.m    1.89                          : 
RMFS               .ohm.m    0.6                           : 
RMS                .ohm.m    0.5320001                     : 
TCS                .h        -999.25                       : 
TDD                .ft       8188                          : 
TDL                .ft       8155                          : 
TLI                .ft       7200                          : 
VERSION            .         2P01                          : 
WELL-ID            .         10800/01                      : 
WELL-NAME          .         EGBM-008                      : 
WITN               .         phcon2                        : 
WN                 .         EGBM-008                      : 
~Parameter Information Block
#_______________________________________________________________________________
#
#PARAMETER_NAME    .UNIT     VALUE                         : DESCRIPTION
#_______________________________________________________________________________
SET                .         SOH18 _4_1                    : 
ACQUISITION-PRODUCT .         DLIS/U                        : 
COMPANY            .         UNKNOWN                       : 
CREATION-TIME      .         2026/5/13 12_11               : 
DLIS_FRAME_DIRECTION .         INCREASING                    : 
DLIS_FRAME_NAME    .         1                             : 
DLIS_FRAME_SPACING .ft       0.5                           : 
FIELD-NAME         .         EGBEMA                        : 
FILE-ID            .         SOH18 .4                      : 
FILE-NUMBER        .         4                             : 
FILE-SET-NAME      .         LIS-TO-DLIS-CONVERSION        : 
FILE-SET-NUMBER    .         9191                          : 
FILE-TYPE          .         PTF                           : 
INDEX-TYPE         .         BOREHOLE-DEPTH                : 
NAME-SPACE-NAME    .                                       : 
NAME-SPACE-VERSION .         0                             : 
OriginalDatasetName .         1                             : 
PRODUCER-CODE      .         440                           : 
PRODUCER-NAME      .         Schlumberger                  : 
PRODUCT            .         DLIS/U                        : 
PROGRAMS           .         LIS-TO-DLIS                   : 
TLFamily_CAMS      .         Caliper                       : 
TLFamily_DEPT      .         Measured Depth                : 
TLFamily_GRL       .         Gamma Ray                     : 
TLFamily_LL9D      .         Resistivity - Deep            : 
TLFamily_LL9S      .         Resistivity - Medium          : 
TLFamily_MSFL      .         Resistivity - Spherically Focused: 
TLFamily_SPL       .         Spontaneous Potential         : 
TLFamily_TENS      .         Tension                       : 
VERSION            .         0.1                           : 
WELL-ID            .         10800/01                      : 
WELL-NAME          .         EGBM-008                      : 
~Curve Information
#_______________________________________________________________________________
#
#LOGNAME           .UNIT     LOG_ID                        : DESCRIPTION
#_______________________________________________________________________________
DEPT               .ft                                     :  {F}
CAMS               .in                                     :  {F}
GRL                .gAPI                                   :  {F}
LL9D               .ohm.m                                  :  {F}
LL9S               .ohm.m                                  :  {F}
MSFL               .ohm.m                                  :  {F}
SPL                .mV                                     :  {F}
TENS               .                                       :  {F}
~Ascii
# ...
7595       11.23438   95.5       3.395879   3.492267   2.055013   -29.39063  2970      
7595.5     11.5625    92.875     3.240167   3.33504    1.555989   -29.76563  2950      
7596       11.77344   89.9375    2.972003   3.098223   1.908528   -29.70313  2900      
7596.5     12.35156   87.875     2.77827    2.878333   1.548502   -29.40625  2920      
7597       12.03906   86.4375    2.650561   2.765832   2.007161   -29.53125  2950      
7597.5     12.88281   87.0625    2.658758   2.758508   2.030599   -30.03125  2970      
7598       12.10156   85         2.683412   2.782371   1.575521   -28.90625  2954      
7598.5     12.36719   85.5625    2.651075   2.736273   1.559896   -29.40625  2910      
7599       12.01563   85.4375    2.537294   2.643132   1.583658   -29.40625  2920      
7599.5     11.6875    86.8125    2.43462    2.546834   1.634114   -29.23438  2930      
7600       11.97656   87.75      2.234913   2.324526   1.357096   -29.45313  2970      
7600.5     12.35156   86.875     2.213422   2.304173   1.674479   -29.39063  2980      
7601       12.125     84         2.206725   2.310217   1.535807   -29.20313  3024      
7601.5     11.99219   84.3125    2.188278   2.299541   1.448567   -29.20313  2920      
7602       12         84.75      2.325725   2.422352   1.835938   -29.26563  2930      
7602.5     11.44531   87.375     2.731755   2.800098   1.335611   -29.70313  2984      
7603       10.99219   87.625     2.938285   3.015001   1.842773   -28.57813  3040      
7603.5     11.38281   90.25      2.964714   3.02617    2.396484   -29.51563  2984      
7604       10.72656   89.8125    2.906084   2.97573    3.786458   -29.57813  2954      
7604.5     10.82813   87.75      2.718275   2.821861   2.86263    -29.64063  2930      
7605       11.53125   83.5625    2.482755   2.605795   1.716797   -29.76563  2934      
7605.5     11.60156   84.9375    2.346043   2.462598   1.940104   -29.70313  2944      
7606       12.40625   85.9375    2.402203   2.500019   1.24056    -29.64063  2964      
7606.5     12.32813   92.8125    2.577101   2.692084   0.9682617  -29.51563  2950      
7607       12.8125    95.1875    2.686934   2.804665   1.198893   -29.70313  2974      
7607.5     12.78906   97.9375    2.688755   2.819932   2.0472     -30.32813  2980      
7608       12.39844   89.375     2.684386   2.812924   1.574544   -29.07813  2964      
7608.5     12.75781   84.875     2.662142   2.782575   1.522786   -29.64063  2954      
7609       12.6875    84.875     2.594702   2.726095   1.838216   -29.70313  2930      
7609.5     11.27344   88.875     2.519998   2.663217   2.098633   -29.64063  2904      
7610       12.29688   87.1875    2.500174   2.62241    1.668619   -29.57813  2950      
7610.5     12.52344   85.5       2.532956   2.642351   1.641275   -29.45313  3030      
7611       12.54688   84         2.597997   2.710961   1.865234   -29.39063  3014      
7611.5     11.875     92.3125    2.842811   2.909794   1.692708   -29.32813  2960      
7612       12.16406   93.3125    3.233794   3.307299   1.518555   -29.20313  2940      
7612.5     11.4375    99.625     3.506357   3.547748   2.666341   -29.20313  2930      
7613       11.6875    97.375     3.774933   3.817746   3.40625    -29.45313  2960      
7613.5     11.59375   100.375    3.884197   3.973423   1.30957    -29.84375  3000      
7614       11.33594   97.125     4.153781   4.240565   2.427734   -28.84375  2970      
7614.5     10.49219   94.8125    4.806938   4.83755    2.473307   -28.96875  2964      
7615       10.58594   83.9375    5.996869   5.937016   3.289713   -29.40625  2984      
7615.5     8.9375     78.375     7.001778   6.92112    5.772135   -29.78125  3010      
7616       8.796875   69.6875    6.62919    6.60334    7.167969   -30.28125  2984      
7616.5     8.65625    61.71875   6.203091   6.208415   7.427083   -30.73438  2970      
7617       8.648438   53.09375   5.862008   5.86986    6.638021   -31.17188  2954      
7617.5     8.648438   47.40625   5.672355   5.652483   5.394531   -31.51563  2970      
7618       8.65625    51.5625    5.469254   5.37715    5.615885   -31.51563  2970      
7618.5     8.835938   56.65625   5.747356   5.627631   5.505208   -31.64063  2934      
7619       9.195313   65.8125    5.670985   5.52747    4.460938   -31.57813  2994      
7619.5     8.773438   60.84375   5.398823   5.337441   2.867188   -29.64063  3000      
7620       8.773438   52.3125    5.379569   5.340169   6.265625   -29.51563  2950      
7620.5     8.765625   42.25      5.448364   5.469438   5.345052   -29.51563  2870      
7621       8.75       41.28125   5.384318   5.485723   5.205729   -29.95313  2890      
7621.5     8.75       41.125     5.851864   5.878478   5.371094   -30.51563  2964      
7622       8.765625   46.6875    5.34312    5.468431   5.826822   -31.01563  3094      
7622.5     8.875      58.375     4.849619   4.964249   3.844075   -31.26563  3054      
7623       9.476563   74.5625    4.800037   4.904143   2.025064   -30.70313  2940      
7623.5     9.617188   90.125     4.662728   4.811999   3.384114   -30.76563  2894      
7624       9.414063   92.125     5.172158   5.347456   1.886719   -30.39063  2964      
7624.5     9.179688   91.25      5.515045   5.72236    8.179688   -29.90625  3060      
7625       9.25       87.5625    5.815227   6.059866   9.763021   -28.90625  3000      
7625.5     9.320313   90.625     5.79318    6.063296   5.780599   -28.84375  2924      
7626       9.585938   87.875     5.263652   5.560752   2.716797   -29.78125  2940      
7626.5     9.609375   87.5       4.95201    5.245952   6.550781   -30.03125  2950      
7627       10.20313   86.6875    5.435779   5.702612   5.400391   -30.46875  2930      
7627.5     10.14063   93.5       5.660892   5.966511   2.591146   -30.23438  2950      
7628       9.210938   90.25      5.899336   6.132357   4.5        -29.92188  2990      
7628.5     9.34375    91.75      6.02007    6.251729   2.426432   -29.85938  2920      
7629       9.171875   88.5625    5.615203   5.862598   4.643229   -29.4375   2920      
7629.5     9.179688   92.25      5.431539   5.687222   2.95931    -29.5      2910      
7630       9.34375    94.0625    5.449259   5.650949   3.203125   -29.32813  2950      
7630.5     9.1875     95.25      5.663462   5.832524   2.832682   -28.45313  2964      
7631       9.101563   98.5625    5.992444   6.133073   7.045572   -28.40625  2950      
7631.5     9.203125   101.8125   6.124031   6.233845   11.02083   -28.73438  2954      
7632       9.335938   98.5       6.295615   6.398728   6.832031   -28.70313  2934      
7632.5     8.867188   91         5.767784   5.829594   4.5944     -28.46875  2964      
7633       8.742188   80.75      5.407013   5.512947   5.320313   -28.625    2934      
7633.5     8.867188   76.1875    4.979537   5.143118   4.938802   -29.20313  2910      
7634       9.015625   72         4.71793    4.92537    5.001302   -29.57813  2920      
7634.5     8.757813   67         4.936804   5.088885   4.736979   -29.875    2910      
7635       8.6875     58.3125    5.284523   5.437866   6.19401    -30.4375   2904      
7635.5     9.007813   52.59375   5.365198   5.5345     4.976563   -30.57813  2884      
7636       8.882813   48.15625   5.604713   5.822657   1.798828   -30.29688  2880      
7636.5     8.570313   57.15625   5.238312   5.541979   4.106771   -30.79688  2930      
7637       8.5625     72.875     5.120695   5.417896   4.816406   -30.3125   2994      
7637.5     8.71875    83.4375    5.26391    5.54535    5.574219   -30.3125   2904      
7638       8.804688   75         4.697492   4.958682   5.509114   -30.07813  2914      
7638.5     9.273438   61.9375    3.640235   3.850337   5.177734   -30.57813  2914      
7639       10.19531   54.5       2.95702    3.187721   1.639974   -31.1875   2904      
7639.5     10.78125   57.40625   2.612278   2.808643   1.382161   -31.625    2904      
7640       10.82813   64.3125    2.441298   2.64084    1.435221   -31.28125  2904      
