~Version
 VERS              .         3.0                           : CWLS LOG ASCII STANDARD - VERSION 3.0
 WRAP              .         NO                            : ONE LINE PER DEPTH STEP
 DLM               .         SPACE                         : DELIMITING CHARACTER(SPACE TAB OR COMMA)
~Well Information
#_______________________________________________________________________________
#
#PARAMETER_NAME    .UNIT     VALUE                         : DESCRIPTION
#_______________________________________________________________________________
STRT               .ft       7185.5                        : First reference value
STOP               .ft       8158.5                        : Last reference value
STEP               .ft       0.5                           : Step increment
NULL               .         -9999                         : Missing value
COMP               .         UNKNOWN                       : Company
WELL               .         EGBM-008                      : Well name
FLD                .         EGBEMA                        : Field
LOC                .                                       : Location
SRVC               .                                       : Service Company
CTRY               .                                       : Country
DATE               .         1982/08/24                    : Service Date
LATI               .         5.5418848363                  : Latitude
LONG               .         6.7703148139                  : Longitude
GDAT               .                                       : Geodetic Datum
APIN               .         10800/01                      : 
BHT                .degF     170                           : 
BLI                .ft       8140                          : 
BS                 .in       8.5                           : 
COMPANY            .         UNKNOWN                       : 
CREATION-TIME      .         1982/8/24 0_0                 : 
CSIZ               .in       9.625                         : 
DFD                .lbm/gal  9.800001                      : 
DFT                .         CMC POLYMER                   : 
DFV                .s        -999.25                       : 
EDF                .         82.00000                      : 
ELZ                .ohm.m    -999.25                       : 
ENGI               .         phcon2                        : 
FIELD-NAME         .         EGBEMA                        : 
FILE-ID            .         SOH18 .4                      : 
FILE-NUMBER        .         0                             : 
FILE-SET-NAME      .                                       : 
FILE-SET-NUMBER    .         0                             : 
FILE-TYPE          .         PTF                           : 
HIDE               .         4540_300_185_8_1_DATE_82/08/24_SOH_18_SEQ_4: 
LCC                .         0                             : 
LMF                .         1                             : 
MCST               .degF     75                            : 
MFST               .degF     75                            : 
MST                .degF     95                            : 
NAME-SPACE-NAME    .         LIS                           : 
NAME-SPACE-VERSION .         0                             : 
PRODUC             .         SHELL(PARASOL)                : 
PRODUCER-CODE      .         0                             : 
PRODUCER-NAME      .         Schlumberger                  : 
PRODUCT            .                                       : 
PROGRAMS           .         INC                           : 
R1                 .         BEAM WIDTH _ 24"              : 
R2                 .         UNABLE TO REACH DRILLERS TD   : 
R3                 .         EXTENSIVE WASHOUT AFFECTS MSFL READINGS: 
R4                 .         DEPTH MATCHED TO RUN 2  LLD AS GR WAS 2FT SHALLOW.: 
R5                 .         LOGGERS TD IS 15FT DEEPER THAN TENSION PICKUP.: 
RMCS               .ohm.m    1.89                          : 
RMFS               .ohm.m    0.6                           : 
RMS                .ohm.m    0.5320001                     : 
TCS                .h        -999.25                       : 
TDD                .ft       8188                          : 
TDL                .ft       8155                          : 
TLI                .ft       7200                          : 
VERSION            .         2P01                          : 
WELL-ID            .         10800/01                      : 
WELL-NAME          .         EGBM-008                      : 
WITN               .         phcon2                        : 
WN                 .         EGBM-008                      : 
~Parameter Information Block
#_______________________________________________________________________________
#
#PARAMETER_NAME    .UNIT     VALUE                         : DESCRIPTION
#_______________________________________________________________________________
SET                .         SOH18 _4_1                    : 
ACQUISITION-PRODUCT .         DLIS/U                        : 
COMPANY            .         UNKNOWN                       : 
CREATION-TIME      .         2026/5/13 12_11               : 
DLIS_FRAME_DIRECTION .         INCREASING                    : 
DLIS_FRAME_NAME    .         1                             : 
DLIS_FRAME_SPACING .ft       0.5                           : 
FIELD-NAME         .         EGBEMA                        : 
FILE-ID            .         SOH18 .4                      : 
FILE-NUMBER        .         4                             : 
FILE-SET-NAME      .         LIS-TO-DLIS-CONVERSION        : 
FILE-SET-NUMBER    .         9191                          : 
FILE-TYPE          .         PTF                           : 
INDEX-TYPE         .         BOREHOLE-DEPTH                : 
NAME-SPACE-NAME    .                                       : 
NAME-SPACE-VERSION .         0                             : 
OriginalDatasetName .         1                             : 
PRODUCER-CODE      .         440                           : 
PRODUCER-NAME      .         Schlumberger                  : 
PRODUCT            .         DLIS/U                        : 
PROGRAMS           .         LIS-TO-DLIS                   : 
TLFamily_CAMS      .         Caliper                       : 
TLFamily_DEPT      .         Measured Depth                : 
TLFamily_GRL       .         Gamma Ray                     : 
TLFamily_LL9D      .         Resistivity - Deep            : 
TLFamily_LL9S      .         Resistivity - Medium          : 
TLFamily_MSFL      .         Resistivity - Spherically Focused: 
TLFamily_SPL       .         Spontaneous Potential         : 
TLFamily_TENS      .         Tension                       : 
VERSION            .         0.1                           : 
WELL-ID            .         10800/01                      : 
WELL-NAME          .         EGBM-008                      : 
~Curve Information
#_______________________________________________________________________________
#
#LOGNAME           .UNIT     LOG_ID                        : DESCRIPTION
#_______________________________________________________________________________
DEPT               .ft                                     :  {F}
CAMS               .in                                     :  {F}
GRL                .gAPI                                   :  {F}
LL9D               .ohm.m                                  :  {F}
LL9S               .ohm.m                                  :  {F}
MSFL               .ohm.m                                  :  {F}
SPL                .mV                                     :  {F}
TENS               .                                       :  {F}
~Ascii
# ...
7549.5     11.17969   98.0625    3.362574   3.61312    1.578775   -30.39063  2914      
7550       11.54688   97         3.330516   3.606421   1.538736   -30.21875  2910      
7550.5     11.78125   99.5       3.297514   3.577516   1.882486   -30.59375  2924      
7551       12.27344   101.3125   3.418952   3.736606   1.764974   -30.46875  3030      
7551.5     12.72656   104.4375   3.421149   3.763674   1.623047   -30.59375  2974      
7552       12.15625   104.5625   3.469822   3.794499   1.579102   -30.65625  2940      
7552.5     11.53906   102.1875   3.432107   3.775306   1.566731   -30.84375  2910      
7553       11.89844   99.4375    3.202415   3.485215   1.509439   -30.79688  2934      
7553.5     11.75781   96.3125    3.006563   3.272434   1.124349   -30.39063  2960      
7554       12.23438   93.1875    2.977301   3.234331   1.364908   -30.57813  2974      
7554.5     11.3125    93.125     2.950667   3.179438   1.382161   -30.57813  2964      
7555       11.84375   101.8125   2.977089   3.201937   1.679361   -30.64063  2914      
7555.5     11.875     105        3.000525   3.219124   1.405273   -30.70313  2930      
7556       12.24219   101.3125   2.86295    3.066176   2.221028   -30.32813  2984      
7556.5     12.75      92.375     2.750427   2.942334   1.587564   -30.45313  2954      
7557       12.85156   91.875     2.75446    2.983525   1.424153   -30.32813  2904      
7557.5     12.50781   91.375     3.125447   3.363192   1.081217   -30.32813  2914      
7558       9.78125    92.5625    3.533346   3.772833   2.592773   -30.57813  2930      
7558.5     10.16406   95.125     3.912457   4.210655   2.624349   -30.57813  2940      
7559       10.94531   97.5625    4.243198   4.564887   2.790364   -30.89063  2950      
7559.5     11.11719   95.875     4.128153   4.496511   1.389648   -30.51563  2934      
7560       12.13281   94.9375    4.211432   4.529672   2.36263    -30.45313  2990      
7560.5     12.28906   94.0625    4.335937   4.628665   2.497721   -30.07813  2980      
7561       11.23438   96.125     4.236825   4.552436   1.850586   -30.64063  2960      
7561.5     11.55469   94.625     3.975892   4.22454    1.299479   -29.57813  2950      
7562       11.91406   99.3125    3.735991   3.924138   1.679036   -30.64063  2960      
7562.5     11.20313   103.8125   3.096663   3.293777   2.049479   -30.51563  2964      
7563       11.10938   103.0625   2.930164   3.115089   2.027344   -30.57813  2970      
7563.5     11.96875   101.5625   2.944604   3.123899   0.9980469  -30.32813  2944      
7564       12.53906   101.125    3.108157   3.278424   0.9812826  -30.26563  2934      
7564.5     11.86719   108.875    3.988708   4.172321   2.291992   -30.64063  2974      
7565       11.33594   112.9375   4.359584   4.637948   2.680338   -30.20313  3034      
7565.5     11.3125    108.25     4.441751   4.701167   3.016275   -30.57813  2970      
7566       11.85156   102.1875   4.485137   4.797009   1.730469   -30.70313  2980      
7566.5     12.375     100.1875   4.338424   4.674026   1.855469   -30.07813  2990      
7567       10.84375   107.125    4.291192   4.583864   2.777344   -30.26563  2914      
7567.5     11.42969   110.1875   4.471869   4.7707     2.772135   -30.07813  2930      
7568       11.21875   110.1875   4.148698   4.441712   2.610025   -30.39063  2924      
7568.5     11.79688   101.875    3.646306   3.944892   2.416992   -30.20313  2960      
7569       11.42188   94.9375    3.437782   3.695358   1.402994   -30.14063  2984      
7569.5     10.99219   90         3.295992   3.524515   1.871744   -30.01563  3000      
7570       11.66406   95.1875    3.216519   3.441085   1.940104   -30.14063  2914      
7570.5     11.54688   96.4375    3.234915   3.480664   2.212891   -30.20313  2880      
7571       11.10156   96.125     3.372111   3.644829   1.65918    -30.20313  2920      
7571.5     11.66406   96.0625    3.387223   3.655822   1.699869   -29.95313  2954      
7572       11.71094   97.25      3.38501    3.627354   1.952148   -29.32813  2964      
7572.5     11.39063   95.125     3.281981   3.556869   1.571939   -30.01563  2914      
7573       11.42969   89.8125    3.0468     3.321818   1.575195   -30.14063  2940      
7573.5     11.67969   89.0625    2.855346   3.104294   1.830729   -30.14063  2970      
7574       11.53125   92.4375    2.865791   3.110338   1.989908   -29.76563  3000      
7574.5     11.58594   94.375     2.929473   3.182404   1.526041   -29.82813  2994      
7575       11.50781   98.625     3.00512    3.255762   1.679036   -30.26563  2954      
7575.5     11.60938   95.9375    3.14725    3.369949   2.251302   -29.95313  2884      
7576       11.63281   96.75      3.227728   3.392336   2.080403   -30.20313  2904      
7576.5     11.97656   98.1875    2.702243   2.868628   2.514974   -30.89063  3010      
7577       12.27344   99.0625    2.464516   2.635757   2.13151    -29.59375  3000      
7577.5     12.625     96.375     2.268275   2.446964   1.832356   -30.28125  3014      
7578       12.48438   89.875     2.173      2.340132   1.285481   -30.46875  2984      
7578.5     11.39844   87.0625    2.16246    2.342036   1.268229   -30.21875  2950      
7579       12.51563   90.6875    2.210626   2.377067   1.414388   -30.21875  2964      
7579.5     11.75781   90.25      2.34025    2.504646   1.165689   -30.34375  2970      
7580       11.41406   94.5625    2.441153   2.608357   1.269856   -30.42188  2964      
7580.5     11.83594   92.75      2.44753    2.595104   1.179036   -30.10938  2964      
7581       11.42969   90.125     2.291604   2.441094   1.406575   -30.20313  2944      
7581.5     11.82813   89.375     2.059884   2.232233   1.578125   -30.57813  2994      
7582       13.75      81.125     1.979685   2.132678   1.033691   -29.95313  2974      
7582.5     11.89063   83.625     2.012299   2.179257   0.8741862  -30.14063  2920      
7583       11.72656   82.75      2.230265   2.363778   0.8854166  -30.57813  2944      
7583.5     12.48438   88.625     2.519887   2.65317    1.319986   -30.57813  2990      
7584       12.25      89.4375    2.64185    2.769527   1.614583   -30.76563  3004      
7584.5     11.13281   90.875     2.668509   2.817888   1.390625   -30.32813  2964      
7585       11.77344   88.75      2.732738   2.880289   1.288736   -30.39063  2920      
7585.5     12.67969   88.6875    2.898469   2.982081   1.489583   -30.26563  2900      
7586       12.50781   84.5625    2.953995   3.008121   1.204427   -30.20313  2974      
7586.5     11.83594   90.875     2.862895   2.95095    1.338541   -30.14063  3060      
7587       11.21094   96.4375    2.881253   2.920418   2.227864   -30.76563  2954      
7587.5     11.8125    101.75     2.854712   2.901767   1.983072   -29.64063  2960      
7588       11.61719   107.3125   2.829735   2.90553    2.283854   -30.20313  2960      
7588.5     10.79688   107.1875   3.038554   3.111918   2.41276    -30.20313  2934      
7589       11.83594   115.4375   3.390342   3.442634   2.949869   -30.07813  2914      
7589.5     10.72656   114.1875   3.525281   3.60018    3.491536   -30.28125  2940      
7590       11.17969   113.375    3.739663   3.769703   3.465494   -30.34375  2970      
7590.5     10.96094   105.1875   3.650462   3.742254   2.204427   -30.21875  2950      
7591       11.82813   105.875    3.644919   3.709797   1.80957    -29.65625  2974      
7591.5     10.92188   106        3.688209   3.730473   2.283203   -29.34375  2924      
7592       11.67969   107.5625   3.310789   3.362003   2.098307   -29.78125  2960      
7592.5     11.28906   101.6875   3.139467   3.194519   1.324869   -28.85938  3000      
7593       12.14063   99.5       3.031871   3.143986   1.200846   -29.60938  2964      
7593.5     11.76563   94.8125    2.994884   3.07353    1.238606   -29.76563  2960      
7594       11.60938   94         3.20882    3.30855    1.886393   -29.64063  2950      
7594.5     11.27344   93.875     3.415874   3.479685   2.350911   -29.70313  2940      
