~Version
 VERS              .         3.0                           : CWLS LOG ASCII STANDARD - VERSION 3.0
 WRAP              .         NO                            : ONE LINE PER DEPTH STEP
 DLM               .         SPACE                         : DELIMITING CHARACTER(SPACE TAB OR COMMA)
~Well Information
#_______________________________________________________________________________
#
#PARAMETER_NAME    .UNIT     VALUE                         : DESCRIPTION
#_______________________________________________________________________________
STRT               .ft       7185.5                        : First reference value
STOP               .ft       8158.5                        : Last reference value
STEP               .ft       0.5                           : Step increment
NULL               .         -9999                         : Missing value
COMP               .         UNKNOWN                       : Company
WELL               .         EGBM-008                      : Well name
FLD                .         EGBEMA                        : Field
LOC                .                                       : Location
SRVC               .                                       : Service Company
CTRY               .                                       : Country
DATE               .         1982/08/24                    : Service Date
LATI               .         5.5418848363                  : Latitude
LONG               .         6.7703148139                  : Longitude
GDAT               .                                       : Geodetic Datum
APIN               .         10800/01                      : 
BHT                .degF     170                           : 
BLI                .ft       8140                          : 
BS                 .in       8.5                           : 
COMPANY            .         UNKNOWN                       : 
CREATION-TIME      .         1982/8/24 0_0                 : 
CSIZ               .in       9.625                         : 
DFD                .lbm/gal  9.800001                      : 
DFT                .         CMC POLYMER                   : 
DFV                .s        -999.25                       : 
EDF                .         82.00000                      : 
ELZ                .ohm.m    -999.25                       : 
ENGI               .         phcon2                        : 
FIELD-NAME         .         EGBEMA                        : 
FILE-ID            .         SOH18 .4                      : 
FILE-NUMBER        .         0                             : 
FILE-SET-NAME      .                                       : 
FILE-SET-NUMBER    .         0                             : 
FILE-TYPE          .         PTF                           : 
HIDE               .         4540_300_185_8_1_DATE_82/08/24_SOH_18_SEQ_4: 
LCC                .         0                             : 
LMF                .         1                             : 
MCST               .degF     75                            : 
MFST               .degF     75                            : 
MST                .degF     95                            : 
NAME-SPACE-NAME    .         LIS                           : 
NAME-SPACE-VERSION .         0                             : 
PRODUC             .         SHELL(PARASOL)                : 
PRODUCER-CODE      .         0                             : 
PRODUCER-NAME      .         Schlumberger                  : 
PRODUCT            .                                       : 
PROGRAMS           .         INC                           : 
R1                 .         BEAM WIDTH _ 24"              : 
R2                 .         UNABLE TO REACH DRILLERS TD   : 
R3                 .         EXTENSIVE WASHOUT AFFECTS MSFL READINGS: 
R4                 .         DEPTH MATCHED TO RUN 2  LLD AS GR WAS 2FT SHALLOW.: 
R5                 .         LOGGERS TD IS 15FT DEEPER THAN TENSION PICKUP.: 
RMCS               .ohm.m    1.89                          : 
RMFS               .ohm.m    0.6                           : 
RMS                .ohm.m    0.5320001                     : 
TCS                .h        -999.25                       : 
TDD                .ft       8188                          : 
TDL                .ft       8155                          : 
TLI                .ft       7200                          : 
VERSION            .         2P01                          : 
WELL-ID            .         10800/01                      : 
WELL-NAME          .         EGBM-008                      : 
WITN               .         phcon2                        : 
WN                 .         EGBM-008                      : 
~Parameter Information Block
#_______________________________________________________________________________
#
#PARAMETER_NAME    .UNIT     VALUE                         : DESCRIPTION
#_______________________________________________________________________________
SET                .         SOH18 _4_1                    : 
ACQUISITION-PRODUCT .         DLIS/U                        : 
COMPANY            .         UNKNOWN                       : 
CREATION-TIME      .         2026/5/13 12_11               : 
DLIS_FRAME_DIRECTION .         INCREASING                    : 
DLIS_FRAME_NAME    .         1                             : 
DLIS_FRAME_SPACING .ft       0.5                           : 
FIELD-NAME         .         EGBEMA                        : 
FILE-ID            .         SOH18 .4                      : 
FILE-NUMBER        .         4                             : 
FILE-SET-NAME      .         LIS-TO-DLIS-CONVERSION        : 
FILE-SET-NUMBER    .         9191                          : 
FILE-TYPE          .         PTF                           : 
INDEX-TYPE         .         BOREHOLE-DEPTH                : 
NAME-SPACE-NAME    .                                       : 
NAME-SPACE-VERSION .         0                             : 
OriginalDatasetName .         1                             : 
PRODUCER-CODE      .         440                           : 
PRODUCER-NAME      .         Schlumberger                  : 
PRODUCT            .         DLIS/U                        : 
PROGRAMS           .         LIS-TO-DLIS                   : 
TLFamily_CAMS      .         Caliper                       : 
TLFamily_DEPT      .         Measured Depth                : 
TLFamily_GRL       .         Gamma Ray                     : 
TLFamily_LL9D      .         Resistivity - Deep            : 
TLFamily_LL9S      .         Resistivity - Medium          : 
TLFamily_MSFL      .         Resistivity - Spherically Focused: 
TLFamily_SPL       .         Spontaneous Potential         : 
TLFamily_TENS      .         Tension                       : 
VERSION            .         0.1                           : 
WELL-ID            .         10800/01                      : 
WELL-NAME          .         EGBM-008                      : 
~Curve Information
#_______________________________________________________________________________
#
#LOGNAME           .UNIT     LOG_ID                        : DESCRIPTION
#_______________________________________________________________________________
DEPT               .ft                                     :  {F}
CAMS               .in                                     :  {F}
GRL                .gAPI                                   :  {F}
LL9D               .ohm.m                                  :  {F}
LL9S               .ohm.m                                  :  {F}
MSFL               .ohm.m                                  :  {F}
SPL                .mV                                     :  {F}
TENS               .                                       :  {F}
~Ascii
# ...
7777       14.46875   88.9375    1.596351   1.676449   1.520508   -30.53125  3030      
7777.5     15.21094   86.5       1.606156   1.694751   1.556966   -30.15625  3004      
7778       14.14844   88.5       1.620296   1.700197   1.65625    -30.65625  2994      
7778.5     15.25      92.125     1.627283   1.704664   1.619141   -30.46875  3000      
7779       14.47656   93.4375    1.655771   1.741375   1.322266   -30.46875  3030      
7779.5     14.53906   90.875     1.676266   1.772283   1.242838   -30.35938  2994      
7780       14.21094   87.125     1.721721   1.812422   1.27832    -30.32813  3020      
7780.5     12.53125   87.625     1.764114   1.858269   1.785156   -30.07813  3034      
7781       13.82031   90.1875    1.790976   1.877249   1.78418    -29.64063  2984      
7781.5     13.49219   92.25      1.763037   1.850247   1.560547   -30.51563  3014      
7782       14.24219   93.1875    1.716157   1.820588   1.860352   -30.39063  3030      
7782.5     13.64063   91.875     1.721588   1.837285   1.636067   -30.64063  3024      
7783       13.26563   92.625     1.736591   1.849426   1.670898   -30.20313  2974      
7783.5     13.6875    93.9375    1.76428    1.844144   1.772786   -30.20313  2994      
7784       13.73438   97.3125    1.751766   1.861008   1.644531   -30.32813  3000      
7784.5     13.76563   95.75      1.739424   1.859495   1.783528   -30.26563  3024      
7785       14.09375   98.125     1.760756   1.891338   1.641927   -30.51563  3020      
7785.5     13.78906   103.4375   1.779898   1.919024   1.886719   -31.01563  2970      
7786       13.70313   105.0625   1.795781   1.927032   1.847981   -29.89063  2990      
7786.5     13.78125   102.5      1.8112     1.949474   1.789388   -30.32813  3024      
7787       13.57813   95.625     1.819743   1.946301   1.625      -30.39063  3100      
7787.5     13.22656   97.1875    1.843831   1.987056   1.842122   -30.45313  3054      
7788       13.58594   96.625     1.857971   2.00587    1.851236   -30.45313  2974      
7788.5     12.53125   99.125     1.868545   2.019551   1.730469   -30.32813  2990      
7789       13.03125   101.3125   1.864456   2.014986   1.70638    -30.14063  3034      
7789.5     13.34375   106.8125   1.825762   1.9705     1.595377   -30.28125  3024      
7790       13.39844   107.9375   1.78853    1.927658   1.541666   -30.46875  2990      
7790.5     13.05469   104.1875   1.770692   1.915787   1.869466   -30.53125  3010      
7791       13.19531   97.8125    1.775906   1.931441   1.917969   -29.90625  3080      
7791.5     13.125     93.125     1.763131   1.925065   2.055013   -29.96875  3034      
7792       13.125     91.9375    1.776128   1.931813   1.658528   -30.40625  3014      
7792.5     13.125     94.625     1.799232   1.952538   1.480469   -30.42188  3004      
7793       13.46875   95.375     1.795897   1.944578   1.555013   -30.42188  3000      
7793.5     12.95313   91.8125    1.75993    1.919419   1.558919   -30.23438  3014      
7794       13.625     89.5625    1.751348   1.910337   1.61263    -30.14063  3034      
7794.5     13.375     87.5       1.734482   1.882486   1.508138   -30.07813  3030      
7795       13.51563   92.25      1.725955   1.866962   1.486979   -30.15625  3030      
7795.5     13.51563   88.75      1.712403   1.846613   1.494791   -30.53125  3050      
7796       14.17188   91.6875    1.703304   1.867161   1.756185   -30.90625  3040      
7796.5     14.16406   92.9375    1.859756   2.024109   1.475586   -29.65625  3044      
7797       13.8125    98.5       2.064382   2.239171   1.942057   -29.78125  3020      
7797.5     10.1875    100.625    2.452495   2.637308   2.232422   -30.34375  3024      
7798       11.33594   101.875    2.942139   3.123905   2.554688   -30.73438  3034      
7798.5     12.17969   102.5625   3.075259   3.310555   2.226563   -30.60938  3000      
7799       11.30469   101        2.978053   3.229622   2.970703   -30.73438  3024      
7799.5     12.07031   97.5       2.781336   3.076311   1.605794   -30.75     3034      
7800       12.15625   100.625    2.714705   3.004116   2.078125   -30.96875  3034      
7800.5     11.36719   101.0625   3.081225   3.315784   2.01888    -31.09375  3044      
7801       12.39844   105.5      3.142531   3.392222   2.190104   -31.65625  3020      
7801.5     9.765625   102.8125   3.370755   3.584549   3.311849   -31.34375  3034      
7802       10.30469   104.3125   3.431674   3.599415   2.251627   -31.85938  3020      
7802.5     10.95313   108.25     2.935781   3.11647    2.084961   -31.95313  3020      
7803       10.39063   112.8125   2.751825   2.942043   2.209635   -31.57813  3060      
7803.5     10.10938   111.75     2.778583   2.940784   2.688802   -31.70313  3054      
7804       10.82813   106.3125   2.689804   2.860378   4.287109   -31.64063  3050      
7804.5     10.46875   98         2.875796   3.048331   3.778646   -31.76563  3024      
7805       10.8125    98.875     3.165287   3.38671    1.256185   -31.64063  3024      
7805.5     10.52344   100.9375   3.289909   3.541257   1.712891   -31.64063  3020      
7806       10.14063   106.8125   3.428954   3.677612   2.480469   -31.64063  2994      
7806.5     10.02344   114.125    3.697694   3.936108   3.753255   -31.64063  2980      
7807       10.21094   116.25     3.420911   3.665477   3.184244   -31.45313  3010      
7807.5     10.59375   118.3125   3.230511   3.414536   2.580078   -31.32813  3074      
7808       10.15625   109.1875   3.075501   3.275626   1.291016   -31.26563  3040      
7808.5     9.453125   106.75     2.860991   3.020496   1.601236   -30.82813  3014      
7809       9.78125    100.875    2.884213   3.057493   1.76595    -30.76563  2990      
7809.5     10.35938   102.6875   2.968761   3.191269   4.396484   -31.26563  3004      
7810       10.49219   94.4375    3.451972   3.731326   4.78776    -31.32813  3004      
7810.5     9.78125    87.4375    5.873149   6.410895   1.587891   -31.20313  3070      
7811       8.742188   74.5       7.685967   8.614189   3.316406   -30.82813  3084      
7811.5     8.84375    67.6875    10.82385   12.1174    27.2552    -31.32813  3040      
7812       9.054688   57.625     18.63985   21.52301   6.742188   -30.26563  2994      
7812.5     9.09375    44.65625   21.59532   25.31764   6.183594   -31.07813  3020      
7813       9.117188   33.75      27.04816   30.45192   12.96354   -30.57813  3060      
7813.5     9.367188   26.73438   39.38914   41.53917   8.875      -30.32813  3054      
7814       8.945313   27.35938   24.98701   26.5433    9.354166   -30.76563  3054      
7814.5     8.75       38.9375    11.36656   12.33284   22.6927    -30.59375  3020      
7815       8.9375     67.75      4.741203   5.262321   22.20572   -30.59375  3020      
7815.5     9.726563   88.875     2.444665   2.765086   3.655599   -30.09375  3080      
7816       10.39063   102.3125   1.870174   2.123399   1.845703   -30.40625  3104      
7816.5     10.53906   98.4375    1.839096   2.037018   1.75651    -31.03125  3044      
7817       10.92188   96.1875    1.823647   2.021214   1.495442   -29.90625  3100      
7817.5     10.99219   91.1875    1.79945    2.005501   1.074219   -30.48438  3030      
7818       11.42188   86.9375    1.739815   1.948717   1.499023   -30.42188  2994      
7818.5     10.67188   86.3125    1.744614   1.950686   1.876953   -30.45313  3004      
7819       11.14063   87.6875    1.763213   2.005862   1.511067   -30.14063  3064      
7819.5     11.60156   88.1875    1.791362   2.033615   1.142578   -30.39063  3094      
7820       11.0625    90.875     1.79113    2.027157   1.411133   -30.51563  3130      
7820.5     11.51563   90.875     1.821092   2.057068   1.562825   -30.45313  3040      
7821       11.5625    89.8125    1.862872   2.123405   1.707031   -30.32813  3050      
7821.5     11.41406   89.5       2.072263   2.328028   1.539388   -30.57813  3100      
7822       10.99219   85.5625    2.266609   2.502572   1.55957    -30.34375  3110      
