~Version
 VERS              .         3.0                           : CWLS LOG ASCII STANDARD - VERSION 3.0
 WRAP              .         NO                            : ONE LINE PER DEPTH STEP
 DLM               .         SPACE                         : DELIMITING CHARACTER(SPACE TAB OR COMMA)
~Well Information
#_______________________________________________________________________________
#
#PARAMETER_NAME    .UNIT     VALUE                         : DESCRIPTION
#_______________________________________________________________________________
STRT               .ft       7185.5                        : First reference value
STOP               .ft       8158.5                        : Last reference value
STEP               .ft       0.5                           : Step increment
NULL               .         -9999                         : Missing value
COMP               .         UNKNOWN                       : Company
WELL               .         EGBM-008                      : Well name
FLD                .         EGBEMA                        : Field
LOC                .                                       : Location
SRVC               .                                       : Service Company
CTRY               .                                       : Country
DATE               .         1982/08/24                    : Service Date
LATI               .         5.5418848363                  : Latitude
LONG               .         6.7703148139                  : Longitude
GDAT               .                                       : Geodetic Datum
APIN               .         10800/01                      : 
BHT                .degF     170                           : 
BLI                .ft       8140                          : 
BS                 .in       8.5                           : 
COMPANY            .         UNKNOWN                       : 
CREATION-TIME      .         1982/8/24 0_0                 : 
CSIZ               .in       9.625                         : 
DFD                .lbm/gal  9.800001                      : 
DFT                .         CMC POLYMER                   : 
DFV                .s        -999.25                       : 
EDF                .         82.00000                      : 
ELZ                .ohm.m    -999.25                       : 
ENGI               .         phcon2                        : 
FIELD-NAME         .         EGBEMA                        : 
FILE-ID            .         SOH18 .4                      : 
FILE-NUMBER        .         0                             : 
FILE-SET-NAME      .                                       : 
FILE-SET-NUMBER    .         0                             : 
FILE-TYPE          .         PTF                           : 
HIDE               .         4540_300_185_8_1_DATE_82/08/24_SOH_18_SEQ_4: 
LCC                .         0                             : 
LMF                .         1                             : 
MCST               .degF     75                            : 
MFST               .degF     75                            : 
MST                .degF     95                            : 
NAME-SPACE-NAME    .         LIS                           : 
NAME-SPACE-VERSION .         0                             : 
PRODUC             .         SHELL(PARASOL)                : 
PRODUCER-CODE      .         0                             : 
PRODUCER-NAME      .         Schlumberger                  : 
PRODUCT            .                                       : 
PROGRAMS           .         INC                           : 
R1                 .         BEAM WIDTH _ 24"              : 
R2                 .         UNABLE TO REACH DRILLERS TD   : 
R3                 .         EXTENSIVE WASHOUT AFFECTS MSFL READINGS: 
R4                 .         DEPTH MATCHED TO RUN 2  LLD AS GR WAS 2FT SHALLOW.: 
R5                 .         LOGGERS TD IS 15FT DEEPER THAN TENSION PICKUP.: 
RMCS               .ohm.m    1.89                          : 
RMFS               .ohm.m    0.6                           : 
RMS                .ohm.m    0.5320001                     : 
TCS                .h        -999.25                       : 
TDD                .ft       8188                          : 
TDL                .ft       8155                          : 
TLI                .ft       7200                          : 
VERSION            .         2P01                          : 
WELL-ID            .         10800/01                      : 
WELL-NAME          .         EGBM-008                      : 
WITN               .         phcon2                        : 
WN                 .         EGBM-008                      : 
~Parameter Information Block
#_______________________________________________________________________________
#
#PARAMETER_NAME    .UNIT     VALUE                         : DESCRIPTION
#_______________________________________________________________________________
SET                .         SOH18 _4_1                    : 
ACQUISITION-PRODUCT .         DLIS/U                        : 
COMPANY            .         UNKNOWN                       : 
CREATION-TIME      .         2026/5/13 12_11               : 
DLIS_FRAME_DIRECTION .         INCREASING                    : 
DLIS_FRAME_NAME    .         1                             : 
DLIS_FRAME_SPACING .ft       0.5                           : 
FIELD-NAME         .         EGBEMA                        : 
FILE-ID            .         SOH18 .4                      : 
FILE-NUMBER        .         4                             : 
FILE-SET-NAME      .         LIS-TO-DLIS-CONVERSION        : 
FILE-SET-NUMBER    .         9191                          : 
FILE-TYPE          .         PTF                           : 
INDEX-TYPE         .         BOREHOLE-DEPTH                : 
NAME-SPACE-NAME    .                                       : 
NAME-SPACE-VERSION .         0                             : 
OriginalDatasetName .         1                             : 
PRODUCER-CODE      .         440                           : 
PRODUCER-NAME      .         Schlumberger                  : 
PRODUCT            .         DLIS/U                        : 
PROGRAMS           .         LIS-TO-DLIS                   : 
TLFamily_CAMS      .         Caliper                       : 
TLFamily_DEPT      .         Measured Depth                : 
TLFamily_GRL       .         Gamma Ray                     : 
TLFamily_LL9D      .         Resistivity - Deep            : 
TLFamily_LL9S      .         Resistivity - Medium          : 
TLFamily_MSFL      .         Resistivity - Spherically Focused: 
TLFamily_SPL       .         Spontaneous Potential         : 
TLFamily_TENS      .         Tension                       : 
VERSION            .         0.1                           : 
WELL-ID            .         10800/01                      : 
WELL-NAME          .         EGBM-008                      : 
~Curve Information
#_______________________________________________________________________________
#
#LOGNAME           .UNIT     LOG_ID                        : DESCRIPTION
#_______________________________________________________________________________
DEPT               .ft                                     :  {F}
CAMS               .in                                     :  {F}
GRL                .gAPI                                   :  {F}
LL9D               .ohm.m                                  :  {F}
LL9S               .ohm.m                                  :  {F}
MSFL               .ohm.m                                  :  {F}
SPL                .mV                                     :  {F}
TENS               .                                       :  {F}
~Ascii
# ...
7913.5     11.79688   104.375    2.305775   2.286493   1.148763   -30.39063  3084      
7914       11.35156   109.3125   2.359932   2.343752   1.177083   -30.32813  3060      
7914.5     12.08594   108.875    2.356614   2.341558   1.520508   -30.26563  3000      
7915       11.55469   105.5625   2.376307   2.363493   1.291666   -30.64063  3070      
7915.5     11.21875   103.375    2.310363   2.312846   1.694661   -30.14063  3154      
7916       11.71094   104.875    2.261872   2.28178    1.916992   -30.45313  3110      
7916.5     10.95313   105.375    2.251451   2.268693   1.487955   -30.82813  3034      
7917       10.42969   99.375     2.173165   2.190555   1.735677   -30.76563  3060      
7917.5     10.32813   93.5       2.099736   2.144564   1.896158   -30.89063  3084      
7918       10.53125   91.25      2.01581    2.059225   2.110025   -30.70313  3054      
7918.5     10.82813   92.9375    1.956476   2.017467   1.90983    -30.82813  3030      
7919       10.20313   98.5625    1.844551   1.914225   1.773111   -30.57813  3014      
7919.5     10.47656   100.375    1.760811   1.848258   1.47233    -30.57813  3024      
7920       10.46875   102.3125   1.710166   1.803266   1.445313   -30.96875  3064      
7920.5     10.69531   98.875     1.748549   1.851042   1.789713   -30.53125  3110      
7921       11.19531   98.5       1.806025   1.921288   1.630208   -30.71875  3100      
7921.5     11.65625   96.375     1.824938   1.923844   2.01595    -30.59375  3070      
7922       11.40625   100.25     1.855611   1.952751   1.791666   -30.65625  3044      
7922.5     10.96094   93.125     1.877892   2.008731   1.463867   -30.65625  3014      
7923       10.73438   91.875     1.899891   2.04948    1.506836   -30.92188  3054      
7923.5     10.72656   93.75      2.384514   2.569029   1.1722     -30.98438  3134      
7924       11.04688   97.25      2.73391    2.904072   1.152669   -30.98438  3090      
7924.5     10.64844   100.4375   3.598927   3.765573   2.693033   -31.60938  3074      
7925       8.828125   97.8125    5.072384   5.338653   3.388021   -32.4375   3084      
7925.5     9.21875    104.9375   7.038496   7.324351   2.277018   -33.5625   3064      
7926       8.742188   100        8.198784   8.363783   6.054688   -34.46875  3114      
7926.5     8.578125   95.6875    8.175283   8.308435   7.667969   -36.625    3174      
7927       8.578125   89.1875    8.119732   8.260059   7.226563   -36.96875  3080      
7927.5     8.617188   94.6875    7.701468   7.849633   2.301432   -37.21875  3070      
7928       8.90625    97.8125    7.120294   7.196032   6.174479   -36.71875  3040      
7928.5     8.570313   94.75      7.258615   7.166925   8.002604   -36.90625  3054      
7929       8.570313   90.125     7.642383   7.483433   8.089844   -37.96875  3080      
7929.5     8.5625     81.25      7.773168   7.546574   7.307291   -38.96875  3060      
7930       8.5        81.5       7.92415    7.69781    6.847656   -39.78125  3054      
7930.5     8.507813   80.0625    7.836107   7.573938   7.627604   -40.40625  3060      
7931       8.507813   84.5625    7.639857   7.398167   7.950521   -39.78125  3070      
7931.5     8.523438   80.6875    7.458525   7.206521   7.091146   -40.46875  3120      
7932       8.539063   81.875     7.308623   7.082637   6.423177   -40.78125  3084      
7932.5     8.539063   84.25      7.244262   7.03054    6.768229   -41.03125  3050      
7933       8.539063   90.6875    7.249567   7.021767   7.472656   -41.21875  3040      
7933.5     8.585938   94.9375    7.085931   6.940162   6.845052   -41.46875  3094      
7934       8.617188   91.3125    7.028086   6.925239   6.88151    -41.40625  3124      
7934.5     8.617188   85.125     7.000527   6.901548   7.182291   -41.78125  3094      
7935       8.617188   78.875     6.962631   6.851029   7.243489   -42.59375  3014      
7935.5     8.71875    90         6.872523   6.765249   7.666666   -41.09375  3040      
7936       8.742188   102.9375   6.563366   6.470022   7.938802   -38.90625  3094      
7936.5     8.867188   120.375    6.192383   6.09733    7.986979   -39.03125  3064      
7937       8.898438   123.75     5.61681    5.55826    5.96875    -38.15625  3020      
7937.5     9.007813   127        5.150231   5.141661   3.073567   -37.15625  3040      
7938       8.820313   125        5.15084    5.111688   2.712239   -35.09375  3050      
7938.5     8.78125    124.625    5.437969   5.349677   4.139322   -36.40625  3070      
7939       8.773438   124.5625   6.024589   5.912395   6.880208   -36.71875  3090      
7939.5     8.765625   119.25     6.256754   6.12109    7.057291   -37.65625  3074      
7940       8.703125   117.875    6.087939   5.944362   6.572916   -39.09375  3040      
7940.5     8.632813   118.25     5.932141   5.75263    6.727864   -39.8125   3040      
7941       8.828125   122.5      5.758004   5.601411   6.736979   -38.125    3044      
7941.5     8.929688   125.6875   5.695679   5.506229   5.566406   -37.25     3050      
7942       9.023438   122.6875   5.549771   5.339076   6.253906   -36.3125   3080      
7942.5     9.109375   116.6875   5.426591   5.203209   5.699219   -35.5      3030      
7943       9.109375   107.1875   5.456134   5.218014   2.948242   -35.28125  3040      
7943.5     9.203125   102.25     5.325446   5.069135   1.477213   -35.03125  3084      
7944       9.210938   99.5625    5.342509   5.106774   2.635091   -34.53125  3040      
7944.5     9.21875    103.4375   5.626305   5.34152    4.114583   -34.3125   3034      
7945       9.140625   107.375    5.810164   5.528093   2.819661   -34.25     2994      
7945.5     9.140625   113.1875   5.886035   5.590693   6.554688   -35.09375  3020      
7946       9.054688   114.6875   5.922765   5.624606   6.878906   -34.5625   3060      
7946.5     9.140625   117.8125   5.800986   5.502315   5.9375     -35.03125  3024      
7947       9.070313   119.125    5.623651   5.353374   5.889322   -35.25     3000      
7947.5     9.070313   121.75     5.729305   5.455564   6.377604   -35.3125   3000      
7948       9.0625     119        5.802006   5.512463   6.682291   -35.375    2980      
7948.5     9.179688   124.8125   5.971181   5.635236   6.651041   -35.5625   2990      
7949       9.15625    120.5625   5.971939   5.626498   5.752604   -35.8125   2984      
7949.5     9.625      117.0625   5.829515   5.49954    5.291666   -35.8125   3000      
7950       9.101563   111.0625   5.663486   5.348889   5.294271   -35.59375  2994      
7950.5     9.148438   109.125    5.559473   5.234457   4.994791   -35.6875   2970      
7951       9.21875    115.1875   5.494673   5.180911   5.270833   -34.875    2980      
7951.5     9.265625   111.625    5.422728   5.155498   5.161458   -34.84375  3000      
7952       9.390625   115        5.369165   5.113875   6.247396   -34.5      3020      
7952.5     9.28125    116.5625   5.264756   5.02633    6.151041   -34.1875   2980      
7953       9.21875    120.1875   5.133189   4.975251   5.78776    -34        2950      
7953.5     9.164063   125.9375   5.26604    5.226458   5.104166   -33.96875  3020      
7954       8.992188   128.75     5.648521   5.660768   3.832682   -33.625    3074      
7954.5     8.96875    137.875    6.055512   6.061417   6.783854   -33.375    3090      
7955       8.96875    138.375    6.056911   6.054193   7.247396   -33.125    3070      
7955.5     8.96875    137.375    5.614375   5.626742   7.248697   -33.1875   3060      
7956       9.015625   131.625    5.094584   5.107875   7.925781   -33.09375  3070      
7956.5     9.296875   125.125    4.529031   4.540911   6.541666   -32.65625  3074      
7957       9.109375   121.0625   4.246779   4.250499   5.608072   -33.125    3074      
7957.5     9.335938   116        4.182854   4.186806   5.430989   -33.125    3020      
7958       9.109375   113.0625   4.312359   4.332272   3.548828   -33.0625   2980      
7958.5     9.171875   105.9375   4.975714   4.983781   3.567708   -33.375    2974      
