~Version
 VERS              .         3.0                           : CWLS LOG ASCII STANDARD - VERSION 3.0
 WRAP              .         NO                            : ONE LINE PER DEPTH STEP
 DLM               .         SPACE                         : DELIMITING CHARACTER(SPACE TAB OR COMMA)
~Well Information
#_______________________________________________________________________________
#
#PARAMETER_NAME    .UNIT     VALUE                         : DESCRIPTION
#_______________________________________________________________________________
STRT               .ft       7185.5                        : First reference value
STOP               .ft       8158.5                        : Last reference value
STEP               .ft       0.5                           : Step increment
NULL               .         -9999                         : Missing value
COMP               .         UNKNOWN                       : Company
WELL               .         EGBM-008                      : Well name
FLD                .         EGBEMA                        : Field
LOC                .                                       : Location
SRVC               .                                       : Service Company
CTRY               .                                       : Country
DATE               .         1982/08/24                    : Service Date
LATI               .         5.5418848363                  : Latitude
LONG               .         6.7703148139                  : Longitude
GDAT               .                                       : Geodetic Datum
APIN               .         10800/01                      : 
BHT                .degF     170                           : 
BLI                .ft       8140                          : 
BS                 .in       8.5                           : 
COMPANY            .         UNKNOWN                       : 
CREATION-TIME      .         1982/8/24 0_0                 : 
CSIZ               .in       9.625                         : 
DFD                .lbm/gal  9.800001                      : 
DFT                .         CMC POLYMER                   : 
DFV                .s        -999.25                       : 
EDF                .         82.00000                      : 
ELZ                .ohm.m    -999.25                       : 
ENGI               .         phcon2                        : 
FIELD-NAME         .         EGBEMA                        : 
FILE-ID            .         SOH18 .4                      : 
FILE-NUMBER        .         0                             : 
FILE-SET-NAME      .                                       : 
FILE-SET-NUMBER    .         0                             : 
FILE-TYPE          .         PTF                           : 
HIDE               .         4540_300_185_8_1_DATE_82/08/24_SOH_18_SEQ_4: 
LCC                .         0                             : 
LMF                .         1                             : 
MCST               .degF     75                            : 
MFST               .degF     75                            : 
MST                .degF     95                            : 
NAME-SPACE-NAME    .         LIS                           : 
NAME-SPACE-VERSION .         0                             : 
PRODUC             .         SHELL(PARASOL)                : 
PRODUCER-CODE      .         0                             : 
PRODUCER-NAME      .         Schlumberger                  : 
PRODUCT            .                                       : 
PROGRAMS           .         INC                           : 
R1                 .         BEAM WIDTH _ 24"              : 
R2                 .         UNABLE TO REACH DRILLERS TD   : 
R3                 .         EXTENSIVE WASHOUT AFFECTS MSFL READINGS: 
R4                 .         DEPTH MATCHED TO RUN 2  LLD AS GR WAS 2FT SHALLOW.: 
R5                 .         LOGGERS TD IS 15FT DEEPER THAN TENSION PICKUP.: 
RMCS               .ohm.m    1.89                          : 
RMFS               .ohm.m    0.6                           : 
RMS                .ohm.m    0.5320001                     : 
TCS                .h        -999.25                       : 
TDD                .ft       8188                          : 
TDL                .ft       8155                          : 
TLI                .ft       7200                          : 
VERSION            .         2P01                          : 
WELL-ID            .         10800/01                      : 
WELL-NAME          .         EGBM-008                      : 
WITN               .         phcon2                        : 
WN                 .         EGBM-008                      : 
~Parameter Information Block
#_______________________________________________________________________________
#
#PARAMETER_NAME    .UNIT     VALUE                         : DESCRIPTION
#_______________________________________________________________________________
SET                .         SOH18 _4_1                    : 
ACQUISITION-PRODUCT .         DLIS/U                        : 
COMPANY            .         UNKNOWN                       : 
CREATION-TIME      .         2026/5/13 12_11               : 
DLIS_FRAME_DIRECTION .         INCREASING                    : 
DLIS_FRAME_NAME    .         1                             : 
DLIS_FRAME_SPACING .ft       0.5                           : 
FIELD-NAME         .         EGBEMA                        : 
FILE-ID            .         SOH18 .4                      : 
FILE-NUMBER        .         4                             : 
FILE-SET-NAME      .         LIS-TO-DLIS-CONVERSION        : 
FILE-SET-NUMBER    .         9191                          : 
FILE-TYPE          .         PTF                           : 
INDEX-TYPE         .         BOREHOLE-DEPTH                : 
NAME-SPACE-NAME    .                                       : 
NAME-SPACE-VERSION .         0                             : 
OriginalDatasetName .         1                             : 
PRODUCER-CODE      .         440                           : 
PRODUCER-NAME      .         Schlumberger                  : 
PRODUCT            .         DLIS/U                        : 
PROGRAMS           .         LIS-TO-DLIS                   : 
TLFamily_CAMS      .         Caliper                       : 
TLFamily_DEPT      .         Measured Depth                : 
TLFamily_GRL       .         Gamma Ray                     : 
TLFamily_LL9D      .         Resistivity - Deep            : 
TLFamily_LL9S      .         Resistivity - Medium          : 
TLFamily_MSFL      .         Resistivity - Spherically Focused: 
TLFamily_SPL       .         Spontaneous Potential         : 
TLFamily_TENS      .         Tension                       : 
VERSION            .         0.1                           : 
WELL-ID            .         10800/01                      : 
WELL-NAME          .         EGBM-008                      : 
~Curve Information
#_______________________________________________________________________________
#
#LOGNAME           .UNIT     LOG_ID                        : DESCRIPTION
#_______________________________________________________________________________
DEPT               .ft                                     :  {F}
CAMS               .in                                     :  {F}
GRL                .gAPI                                   :  {F}
LL9D               .ohm.m                                  :  {F}
LL9S               .ohm.m                                  :  {F}
MSFL               .ohm.m                                  :  {F}
SPL                .mV                                     :  {F}
TENS               .                                       :  {F}
~Ascii
# ...
7868       12.61719   106.625    2.668921   2.631418   1.402994   -30.51563  3054      
7868.5     12.27344   103.1875   2.948746   2.865386   1.088867   -31.14063  3070      
7869       12.78125   109.375    3.181592   3.093561   2.084961   -29.96875  3064      
7869.5     11.375     108.75     3.146928   3.05821    1.698567   -30.71875  3084      
7870       12.40625   111        2.996671   2.919086   1.655924   -30.46875  3040      
7870.5     12.88281   102.8125   2.904567   2.860003   3.045572   -30.53125  2980      
7871       13.0625    102.875    2.988563   2.903784   1.541666   -30.53125  3050      
7871.5     11.57031   105.25     3.242688   3.137656   1.228027   -30.78125  3164      
7872       11.91406   106.6875   3.280135   3.164098   1.744791   -30.92188  3130      
7872.5     11.0625    105.0625   3.254642   3.154764   2.477213   -30.92188  3030      
7873       11.60156   107.1875   3.052685   2.954692   2.608724   -30.79688  3000      
7873.5     11.98438   106.3125   2.624978   2.541044   1.735025   -30.54688  3014      
7874       12.16406   103.375    2.385274   2.308352   1.355469   -30.5      3030      
7874.5     12.04688   95.125     2.286634   2.202543   1.681314   -30.1875   3020      
7875       12.14063   94.625     2.256652   2.168135   1.573893   -30.92188  3064      
7875.5     12.60156   97.125     2.324228   2.213582   1.619466   -30.73438  3034      
7876       11.875     100.8125   2.50397    2.386489   2.135416   -30.79688  2990      
7876.5     12.03906   101.0625   2.6918     2.586237   2.334635   -30.98438  3074      
7877       12.53125   100.875    2.732549   2.694219   2.843099   -30.8125   3160      
7877.5     11.97656   97         2.753714   2.716829   2.151367   -31.15625  3160      
7878       11.82031   95.25      2.79578    2.756384   1.681641   -30.96875  3060      
7878.5     11.85156   98.25      2.865874   2.823982   2.257813   -31.03125  3070      
7879       10.92969   105.9375   2.954416   2.902514   2.430989   -31.98438  3080      
7879.5     10.75781   106.625    2.752211   2.736975   3.048177   -30.48438  3060      
7880       10.5       103.9375   2.521397   2.521309   1.922852   -30.79688  3044      
7880.5     10.92969   94.8125    2.340486   2.352942   1.516275   -31.0625   3050      
7881       10.78906   91.75      2.206357   2.205812   0.8880209  -30.9375   3050      
7881.5     11.35156   87.5625    2.161626   2.124888   1.704752   -30.76563  3090      
7882       11.29688   88.3125    2.205699   2.18676    1.763997   -30.67188  3110      
7882.5     11.36719   91.125     2.180403   2.15967    1.733072   -30.67188  3030      
7883       12.23438   91.3125    2.094853   2.091582   2.097005   -30.4375   3034      
7883.5     12.38281   90.6875    2.036337   2.030642   1.532552   -30.625    2994      
7884       12.73438   87.625     1.946487   1.966048   2.035156   -30.6875   2990      
7884.5     11.95313   89         2.141754   2.173317   1.38151    -29.95313  3160      
7885       12.28125   93.5625    2.409502   2.453042   1.104492   -30.67188  3220      
7885.5     13.00781   98.875     2.475937   2.53417    1.69401    -30.625    3134      
7886       11.3125    105.9375   2.691826   2.72241    3.270833   -30.625    3070      
7886.5     11.25      108        3.015201   3.019457   4.148438   -30.71875  3034      
7887       10.72656   112.0625   3.104097   3.137907   5.315104   -30.71875  2970      
7887.5     10.71094   109.75     2.671889   2.711641   3.961588   -30.79688  3004      
7888       11.04688   111.75     2.064391   2.130627   2.025064   -30.23438  3144      
7888.5     11.625     105.4375   2.028639   2.078744   1.534505   -30.35938  3194      
7889       11.47656   100.0625   2.03901    2.088677   1.37793    -30.5      3124      
7889.5     11.38281   91         2.028335   2.07573    1.405273   -30.4375   3014      
7890       12.25781   91.25      2.030592   2.077914   1.328775   -30.20313  3004      
7890.5     12.42969   92.9375    2.075783   2.105187   1.317057   -30.17188  3020      
7891       13.10156   98.4375    2.014694   2.043906   1.611328   -30.29688  3060      
7891.5     12.34375   98.3125    1.94608    1.993782   1.645182   -30.35938  3130      
7892       11.84375   96.125     1.933045   2.001003   1.457356   -30.3125   3120      
7892.5     12.08594   100.8125   1.940002   2.006184   1.371419   -30.4375   3044      
7893       12.5       103.4375   1.904793   2.0128     1.299805   -30.45313  3040      
7893.5     11.95313   110        1.998372   2.061249   1.377604   -30.45313  3040      
7894       12.33594   105.5625   2.120442   2.21314    1.6097     -30.34375  3040      
7894.5     11.75781   106.75     2.275923   2.358444   2.03483    -30.85938  3020      
7895       11.55469   106.3125   2.387255   2.434492   2.151692   -29.76563  3044      
7895.5     11.19531   104.6875   2.374765   2.395782   2.671875   -30.125    3074      
7896       11.5       100.0625   2.214943   2.237948   1.846028   -30.40625  3054      
7896.5     11.92969   100.5      2.090717   2.129848   1.439453   -30.53125  3060      
7897       12.25      101.4375   1.995783   2.020809   1.560547   -30.65625  3014      
7897.5     12.07813   103.625    1.906081   1.933696   1.514974   -30.48438  3034      
7898       12.4375    102        1.886713   1.898845   0.9982096  -30.60938  3040      
7898.5     13.03906   94.25      1.848191   1.865282   0.9886068  -30.51563  3050      
7899       12.21875   95         1.818094   1.829388   1.03483    -30.51563  3064      
7899.5     12.21875   88.75      1.788139   1.798794   0.9716797  -31.01563  3040      
7900       13.05469   96.5       1.77492    1.822984   1.17806    -30.26563  3070      
7900.5     12.40625   91.125     1.749105   1.782411   1.132161   -30.57813  3120      
7901       11.99219   90.125     1.766932   1.786542   1.274414   -30.45313  3074      
7901.5     11.79688   88         1.774358   1.813408   1.048502   -30.70313  2980      
7902       11.95313   89.5       1.829337   1.876379   1.390299   -30.71875  3080      
7902.5     12.07031   93         1.8895     1.92387    1.453125   -30.90625  3200      
7903       12.92969   93.3125    1.894335   1.938511   1.292317   -30.78125  3144      
7903.5     12.75      94.125     1.911237   1.944071   1.413736   -30.59375  3050      
7904       13.33594   89.375     1.920508   1.934654   1.462239   -30.53125  3040      
7904.5     11.98438   90.9375    1.891269   1.912528   1.492513   -30.53125  3054      
7905       11.96875   91.1875    1.820761   1.830791   1.140625   -30.85938  3104      
7905.5     12.07813   93.5625    1.752516   1.762116   1.384439   -29.92188  3114      
7906       12.75781   87         1.737178   1.737535   1.504883   -30.85938  3044      
7906.5     11.42188   84         1.717997   1.714371   1.161458   -30.85938  3020      
7907       11.97656   84.8125    1.728317   1.71749    1.138997   -31.125    3044      
7907.5     12.32031   91.0625    1.749259   1.721071   1.467447   -30.96875  3124      
7908       12.16406   95.3125    1.777194   1.741799   1.612305   -31.03125  3094      
7908.5     12.32031   96.75      1.773281   1.736768   1.512044   -31.09375  3030      
7909       12.75781   95.25      1.726836   1.700854   1.32845    -30.79688  3040      
7909.5     12.17188   92.1875    1.742188   1.720038   1.051106   -30.82813  3054      
7910       12.71094   94.6875    1.823035   1.812366   1.211914   -31.26563  3074      
7910.5     12.32031   96.1875    1.992236   1.962791   1.589518   -30.26563  3064      
7911       11.77344   100.875    2.15256    2.112828   2.12858    -30.89063  3064      
7911.5     12.23438   101.375    2.307609   2.280828   1.572266   -30.64063  3024      
7912       11.64063   103.1875   2.391041   2.371367   1.066568   -30.70313  3014      
7912.5     11.26563   102.375    2.302161   2.287642   1.048828   -30.64063  3060      
7913       10.83594   101        2.298904   2.290956   1.018717   -30.57813  3094      
