~Version
 VERS              .         3.0                           : CWLS LOG ASCII STANDARD - VERSION 3.0
 WRAP              .         NO                            : ONE LINE PER DEPTH STEP
 DLM               .         SPACE                         : DELIMITING CHARACTER(SPACE TAB OR COMMA)
~Well Information
#_______________________________________________________________________________
#
#PARAMETER_NAME    .UNIT     VALUE                         : DESCRIPTION
#_______________________________________________________________________________
STRT               .ft       7185.5                        : First reference value
STOP               .ft       8158.5                        : Last reference value
STEP               .ft       0.5                           : Step increment
NULL               .         -9999                         : Missing value
COMP               .         UNKNOWN                       : Company
WELL               .         EGBM-008                      : Well name
FLD                .         EGBEMA                        : Field
LOC                .                                       : Location
SRVC               .                                       : Service Company
CTRY               .                                       : Country
DATE               .         1982/08/24                    : Service Date
LATI               .         5.5418848363                  : Latitude
LONG               .         6.7703148139                  : Longitude
GDAT               .                                       : Geodetic Datum
APIN               .         10800/01                      : 
BHT                .degF     170                           : 
BLI                .ft       8140                          : 
BS                 .in       8.5                           : 
COMPANY            .         UNKNOWN                       : 
CREATION-TIME      .         1982/8/24 0_0                 : 
CSIZ               .in       9.625                         : 
DFD                .lbm/gal  9.800001                      : 
DFT                .         CMC POLYMER                   : 
DFV                .s        -999.25                       : 
EDF                .         82.00000                      : 
ELZ                .ohm.m    -999.25                       : 
ENGI               .         phcon2                        : 
FIELD-NAME         .         EGBEMA                        : 
FILE-ID            .         SOH18 .4                      : 
FILE-NUMBER        .         0                             : 
FILE-SET-NAME      .                                       : 
FILE-SET-NUMBER    .         0                             : 
FILE-TYPE          .         PTF                           : 
HIDE               .         4540_300_185_8_1_DATE_82/08/24_SOH_18_SEQ_4: 
LCC                .         0                             : 
LMF                .         1                             : 
MCST               .degF     75                            : 
MFST               .degF     75                            : 
MST                .degF     95                            : 
NAME-SPACE-NAME    .         LIS                           : 
NAME-SPACE-VERSION .         0                             : 
PRODUC             .         SHELL(PARASOL)                : 
PRODUCER-CODE      .         0                             : 
PRODUCER-NAME      .         Schlumberger                  : 
PRODUCT            .                                       : 
PROGRAMS           .         INC                           : 
R1                 .         BEAM WIDTH _ 24"              : 
R2                 .         UNABLE TO REACH DRILLERS TD   : 
R3                 .         EXTENSIVE WASHOUT AFFECTS MSFL READINGS: 
R4                 .         DEPTH MATCHED TO RUN 2  LLD AS GR WAS 2FT SHALLOW.: 
R5                 .         LOGGERS TD IS 15FT DEEPER THAN TENSION PICKUP.: 
RMCS               .ohm.m    1.89                          : 
RMFS               .ohm.m    0.6                           : 
RMS                .ohm.m    0.5320001                     : 
TCS                .h        -999.25                       : 
TDD                .ft       8188                          : 
TDL                .ft       8155                          : 
TLI                .ft       7200                          : 
VERSION            .         2P01                          : 
WELL-ID            .         10800/01                      : 
WELL-NAME          .         EGBM-008                      : 
WITN               .         phcon2                        : 
WN                 .         EGBM-008                      : 
~Parameter Information Block
#_______________________________________________________________________________
#
#PARAMETER_NAME    .UNIT     VALUE                         : DESCRIPTION
#_______________________________________________________________________________
SET                .         SOH18 _4_1                    : 
ACQUISITION-PRODUCT .         DLIS/U                        : 
COMPANY            .         UNKNOWN                       : 
CREATION-TIME      .         2026/5/13 12_11               : 
DLIS_FRAME_DIRECTION .         INCREASING                    : 
DLIS_FRAME_NAME    .         1                             : 
DLIS_FRAME_SPACING .ft       0.5                           : 
FIELD-NAME         .         EGBEMA                        : 
FILE-ID            .         SOH18 .4                      : 
FILE-NUMBER        .         4                             : 
FILE-SET-NAME      .         LIS-TO-DLIS-CONVERSION        : 
FILE-SET-NUMBER    .         9191                          : 
FILE-TYPE          .         PTF                           : 
INDEX-TYPE         .         BOREHOLE-DEPTH                : 
NAME-SPACE-NAME    .                                       : 
NAME-SPACE-VERSION .         0                             : 
OriginalDatasetName .         1                             : 
PRODUCER-CODE      .         440                           : 
PRODUCER-NAME      .         Schlumberger                  : 
PRODUCT            .         DLIS/U                        : 
PROGRAMS           .         LIS-TO-DLIS                   : 
TLFamily_CAMS      .         Caliper                       : 
TLFamily_DEPT      .         Measured Depth                : 
TLFamily_GRL       .         Gamma Ray                     : 
TLFamily_LL9D      .         Resistivity - Deep            : 
TLFamily_LL9S      .         Resistivity - Medium          : 
TLFamily_MSFL      .         Resistivity - Spherically Focused: 
TLFamily_SPL       .         Spontaneous Potential         : 
TLFamily_TENS      .         Tension                       : 
VERSION            .         0.1                           : 
WELL-ID            .         10800/01                      : 
WELL-NAME          .         EGBM-008                      : 
~Curve Information
#_______________________________________________________________________________
#
#LOGNAME           .UNIT     LOG_ID                        : DESCRIPTION
#_______________________________________________________________________________
DEPT               .ft                                     :  {F}
CAMS               .in                                     :  {F}
GRL                .gAPI                                   :  {F}
LL9D               .ohm.m                                  :  {F}
LL9S               .ohm.m                                  :  {F}
MSFL               .ohm.m                                  :  {F}
SPL                .mV                                     :  {F}
TENS               .                                       :  {F}
~Ascii
# ...
8095.5     8.867188   123.125    3.464496   3.325102   2.963541   -32.90625  3140      
8096       8.820313   119.375    3.587251   3.427983   3.996094   -32.84375  3154      
8096.5     8.820313   112.25     3.670627   3.494349   5.657552   -32.78125  3114      
8097       8.820313   107.9375   3.525835   3.356139   6.046875   -33        3100      
8097.5     8.789063   105.375    3.159812   3.05719    5.85026    -32.75     3120      
8098       8.984375   109.25     2.989486   2.88205    3.243489   -32.6875   3170      
8098.5     8.875      111.375    2.993361   2.910302   3.051432   -33.125    3120      
8099       8.960938   117.6875   3.135771   3.014573   3.146484   -33.25     3120      
8099.5     8.90625    120        3.336154   3.223717   2.958333   -33.1875   3120      
8100       8.984375   119.875    3.53533    3.428261   3.585286   -33.03125  3124      
8100.5     9.140625   118.375    3.548803   3.441052   5.238281   -33.03125  3124      
8101       8.867188   119.125    3.400875   3.307286   6.109375   -33.15625  3140      
8101.5     8.851563   119.5625   3.256935   3.183696   3.933594   -33.78125  3110      
8102       8.859375   113.9375   3.140327   3.076583   4.625      -32.46875  3094      
8102.5     8.90625    112.875    2.993496   2.95201    3.823567   -32.96875  3104      
8103       9.078125   113        2.974921   2.910387   3.421875   -32.9375   3120      
8103.5     8.796875   113.4375   2.926861   2.866831   2.717447   -33.21875  3114      
8104       8.820313   110.4375   2.89113    2.833494   3.06901    -33.15625  3110      
8104.5     8.859375   110.75     2.832586   2.781008   3.179688   -33.375    3150      
8105       8.9375     111.0625   2.794932   2.725051   3.001953   -33.59375  3124      
8105.5     8.90625    110.3125   2.73224    2.672156   3.147786   -33.5      3094      
8106       9.023438   104.75     2.610608   2.556764   3.699219   -33.75     3100      
8106.5     8.867188   108.8125   2.491773   2.461999   4.315755   -34.34375  3124      
8107       8.9375     110.25     2.37109    2.347498   3.249349   -34.15625  3150      
8107.5     9.078125   113        2.344327   2.309748   2.772135   -33.875    3120      
8108       8.851563   111.5625   2.352328   2.29709    2.519531   -33.625    3104      
8108.5     9.023438   109.375    2.34731    2.305934   2.223958   -34.5      3120      
8109       9.023438   108.3125   2.320649   2.279323   2.694661   -34.0625   3124      
8109.5     8.960938   112.25     2.308455   2.261224   2.7819     -34.0625   3104      
8110       8.914063   116.375    2.21946    2.181455   2.901692   -34.09375  3104      
8110.5     8.9375     116.9375   2.159643   2.108645   2.401692   -34.09375  3140      
8111       8.9375     110.8125   2.158198   2.117997   2.763672   -34.0625   3144      
8111.5     8.929688   111        2.146428   2.10358    2.4375     -34.0625   3124      
8112       8.960938   112.3125   2.218193   2.165814   2.488281   -34.0625   3100      
8112.5     9.085938   113.5      2.302905   2.241347   2.949219   -34.0625   3124      
8113       9.0625     107.3125   2.33992    2.269962   3.16276    -34.0625   3150      
8113.5     9.101563   103.625    2.35541    2.284395   2.662109   -34.0625   3114      
8114       9.140625   104.9375   2.305475   2.231115   2.326172   -34.0625   3144      
8114.5     8.890625   107.4375   2.2603     2.183625   3.039063   -34.0625   3154      
8115       9.023438   110.1875   2.244573   2.171371   3.120442   -34.09375  3104      
8115.5     8.96875    109.25     2.282019   2.217344   2.634114   -34.09375  3114      
8116       9.046875   108.0625   2.377688   2.280476   2.694661   -34.0625   3154      
8116.5     8.96875    106.4375   2.467452   2.347412   2.913411   -34.0625   3150      
8117       9.0625     103.125    2.54154    2.414362   2.133463   -34.09375  3130      
8117.5     9.046875   106.3125   2.543999   2.425426   1.618164   -34.09375  3130      
8118       9.03125    112        2.516289   2.401677   1.488281   -34.09375  3134      
8118.5     9.046875   114        2.600666   2.471855   2.096354   -34.09375  3150      
8119       9.015625   113.75     2.612082   2.460567   2.716146   -34.09375  3150      
8119.5     8.890625   109        2.621624   2.467702   2.731119   -34.0625   3164      
8120       9.117188   111.6875   2.579312   2.437617   2.333333   -34.0625   3154      
8120.5     9.070313   113.875    2.519639   2.37454    2.231771   -34.0625   3160      
8121       9.007813   113.6875   2.509906   2.334255   2.323567   -34.09375  3120      
8121.5     9.617188   58.21875   2.534455   2.360835   1.756836   -34.09375  3120      
8122       9.773438   2.074219   2.562275   2.380116   1.583658   -34.0625   3140      
8122.5     9.84375    -51.9375   2.542728   2.366551   1.736002   -34.03125  3150      
8123       9.859375   -51.9375   2.508591   2.342492   2.104492   -34.03125  3180      
8123.5     9.851563   -51.9375   2.495169   2.318606   2.637369   -34.03125  3164      
8124       9.828125   -51.9375   2.506646   2.351255   2.432942   -34.03125  3164      
8124.5     9.726563   -51.9375   2.557489   2.359231   2.30013    -34.0625   3124      
8125       9.625      -51.9375   2.560297   2.3566     2.484375   -34.0625   3114      
8125.5     9.515625   -51.9375   2.558228   2.336275   2.227864   -34.0625   3134      
8126       9.460938   -51.9375   2.440398   2.24964    2.036458   -34.0625   3174      
8126.5     9.414063   -51.9375   2.42257    2.215637   2.453775   -34.0625   3174      
8127       9.242188   -51.9375   2.424028   2.201427   2.758463   -34.03125  3150      
8127.5     9.242188   -51.9375   2.443079   2.187532   2.328125   -34.0625   3144      
8128       9.242188   -51.9375   2.429325   2.199156   2.520833   -34.0625   3180      
8128.5     9.21875    -51.9375   2.439828   2.21279    2.588541   -34.0625   3170      
8129       9.234375   -51.9375   2.447718   2.205653   2.59375    -34.0625   3150      
8129.5     9.210938   -51.9375   2.455393   2.234735   2.592447   -34.0625   3084      
8130       9.1875     -51.9375   2.597899   2.319804   2.591797   -34.09375  3064      
8130.5     9.179688   -51.9375   2.563987   2.321884   2.589844   -34.09375  3214      
8131       9.171875   -51.9375   2.427812   2.214912   2.589844   -34.0625   3370      
8131.5     9.140625   -51.9375   2.39347    2.201917   2.589192   -34.0625   3394      
8132       9.164063   -51.9375   2.405752   2.223535   2.587891   -34.03125  3340      
8132.5     9.171875   -51.9375   2.405963   2.221863   2.587891   -34.03125  3210      
8133       9.15625    -51.9375   2.531959   2.321521   2.587239   -34.0625   3260      
8133.5     9.164063   -51.9375   2.634919   2.418496   2.585286   -34.0625   3224      
8134       9.171875   -51.9375   2.667333   2.438266   2.580729   -34.0625   3164      
8134.5     9.171875   -51.9375   2.687182   2.462985   2.570963   -34.0625   3154      
8135       9.164063   -51.9375   2.618014   2.419733   2.535807   -34.03125  3180      
8135.5     9.109375   -51.9375   2.453015   2.273957   2.678385   -34.03125  3194      
8136       9.046875   -51.9375   2.35053    2.190692   2.498697   -34.03125  3154      
8136.5     9.304688   -51.9375   2.351963   2.178997   2.651692   -34.03125  3080      
8137       9.273438   -51.9375   2.252382   2.10896    2.570963   -34.03125  2970      
8137.5     9.257813   -51.9375   2.165993   2.044069   2.150391   -34.0625   2974      
8138       9.265625   -51.9375   2.249634   2.174684   2.149739   -34.0625   3394      
8138.5     9.257813   -51.9375   1.857343   1.89603    2.83138    -34.0625   3760      
8139       9.265625   -51.9375   2.650495   2.610661   3.09375    -34.0625   3894      
8139.5     9.304688   -51.9375   3.015046   3.01896    2.867838   -34.0625   3934      
8140       9.570313   -51.9375   2.945301   3.03749    2.088541   -34.09375  3974      
8140.5     9.570313   -51.9375   2.917119   3.023241   2.009766   -34.09375  3904      
