~Version
 VERS              .         3.0                           : CWLS LOG ASCII STANDARD - VERSION 3.0
 WRAP              .         NO                            : ONE LINE PER DEPTH STEP
 DLM               .         SPACE                         : DELIMITING CHARACTER(SPACE TAB OR COMMA)
~Well Information
#_______________________________________________________________________________
#
#PARAMETER_NAME    .UNIT     VALUE                         : DESCRIPTION
#_______________________________________________________________________________
STRT               .ft       7185.5                        : First reference value
STOP               .ft       8158.5                        : Last reference value
STEP               .ft       0.5                           : Step increment
NULL               .         -9999                         : Missing value
COMP               .         UNKNOWN                       : Company
WELL               .         EGBM-008                      : Well name
FLD                .         EGBEMA                        : Field
LOC                .                                       : Location
SRVC               .                                       : Service Company
CTRY               .                                       : Country
DATE               .         1982/08/24                    : Service Date
LATI               .         5.5418848363                  : Latitude
LONG               .         6.7703148139                  : Longitude
GDAT               .                                       : Geodetic Datum
APIN               .         10800/01                      : 
BHT                .degF     170                           : 
BLI                .ft       8140                          : 
BS                 .in       8.5                           : 
COMPANY            .         UNKNOWN                       : 
CREATION-TIME      .         1982/8/24 0_0                 : 
CSIZ               .in       9.625                         : 
DFD                .lbm/gal  9.800001                      : 
DFT                .         CMC POLYMER                   : 
DFV                .s        -999.25                       : 
EDF                .         82.00000                      : 
ELZ                .ohm.m    -999.25                       : 
ENGI               .         phcon2                        : 
FIELD-NAME         .         EGBEMA                        : 
FILE-ID            .         SOH18 .4                      : 
FILE-NUMBER        .         0                             : 
FILE-SET-NAME      .                                       : 
FILE-SET-NUMBER    .         0                             : 
FILE-TYPE          .         PTF                           : 
HIDE               .         4540_300_185_8_1_DATE_82/08/24_SOH_18_SEQ_4: 
LCC                .         0                             : 
LMF                .         1                             : 
MCST               .degF     75                            : 
MFST               .degF     75                            : 
MST                .degF     95                            : 
NAME-SPACE-NAME    .         LIS                           : 
NAME-SPACE-VERSION .         0                             : 
PRODUC             .         SHELL(PARASOL)                : 
PRODUCER-CODE      .         0                             : 
PRODUCER-NAME      .         Schlumberger                  : 
PRODUCT            .                                       : 
PROGRAMS           .         INC                           : 
R1                 .         BEAM WIDTH _ 24"              : 
R2                 .         UNABLE TO REACH DRILLERS TD   : 
R3                 .         EXTENSIVE WASHOUT AFFECTS MSFL READINGS: 
R4                 .         DEPTH MATCHED TO RUN 2  LLD AS GR WAS 2FT SHALLOW.: 
R5                 .         LOGGERS TD IS 15FT DEEPER THAN TENSION PICKUP.: 
RMCS               .ohm.m    1.89                          : 
RMFS               .ohm.m    0.6                           : 
RMS                .ohm.m    0.5320001                     : 
TCS                .h        -999.25                       : 
TDD                .ft       8188                          : 
TDL                .ft       8155                          : 
TLI                .ft       7200                          : 
VERSION            .         2P01                          : 
WELL-ID            .         10800/01                      : 
WELL-NAME          .         EGBM-008                      : 
WITN               .         phcon2                        : 
WN                 .         EGBM-008                      : 
~Parameter Information Block
#_______________________________________________________________________________
#
#PARAMETER_NAME    .UNIT     VALUE                         : DESCRIPTION
#_______________________________________________________________________________
SET                .         SOH18 _4_1                    : 
ACQUISITION-PRODUCT .         DLIS/U                        : 
COMPANY            .         UNKNOWN                       : 
CREATION-TIME      .         2026/5/13 12_11               : 
DLIS_FRAME_DIRECTION .         INCREASING                    : 
DLIS_FRAME_NAME    .         1                             : 
DLIS_FRAME_SPACING .ft       0.5                           : 
FIELD-NAME         .         EGBEMA                        : 
FILE-ID            .         SOH18 .4                      : 
FILE-NUMBER        .         4                             : 
FILE-SET-NAME      .         LIS-TO-DLIS-CONVERSION        : 
FILE-SET-NUMBER    .         9191                          : 
FILE-TYPE          .         PTF                           : 
INDEX-TYPE         .         BOREHOLE-DEPTH                : 
NAME-SPACE-NAME    .                                       : 
NAME-SPACE-VERSION .         0                             : 
OriginalDatasetName .         1                             : 
PRODUCER-CODE      .         440                           : 
PRODUCER-NAME      .         Schlumberger                  : 
PRODUCT            .         DLIS/U                        : 
PROGRAMS           .         LIS-TO-DLIS                   : 
TLFamily_CAMS      .         Caliper                       : 
TLFamily_DEPT      .         Measured Depth                : 
TLFamily_GRL       .         Gamma Ray                     : 
TLFamily_LL9D      .         Resistivity - Deep            : 
TLFamily_LL9S      .         Resistivity - Medium          : 
TLFamily_MSFL      .         Resistivity - Spherically Focused: 
TLFamily_SPL       .         Spontaneous Potential         : 
TLFamily_TENS      .         Tension                       : 
VERSION            .         0.1                           : 
WELL-ID            .         10800/01                      : 
WELL-NAME          .         EGBM-008                      : 
~Curve Information
#_______________________________________________________________________________
#
#LOGNAME           .UNIT     LOG_ID                        : DESCRIPTION
#_______________________________________________________________________________
DEPT               .ft                                     :  {F}
CAMS               .in                                     :  {F}
GRL                .gAPI                                   :  {F}
LL9D               .ohm.m                                  :  {F}
LL9S               .ohm.m                                  :  {F}
MSFL               .ohm.m                                  :  {F}
SPL                .mV                                     :  {F}
TENS               .                                       :  {F}
~Ascii
7185.5     8.703125   72.6875    8.035578   7.936078   5.68815    -29.85938  2750      
7186       8.65625    66.125     9.09688    8.913971   7.639322   -30.04688  2760      
7186.5     8.65625    50.96875   9.448763   9.138008   7.930989   -29.42188  2790      
7187       8.6875     41.21875   8.986654   8.614262   7.532552   -28.3125   2820      
7187.5     8.65625    30.89063   8.583757   8.235029   4.661458   -27.6875   2790      
7188       8.625      29.09375   8.048752   7.72865    4.582031   -27.64063  2774      
7188.5     8.632813   30.85938   8.092983   7.685183   5.361979   -27.54688  2790      
7189       8.65625    48.625     7.977509   7.523424   6.251302   -27.0625   2734      
7189.5     9.109375   71.125     7.193084   6.75596    5.744791   -27.5625   2730      
7190       9.5        90.9375    7.188734   6.627659   1.491211   -27.875    2704      
7190.5     8.984375   98.8125    6.839115   6.321611   2.088867   -28.23438  2710      
7191       9.546875   101        6.326855   5.858698   2.929036   -28.17188  2720      
7191.5     9.664063   105.375    6.3741     5.919679   3.805989   -28.23438  2734      
7192       10.5       105.125    5.695449   5.384355   1.361979   -29.0625   2754      
7192.5     11.95313   102.8125   5.482275   5.168298   1.361328   -29.78125  2764      
7193       11.60156   102.5625   5.072575   4.826178   1.322916   -30.09375  2760      
7193.5     11.97656   103.6875   4.889583   4.658863   1.333984   -30.21875  2764      
7194       12.15625   110        4.811541   4.584291   1.571614   -29.84375  2770      
7194.5     12.14844   112.0625   4.721222   4.567917   1.486002   -30.28125  2770      
7195       11.82031   111.0625   4.709277   4.527775   1.501302   -30.48438  2764      
7195.5     12.29688   108.9375   4.731114   4.519794   1.520182   -30.54688  2774      
7196       13.0625    105        4.771246   4.560523   1.695638   -30.85938  2770      
7196.5     13.77344   103.5      4.841265   4.609387   1.806966   -30.8125   2774      
7197       12.64063   102.4375   4.731869   4.48245    2.243814   -31        2750      
7197.5     12.82813   102.1875   4.675915   4.40642    2.728516   -31.01563  2740      
7198       13.0625    105.5625   4.659114   4.392403   2.410156   -30.70313  2764      
7198.5     13.28125   103        4.551145   4.265472   2.026367   -31.03125  2754      
7199       13.16406   101.375    4.537819   4.235744   2.073567   -30.04688  2744      
7199.5     10.54688   101.125    5.005718   4.605283   1.34668    -30.5625   2730      
7200       9.328125   105.5625   5.485201   5.064249   2.781575   -30.65625  2764      
7200.5     9.375      104.875    6.054458   5.547064   4.688802   -30.48438  2840      
7201       9.90625    90.5       6.092501   5.669613   2.762369   -29.96875  2824      
7201.5     9.945313   69.625     5.842379   5.494372   2.433594   -29.65625  2760      
7202       8.984375   57.65625   5.674777   5.320186   3.726563   -30.10938  2784      
7202.5     8.9375     66.9375    5.453474   5.140202   3.358724   -30.0625   2830      
7203       10.08594   85         5.109897   4.822185   1.949544   -29.79688  2810      
7203.5     10.92188   101.625    4.886659   4.587765   2.657552   -28.75     2774      
7204       11.82813   106.0625   4.616269   4.322468   1.801106   -27.35938  2790      
7204.5     11.99219   104.8125   4.232244   3.978733   1.717447   -28.04688  2784      
7205       12.5625    100.5625   4.050618   3.827326   1.810221   -28.09375  2794      
7205.5     12.67188   100.625    3.911221   3.723061   2.071614   -28.82813  2804      
7206       12.89063   101.75     3.749239   3.582709   2.341797   -29.01563  2774      
7206.5     13.00781   101.9375   3.823614   3.646219   2.321614   -29.48438  2754      
7207       12.95313   99.3125    3.998289   3.815408   1.83138    -29.625    2784      
7207.5     12.66406   95.75      4.114004   3.921953   1.976236   -29.84375  2864      
7208       11.91406   96.75      4.204356   4.032782   1.403971   -29.90625  2830      
7208.5     11.64844   95.875     4.154508   4.027332   1.229166   -29.96875  2804      
7209       12.11719   98.25      4.179211   4.042394   1.791666   -30.23438  2850      
7209.5     12.28125   99.125     4.570998   4.448643   1.62207    -29.17188  2864      
7210       10.88281   100.5625   5.037968   4.904502   1.180664   -30.67188  2840      
7210.5     9.984375   101.5      5.404579   5.233933   2.209635   -30.95313  2854      
7211       10.42969   99.875     5.09683    4.970672   5.106771   -31.57813  2964      
7211.5     11.60156   98.3125    4.71279    4.587388   2.485677   -31.40625  2994      
7212       10.78125   93.5625    4.690215   4.543276   1.304361   -30.59375  2914      
7212.5     11.20313   90.6875    4.606202   4.469213   1.166341   -30.65625  2810      
7213       12.35938   87.8125    4.549819   4.385163   1.464844   -30.34375  2814      
7213.5     12.65625   93.5       4.247577   4.094586   2.272786   -30.53125  2850      
7214       12.58594   95.75      4.024882   3.903457   2.690104   -31.21875  2894      
7214.5     12.89844   100.8125   3.931912   3.831935   2.380208   -30.29688  2890      
7215       13.58594   101        3.883279   3.768641   1.728516   -30.60938  2844      
7215.5     12.84375   99.625     3.881926   3.80177    1.203775   -30.54688  2840      
7216       12.46094   99.375     4.036478   3.953517   1.630533   -30.45313  2870      
7216.5     13.04688   96.875     4.103357   4.03286    1.945638   -30.57813  2910      
7217       13.63281   98.6875    4.13251    4.072964   1.732096   -30.95313  2854      
7217.5     13.625     99.3125    4.165066   4.116308   1.879883   -30.82813  2740      
7218       13.24219   99.25      4.137954   4.091728   2.124674   -30.76563  2744      
7218.5     13.21094   101.6875   4.111432   4.066925   1.841146   -30.65625  2850      
7219       12.6875    99.3125    4.099987   4.071815   1.397461   -30.84375  2900      
7219.5     12.92188   100.75     4.117853   4.073967   1.43815    -30.96875  2850      
7220       13.10156   99.0625    4.116263   4.059484   2.102213   -30.65625  2684      
7220.5     12.51563   105.9375   4.288102   4.223582   1.307617   -31.21875  2730      
7221       12.83594   103.0625   4.215131   4.173688   2.488281   -30.90625  2860      
7221.5     13.63281   104        4.068037   4.06316    3.801432   -30.85938  2954      
7222       14.08594   96.875     4.05078    4.031076   2.464844   -30.92188  2880      
7222.5     13.35156   100.75     3.912711   3.919712   1.981119   -30.98438  2830      
7223       13.24219   101.75     3.900672   3.912767   1.880208   -31.01563  2800      
7223.5     11.84375   102.6875   4.000785   4.016604   1.389322   -31.14063  2844      
7224       11.76563   102.5625   4.085303   4.133603   1.033528   -30.76563  2844      
7224.5     12.23438   99.375     4.195545   4.22878    1.109375   -31.01563  2894      
7225       12.88281   100.25     4.174503   4.199943   1.169596   -30.34375  2820      
7225.5     12.65625   98.25      4.273081   4.311504   1.202148   -30.59375  2800      
7226       13.10156   100.3125   4.34808    4.361243   1.384114   -30.84375  2820      
7226.5     12.39844   98.4375    4.319059   4.337607   1.913411   -30.90625  2864      
7227       12.64844   99.25      4.281995   4.265283   1.929361   -30.90625  2930      
7227.5     12.47656   99         4.257925   4.264338   1.704427   -30.96875  2884      
7228       13.10938   99.25      4.210711   4.204616   1.869791   -30.60938  2770      
7228.5     12.11719   99.9375    4.399115   4.385821   1.356119   -30.92188  2784      
7229       10.96875   100.1875   4.863891   4.854781   0.9864908  -30.82813  2880      
7229.5     10.03906   101.5      4.995594   5.002858   2.28418    -31.07813  2890      
7230       10.46094   105.5625   5.514876   5.478623   3.801432   -30.32813  2860      
7230.5     10.02344   109.0625   5.416528   5.405671   3.074869   -30.64063  2924      
