~Version
 VERS              .         3.0                           : CWLS LOG ASCII STANDARD - VERSION 3.0
 WRAP              .         NO                            : ONE LINE PER DEPTH STEP
 DLM               .         SPACE                         : DELIMITING CHARACTER(SPACE TAB OR COMMA)
~Well Information
#_______________________________________________________________________________
#
#PARAMETER_NAME    .UNIT     VALUE                         : DESCRIPTION
#_______________________________________________________________________________
STRT               .ft       7185.5                        : First reference value
STOP               .ft       8158.5                        : Last reference value
STEP               .ft       0.5                           : Step increment
NULL               .         -9999                         : Missing value
COMP               .         UNKNOWN                       : Company
WELL               .         EGBM-008                      : Well name
FLD                .         EGBEMA                        : Field
LOC                .                                       : Location
SRVC               .                                       : Service Company
CTRY               .                                       : Country
DATE               .         1982/08/24                    : Service Date
LATI               .         5.5418848363                  : Latitude
LONG               .         6.7703148139                  : Longitude
GDAT               .                                       : Geodetic Datum
APIN               .         10800/01                      : 
BHT                .degF     170                           : 
BLI                .ft       8140                          : 
BS                 .in       8.5                           : 
COMPANY            .         UNKNOWN                       : 
CREATION-TIME      .         1982/8/24 0_0                 : 
CSIZ               .in       9.625                         : 
DFD                .lbm/gal  9.800001                      : 
DFT                .         CMC POLYMER                   : 
DFV                .s        -999.25                       : 
EDF                .         82.00000                      : 
ELZ                .ohm.m    -999.25                       : 
ENGI               .         phcon2                        : 
FIELD-NAME         .         EGBEMA                        : 
FILE-ID            .         SOH18 .4                      : 
FILE-NUMBER        .         0                             : 
FILE-SET-NAME      .                                       : 
FILE-SET-NUMBER    .         0                             : 
FILE-TYPE          .         PTF                           : 
HIDE               .         4540_300_185_8_1_DATE_82/08/24_SOH_18_SEQ_4: 
LCC                .         0                             : 
LMF                .         1                             : 
MCST               .degF     75                            : 
MFST               .degF     75                            : 
MST                .degF     95                            : 
NAME-SPACE-NAME    .         LIS                           : 
NAME-SPACE-VERSION .         0                             : 
PRODUC             .         SHELL(PARASOL)                : 
PRODUCER-CODE      .         0                             : 
PRODUCER-NAME      .         Schlumberger                  : 
PRODUCT            .                                       : 
PROGRAMS           .         INC                           : 
R1                 .         BEAM WIDTH _ 24"              : 
R2                 .         UNABLE TO REACH DRILLERS TD   : 
R3                 .         EXTENSIVE WASHOUT AFFECTS MSFL READINGS: 
R4                 .         DEPTH MATCHED TO RUN 2  LLD AS GR WAS 2FT SHALLOW.: 
R5                 .         LOGGERS TD IS 15FT DEEPER THAN TENSION PICKUP.: 
RMCS               .ohm.m    1.89                          : 
RMFS               .ohm.m    0.6                           : 
RMS                .ohm.m    0.5320001                     : 
TCS                .h        -999.25                       : 
TDD                .ft       8188                          : 
TDL                .ft       8155                          : 
TLI                .ft       7200                          : 
VERSION            .         2P01                          : 
WELL-ID            .         10800/01                      : 
WELL-NAME          .         EGBM-008                      : 
WITN               .         phcon2                        : 
WN                 .         EGBM-008                      : 
~Parameter Information Block
#_______________________________________________________________________________
#
#PARAMETER_NAME    .UNIT     VALUE                         : DESCRIPTION
#_______________________________________________________________________________
SET                .         SOH18 _4_1                    : 
ACQUISITION-PRODUCT .         DLIS/U                        : 
COMPANY            .         UNKNOWN                       : 
CREATION-TIME      .         2026/5/13 12_11               : 
DLIS_FRAME_DIRECTION .         INCREASING                    : 
DLIS_FRAME_NAME    .         1                             : 
DLIS_FRAME_SPACING .ft       0.5                           : 
FIELD-NAME         .         EGBEMA                        : 
FILE-ID            .         SOH18 .4                      : 
FILE-NUMBER        .         4                             : 
FILE-SET-NAME      .         LIS-TO-DLIS-CONVERSION        : 
FILE-SET-NUMBER    .         9191                          : 
FILE-TYPE          .         PTF                           : 
INDEX-TYPE         .         BOREHOLE-DEPTH                : 
NAME-SPACE-NAME    .                                       : 
NAME-SPACE-VERSION .         0                             : 
OriginalDatasetName .         1                             : 
PRODUCER-CODE      .         440                           : 
PRODUCER-NAME      .         Schlumberger                  : 
PRODUCT            .         DLIS/U                        : 
PROGRAMS           .         LIS-TO-DLIS                   : 
TLFamily_CAMS      .         Caliper                       : 
TLFamily_DEPT      .         Measured Depth                : 
TLFamily_GRL       .         Gamma Ray                     : 
TLFamily_LL9D      .         Resistivity - Deep            : 
TLFamily_LL9S      .         Resistivity - Medium          : 
TLFamily_MSFL      .         Resistivity - Spherically Focused: 
TLFamily_SPL       .         Spontaneous Potential         : 
TLFamily_TENS      .         Tension                       : 
VERSION            .         0.1                           : 
WELL-ID            .         10800/01                      : 
WELL-NAME          .         EGBM-008                      : 
~Curve Information
#_______________________________________________________________________________
#
#LOGNAME           .UNIT     LOG_ID                        : DESCRIPTION
#_______________________________________________________________________________
DEPT               .ft                                     :  {F}
CAMS               .in                                     :  {F}
GRL                .gAPI                                   :  {F}
LL9D               .ohm.m                                  :  {F}
LL9S               .ohm.m                                  :  {F}
MSFL               .ohm.m                                  :  {F}
SPL                .mV                                     :  {F}
TENS               .                                       :  {F}
~Ascii
# ...
7322       8.578125   42.21875   6.176515   5.356357   4.445313   -21.14063  2760      
7322.5     8.59375    46.0625    6.355366   5.474242   4.664063   -21.125    2760      
7323       8.601563   49.6875    6.418354   5.515244   4.621094   -20.98438  2760      
7323.5     8.601563   46.84375   6.33723    5.450747   4.605469   -20.59375  2750      
7324       8.59375    46.03125   6.245801   5.407746   4.427083   -21.90625  2750      
7324.5     8.601563   45.46875   6.398013   5.493489   4.608072   -22.23438  2754      
7325       8.59375    51.09375   6.518937   5.569656   4.795572   -22.46875  2760      
7325.5     8.601563   58.65625   6.478172   5.5327     6.066406   -22.1875   2754      
7326       8.625      59         6.642192   5.670696   5.440104   -22.03125  2760      
7326.5     8.625      60.25      6.728426   5.745224   4.554688   -22.23438  2764      
7327       8.625      60         6.665303   5.698961   5.147135   -22.10938  2764      
7327.5     8.625      63.96875   6.987304   5.958613   5.765625   -22.54688  2760      
7328       8.625      66.6875    7.312607   6.288782   4.848958   -23.8125   2760      
7328.5     8.609375   62.53125   7.360611   6.311996   4.916666   -23        2760      
7329       8.601563   62.1875    7.465821   6.354441   5.582031   -23.39063  2754      
7329.5     8.59375    55.5625    7.248905   6.133828   5.414063   -23.10938  2754      
7330       8.609375   48.4375    6.654134   5.711802   5.041666   -22.29688  2760      
7330.5     8.625      36.6875    6.164694   5.337029   4.19401    -21.48438  2760      
7331       8.648438   30.96875   5.890903   5.148305   4.316406   -21.1875   2764      
7331.5     8.695313   28.23438   5.921142   5.165631   4.597656   -20.8125   2754      
7332       8.742188   30.96875   6.25728    5.459775   4.764322   -20.98438  2760      
7332.5     8.742188   34.84375   6.864722   5.951245   5.191406   -21.29688  2764      
7333       8.742188   47.25      7.732835   6.603761   5.65625    -21.92188  2754      
7333.5     8.8125     62.25      8.282366   7.009147   5.703125   -21.54688  2754      
7334       8.898438   67.8125    8.290466   7.027446   6.544271   -22.21875  2764      
7334.5     8.617188   61.375     7.976661   6.798526   5.375      -22.53125  2770      
7335       8.625      47         7.389119   6.351215   4.486979   -21.78125  2754      
7335.5     8.570313   38.625     6.781443   5.880389   4.363281   -21.21875  2750      
7336       8.5        35.21875   6.478613   5.638406   4.460938   -20.46875  2770      
7336.5     8.507813   31.28125   6.486009   5.616226   4.299479   -20.15625  2774      
7337       8.507813   29.9375    6.564117   5.740466   4.276041   -19.85938  2760      
7337.5     8.515625   26.79688   6.701184   5.893133   4.526041   -19.73438  2760      
7338       8.507813   25.42188   6.827459   6.038151   4.700521   -19.67188  2764      
7338.5     8.515625   26.09375   6.678866   6.008308   4.572916   -20.85938  2770      
7339       8.507813   27.35938   6.454079   5.875216   4.813802   -20.125    2770      
7339.5     8.507813   30.21875   6.287765   5.802364   4.765625   -20.5      2760      
7340       8.515625   31.8125    6.237924   5.732068   5.023438   -20.64063  2754      
7340.5     8.515625   32         6.265206   5.719334   5.076822   -20.70313  2764      
7341       8.546875   31.625     6.292571   5.695329   4.940104   -20.84375  2780      
7341.5     8.632813   29.04688   6.236176   5.654673   4.855469   -20.95313  2784      
7342       8.625      30.45313   6.213794   5.601351   4.949219   -21.07813  2774      
7342.5     8.578125   30.42188   6.362059   5.76138    5.00651    -21.21875  2760      
7343       8.554688   31.5       6.987329   6.326322   4.712239   -20.98438  2764      
7343.5     8.539063   32.9375    7.999161   7.191871   4.05013    -21.14063  2764      
7344       8.460938   32.375     10.36678   9.173622   7.134114   -20.09375  2770      
7344.5     8.476563   31         14.74289   12.80629   6.059896   -20.84375  2784      
7345       8.5        27.92188   18.22752   15.55728   11.08594   -21.32813  2784      
7345.5     8.578125   29.29688   16.61761   14.64722   18.11458   -21.67188  2774      
7346       8.695313   34.59375   12.05858   11.38251   18.68228   -22.25     2790      
7346.5     8.710938   42.03125   8.515825   8.345716   9.800781   -22.5      2800      
7347       8.648438   44.53125   6.830426   6.742216   5.916666   -22.89063  2784      
7347.5     8.578125   43.15625   6.345984   6.279099   4.734375   -22.57813  2760      
7348       8.578125   50.75      6.609582   6.511096   4.440104   -22.15625  2764      
7348.5     8.789063   59.9375    6.983522   6.854001   3.694661   -22.10938  2790      
7349       8.492188   63.5625    7.173663   7.108842   4.371094   -20.76563  2814      
7349.5     8.515625   55.09375   6.991526   7.018238   5.160156   -21.78125  2804      
7350       8.523438   46.0625    6.835844   6.917434   5.074219   -21.79688  2770      
7350.5     8.523438   36.34375   6.978808   7.078467   5.684896   -21.89063  2744      
7351       8.515625   28.59375   8.267141   8.147064   5.550781   -21.67188  2760      
7351.5     8.515625   24.57813   10.68724   10.08444   7.389322   -21.8125   2804      
7352       8.515625   25.67188   11.93105   10.78767   8.111979   -22        2804      
7352.5     8.546875   30.73438   11.57593   10.29424   23.75      -22.26563  2770      
7353       8.578125   34.09375   10.31249   9.189623   13.77865   -22.26563  2774      
7353.5     8.570313   40         8.524036   7.724719   7.595052   -21.84375  2790      
7354       8.53125    36.90625   7.907763   7.140279   6.457031   -21.73438  2804      
7354.5     8.46875    34.71875   7.82213    7.099788   5.519531   -20.57813  2790      
7355       8.46875    29.96875   8.02957    7.313066   4.795572   -20.9375   2774      
7355.5     8.46875    29.39063   8.383766   7.57733    4.859375   -20.375    2770      
7356       8.46875    28.3125    8.703936   7.885485   5.220052   -20.26563  2770      
7356.5     8.476563   27.10938   8.788425   7.889469   5.623697   -20.29688  2784      
7357       8.46875    26.32813   8.389406   7.517556   5.837239   -19.98438  2784      
7357.5     8.460938   23.8125    7.868101   7.088678   5.730469   -20.3125   2790      
7358       8.453125   22.1875    7.442504   6.717014   5.675781   -20.5625   2764      
7358.5     8.445313   21.01563   7.121434   6.366106   5.496094   -20.89063  2754      
7359       8.445313   22.14063   6.967321   6.177086   5.588541   -21.51563  2764      
7359.5     8.445313   23.65625   6.92556    6.094032   5.91276    -20.46875  2800      
7360       8.445313   26.32813   6.70567    5.871804   6.059896   -20.90625  2800      
7360.5     8.445313   28.32813   6.719584   5.837414   6.195313   -21.14063  2780      
7361       8.445313   34.375     6.833855   5.898021   5.554688   -21.21875  2764      
7361.5     8.445313   37.40625   6.788996   5.849707   5.348958   -21.15625  2764      
7362       8.445313   40.125     7.121584   6.047779   5.833333   -21.17188  2764      
7362.5     8.445313   39.28125   7.447725   6.305222   5.722656   -20.5625   2774      
7363       8.445313   38.875     7.199306   6.14113    5.830729   -20.23438  2770      
7363.5     8.445313   36.90625   6.967548   5.996714   5.158854   -19.82813  2784      
7364       8.445313   32.40625   6.789779   5.968385   4.436197   -19.875    2790      
7364.5     8.445313   29.64063   6.585896   5.853795   4.610677   -19.875    2790      
7365       8.453125   28.76563   6.560487   5.86772    5.244791   -20.14063  2760      
7365.5     8.445313   31.92188   6.739532   6.09601    5.337239   -20.60938  2764      
7366       8.445313   33.875     6.828831   6.227827   5.276041   -21.35938  2800      
7366.5     8.453125   34.125     6.709574   6.100915   5.580729   -21.875    2830      
7367       8.484375   32.09375   6.635152   6.028372   6.029947   -21.6875   2790      
