~Version
 VERS              .         3.0                           : CWLS LOG ASCII STANDARD - VERSION 3.0
 WRAP              .         NO                            : ONE LINE PER DEPTH STEP
 DLM               .         SPACE                         : DELIMITING CHARACTER(SPACE TAB OR COMMA)
~Well Information
#_______________________________________________________________________________
#
#PARAMETER_NAME    .UNIT     VALUE                         : DESCRIPTION
#_______________________________________________________________________________
STRT               .ft       7185.5                        : First reference value
STOP               .ft       8158.5                        : Last reference value
STEP               .ft       0.5                           : Step increment
NULL               .         -9999                         : Missing value
COMP               .         UNKNOWN                       : Company
WELL               .         EGBM-008                      : Well name
FLD                .         EGBEMA                        : Field
LOC                .                                       : Location
SRVC               .                                       : Service Company
CTRY               .                                       : Country
DATE               .         1982/08/24                    : Service Date
LATI               .         5.5418848363                  : Latitude
LONG               .         6.7703148139                  : Longitude
GDAT               .                                       : Geodetic Datum
APIN               .         10800/01                      : 
BHT                .degF     170                           : 
BLI                .ft       8140                          : 
BS                 .in       8.5                           : 
COMPANY            .         UNKNOWN                       : 
CREATION-TIME      .         1982/8/24 0_0                 : 
CSIZ               .in       9.625                         : 
DFD                .lbm/gal  9.800001                      : 
DFT                .         CMC POLYMER                   : 
DFV                .s        -999.25                       : 
EDF                .         82.00000                      : 
ELZ                .ohm.m    -999.25                       : 
ENGI               .         phcon2                        : 
FIELD-NAME         .         EGBEMA                        : 
FILE-ID            .         SOH18 .4                      : 
FILE-NUMBER        .         0                             : 
FILE-SET-NAME      .                                       : 
FILE-SET-NUMBER    .         0                             : 
FILE-TYPE          .         PTF                           : 
HIDE               .         4540_300_185_8_1_DATE_82/08/24_SOH_18_SEQ_4: 
LCC                .         0                             : 
LMF                .         1                             : 
MCST               .degF     75                            : 
MFST               .degF     75                            : 
MST                .degF     95                            : 
NAME-SPACE-NAME    .         LIS                           : 
NAME-SPACE-VERSION .         0                             : 
PRODUC             .         SHELL(PARASOL)                : 
PRODUCER-CODE      .         0                             : 
PRODUCER-NAME      .         Schlumberger                  : 
PRODUCT            .                                       : 
PROGRAMS           .         INC                           : 
R1                 .         BEAM WIDTH _ 24"              : 
R2                 .         UNABLE TO REACH DRILLERS TD   : 
R3                 .         EXTENSIVE WASHOUT AFFECTS MSFL READINGS: 
R4                 .         DEPTH MATCHED TO RUN 2  LLD AS GR WAS 2FT SHALLOW.: 
R5                 .         LOGGERS TD IS 15FT DEEPER THAN TENSION PICKUP.: 
RMCS               .ohm.m    1.89                          : 
RMFS               .ohm.m    0.6                           : 
RMS                .ohm.m    0.5320001                     : 
TCS                .h        -999.25                       : 
TDD                .ft       8188                          : 
TDL                .ft       8155                          : 
TLI                .ft       7200                          : 
VERSION            .         2P01                          : 
WELL-ID            .         10800/01                      : 
WELL-NAME          .         EGBM-008                      : 
WITN               .         phcon2                        : 
WN                 .         EGBM-008                      : 
~Parameter Information Block
#_______________________________________________________________________________
#
#PARAMETER_NAME    .UNIT     VALUE                         : DESCRIPTION
#_______________________________________________________________________________
SET                .         SOH18 _4_1                    : 
ACQUISITION-PRODUCT .         DLIS/U                        : 
COMPANY            .         UNKNOWN                       : 
CREATION-TIME      .         2026/5/13 12_11               : 
DLIS_FRAME_DIRECTION .         INCREASING                    : 
DLIS_FRAME_NAME    .         1                             : 
DLIS_FRAME_SPACING .ft       0.5                           : 
FIELD-NAME         .         EGBEMA                        : 
FILE-ID            .         SOH18 .4                      : 
FILE-NUMBER        .         4                             : 
FILE-SET-NAME      .         LIS-TO-DLIS-CONVERSION        : 
FILE-SET-NUMBER    .         9191                          : 
FILE-TYPE          .         PTF                           : 
INDEX-TYPE         .         BOREHOLE-DEPTH                : 
NAME-SPACE-NAME    .                                       : 
NAME-SPACE-VERSION .         0                             : 
OriginalDatasetName .         1                             : 
PRODUCER-CODE      .         440                           : 
PRODUCER-NAME      .         Schlumberger                  : 
PRODUCT            .         DLIS/U                        : 
PROGRAMS           .         LIS-TO-DLIS                   : 
TLFamily_CAMS      .         Caliper                       : 
TLFamily_DEPT      .         Measured Depth                : 
TLFamily_GRL       .         Gamma Ray                     : 
TLFamily_LL9D      .         Resistivity - Deep            : 
TLFamily_LL9S      .         Resistivity - Medium          : 
TLFamily_MSFL      .         Resistivity - Spherically Focused: 
TLFamily_SPL       .         Spontaneous Potential         : 
TLFamily_TENS      .         Tension                       : 
VERSION            .         0.1                           : 
WELL-ID            .         10800/01                      : 
WELL-NAME          .         EGBM-008                      : 
~Curve Information
#_______________________________________________________________________________
#
#LOGNAME           .UNIT     LOG_ID                        : DESCRIPTION
#_______________________________________________________________________________
DEPT               .ft                                     :  {F}
CAMS               .in                                     :  {F}
GRL                .gAPI                                   :  {F}
LL9D               .ohm.m                                  :  {F}
LL9S               .ohm.m                                  :  {F}
MSFL               .ohm.m                                  :  {F}
SPL                .mV                                     :  {F}
TENS               .                                       :  {F}
~Ascii
# ...
7413       8.695313   79.625     5.961524   5.789837   5.21875    -28.51563  2810      
7413.5     8.71875    74.75      5.701467   5.648328   4.75       -28.82813  2820      
7414       8.71875    64.125     5.663233   5.606405   4.704427   -28.98438  2874      
7414.5     8.734375   65.6875    5.993457   5.897542   4.973958   -28.71875  2900      
7415       8.804688   72.4375    6.357055   6.199979   5.238281   -28.78125  2880      
7415.5     8.632813   78.5625    5.657339   5.560381   4.636067   -28.84375  2870      
7416       9.28125    84.0625    4.45272    4.456179   5.917969   -29.46875  2890      
7416.5     9.796875   89.5       3.788301   3.804441   2.70638    -28.46875  2974      
7417       10.58594   95         3.649244   3.65824    1.649414   -29.15625  2920      
7417.5     11.03125   99.875     3.522153   3.529322   2.150391   -28.85938  2804      
7418       11.63281   98.4375    3.518126   3.547702   1.767903   -29.23438  2854      
7418.5     11.66406   102.1875   3.399375   3.507004   1.483724   -29.35938  2904      
7419       11.65625   102.4375   3.330103   3.46808    1.25       -29.375    2954      
7419.5     11.92188   99.75      3.356655   3.50489    1.880533   -29.53125  2900      
7420       11.71094   101.5625   3.190142   3.372511   2.319661   -29.21875  3004      
7420.5     11.94531   97.6875    3.238566   3.381248   1.782552   -29.34375  2950      
7421       11.03125   99.875     3.33556    3.499165   1.227864   -29.40625  2870      
7421.5     12.82031   97.3125    3.346999   3.51179    1.64388    -29.35938  2874      
7422       11.9375    100.3125   3.360854   3.502891   2.197916   -28.73438  2860      
7422.5     11.39063   96.4375    3.235656   3.35955    1.911133   -28.85938  2840      
7423       11.85156   88.625     3.286254   3.423625   1.509114   -28.625    2914      
7423.5     12.09375   84.5625    3.48924    3.640927   1.425781   -28        2910      
7424       12.17188   78.1875    3.644352   3.786242   1.029947   -27.5      2870      
7424.5     10.50781   69.8125    4.175489   4.316992   1.862305   -27.95313  2810      
7425       8.804688   57.25      5.944689   6.056967   4.396484   -28.48438  2900      
7425.5     8.71875    52.1875    6.334817   6.470265   4.496094   -28.70313  2904      
7426       8.742188   51.6875    6.433498   6.541521   5.727864   -28.40625  2840      
7426.5     8.6875     49.75      6.774006   6.807892   7.209635   -28.15625  2814      
7427       8.6875     48.59375   6.585395   6.598613   6.098958   -26.96875  2790      
7427.5     8.710938   53.84375   6.435161   6.130322   5.123697   -27.21875  2910      
7428       8.90625    68.6875    6.181989   5.91223    4.337239   -26.71875  3004      
7428.5     8.734375   82.9375    6.171813   5.922465   5.705729   -26.71875  2950      
7429       8.726563   81.1875    6.228954   5.964359   6.117188   -26.60938  2820      
7429.5     8.703125   70.4375    6.269848   6.005912   5.239583   -26.35938  2860      
7430       8.695313   62.875     6.478489   6.168877   5.085938   -26.54688  2914      
7430.5     8.664063   67.25      6.609531   6.307091   6.260416   -26.14063  2900      
7431       8.625      68.4375    6.482097   6.233829   6.233072   -25.89063  2874      
7431.5     8.617188   64.125     6.243662   6.071067   6.179688   -26.26563  2870      
7432       8.617188   56.25      6.296411   6.131113   5.260416   -24.65625  2874      
7432.5     8.625      53.375     6.348533   6.171841   5.227864   -25.15625  2830      
7433       8.625      53.25      6.385996   6.17813    5.644531   -25.21875  2760      
7433.5     8.617188   53.59375   6.26074    6.105225   6.360677   -25.46875  2840      
7434       8.617188   51         6.360393   6.144426   5.384114   -25.84375  3010      
7434.5     8.625      48.375     6.553785   6.314863   5.664063   -26.09375  2954      
7435       8.695313   46.5625    6.61562    6.386596   5.489583   -26.17188  2850      
7435.5     8.789063   56.1875    6.530369   6.347345   6.054688   -26.17188  2900      
7436       9.0625     67         6.672808   6.561283   3.629557   -25.92188  2894      
7436.5     8.734375   75.0625    6.532651   6.498939   3.7819     -26.51563  2884      
7437       8.609375   65.875     6.307062   6.309412   5.082031   -27.64063  2894      
7437.5     8.632813   55.15625   6.320287   6.355112   5.283854   -28.07813  2874      
7438       8.632813   47.34375   6.373825   6.394664   5.601563   -29.03125  2884      
7438.5     8.601563   56.09375   5.891786   5.959064   5.692708   -29.71875  2894      
7439       8.6875     63.34375   4.948089   5.040456   4.568359   -29.78125  2894      
7439.5     9.609375   80.5       4.526322   4.650802   1.955403   -29.34375  2884      
7440       10.29688   89.0625    4.233994   4.375236   1.571289   -28.96875  2854      
7440.5     10.75781   98.625     4.277631   4.398192   1.484049   -28.28125  2884      
7441       10.61719   96.875     4.561917   4.665043   1.713216   -28.17188  2890      
7441.5     10         98.5625    4.735927   4.878727   2.436849   -28.54688  2880      
7442       10.94531   97.625     4.764473   4.914047   1.469075   -28.54688  2880      
7442.5     11.58594   99.3125    4.6701     4.834694   1.150391   -28.10938  2814      
7443       10.47656   98.5625    4.302178   4.440387   1.533203   -28        2790      
7443.5     11.16406   103.1875   4.07373    4.202763   1.635416   -27.5625   2810      
7444       10.79688   104.0625   4.165325   4.240149   1.762044   -27.03125  2834      
7444.5     11.07031   97.1875    4.307001   4.336276   1.446289   -26.48438  2840      
7445       10.19531   77.1875    4.685633   4.639001   1.457356   -26.10938  2824      
7445.5     8.726563   63.53125   5.30284    5.187283   4.805989   -25.98438  2830      
7446       8.609375   56.53125   5.718378   5.604627   5.223958   -26        2850      
7446.5     8.578125   62.4375    5.953977   5.776677   6.272135   -26.0625   2820      
7447       8.570313   62.03125   6.142547   5.96473    5.808594   -26.82813  2870      
7447.5     8.570313   59.34375   5.985742   5.80345    5.821614   -25.76563  2860      
7448       8.578125   53.75      5.95022    5.760575   5.929688   -26.15625  2824      
7448.5     8.578125   45.1875    5.991618   5.78749    5.722656   -26.23438  2804      
7449       8.570313   40.1875    6.283699   5.973715   5.330729   -26.20313  2804      
7449.5     8.570313   39.90625   6.581871   6.127097   5.571614   -26.40625  2814      
7450       8.570313   45.1875    6.779373   6.282537   6.985677   -26.46875  2804      
7450.5     8.578125   53.40625   6.478178   6.018994   6.640625   -26.76563  2820      
7451       8.59375    48.40625   6.131911   5.74159    5.957031   -26.73438  2860      
7451.5     8.617188   48.59375   6.156971   5.768329   5.878906   -26.5625   2844      
7452       8.617188   52.21875   6.297578   5.923091   5.648438   -26.875    2814      
7452.5     8.625      63.9375    7.156544   6.603554   6.252604   -25.70313  2834      
7453       8.65625    73         7.599348   7.004155   3.8444     -25.89063  2854      
7453.5     8.65625    71.4375    7.158447   6.721674   7.769531   -25.71875  2844      
7454       8.546875   67         6.469032   6.182414   7.144531   -26.125    2904      
7454.5     8.554688   59.53125   6.090301   5.841782   5.832031   -26.51563  2864      
7455       8.59375    56.15625   5.844696   5.6106     5.394531   -26.82813  2834      
7455.5     8.65625    62.15625   5.481126   5.25589    5.589844   -26.5625   2804      
7456       8.921875   73.125     5.280205   5.113417   3.445963   -25.53125  2780      
7456.5     9.25       81.375     5.569931   5.345698   1.662435   -25.03125  2780      
7457       8.898438   80.75      5.977452   5.777628   2.483072   -25.96875  2840      
7457.5     8.75       70.375     6.449316   6.37855    5.520833   -27.40625  2964      
7458       8.820313   65.5       6.000057   6.028654   5.703125   -27.42188  2980      
