~Version
 VERS              .         3.0                           : CWLS LOG ASCII STANDARD - VERSION 3.0
 WRAP              .         NO                            : ONE LINE PER DEPTH STEP
 DLM               .         SPACE                         : DELIMITING CHARACTER(SPACE TAB OR COMMA)
~Well Information
#_______________________________________________________________________________
#
#PARAMETER_NAME    .UNIT     VALUE                         : DESCRIPTION
#_______________________________________________________________________________
STRT               .ft       7185.5                        : First reference value
STOP               .ft       8158.5                        : Last reference value
STEP               .ft       0.5                           : Step increment
NULL               .         -9999                         : Missing value
COMP               .         UNKNOWN                       : Company
WELL               .         EGBM-008                      : Well name
FLD                .         EGBEMA                        : Field
LOC                .                                       : Location
SRVC               .                                       : Service Company
CTRY               .                                       : Country
DATE               .         1982/08/24                    : Service Date
LATI               .         5.5418848363                  : Latitude
LONG               .         6.7703148139                  : Longitude
GDAT               .                                       : Geodetic Datum
APIN               .         10800/01                      : 
BHT                .degF     170                           : 
BLI                .ft       8140                          : 
BS                 .in       8.5                           : 
COMPANY            .         UNKNOWN                       : 
CREATION-TIME      .         1982/8/24 0_0                 : 
CSIZ               .in       9.625                         : 
DFD                .lbm/gal  9.800001                      : 
DFT                .         CMC POLYMER                   : 
DFV                .s        -999.25                       : 
EDF                .         82.00000                      : 
ELZ                .ohm.m    -999.25                       : 
ENGI               .         phcon2                        : 
FIELD-NAME         .         EGBEMA                        : 
FILE-ID            .         SOH18 .4                      : 
FILE-NUMBER        .         0                             : 
FILE-SET-NAME      .                                       : 
FILE-SET-NUMBER    .         0                             : 
FILE-TYPE          .         PTF                           : 
HIDE               .         4540_300_185_8_1_DATE_82/08/24_SOH_18_SEQ_4: 
LCC                .         0                             : 
LMF                .         1                             : 
MCST               .degF     75                            : 
MFST               .degF     75                            : 
MST                .degF     95                            : 
NAME-SPACE-NAME    .         LIS                           : 
NAME-SPACE-VERSION .         0                             : 
PRODUC             .         SHELL(PARASOL)                : 
PRODUCER-CODE      .         0                             : 
PRODUCER-NAME      .         Schlumberger                  : 
PRODUCT            .                                       : 
PROGRAMS           .         INC                           : 
R1                 .         BEAM WIDTH _ 24"              : 
R2                 .         UNABLE TO REACH DRILLERS TD   : 
R3                 .         EXTENSIVE WASHOUT AFFECTS MSFL READINGS: 
R4                 .         DEPTH MATCHED TO RUN 2  LLD AS GR WAS 2FT SHALLOW.: 
R5                 .         LOGGERS TD IS 15FT DEEPER THAN TENSION PICKUP.: 
RMCS               .ohm.m    1.89                          : 
RMFS               .ohm.m    0.6                           : 
RMS                .ohm.m    0.5320001                     : 
TCS                .h        -999.25                       : 
TDD                .ft       8188                          : 
TDL                .ft       8155                          : 
TLI                .ft       7200                          : 
VERSION            .         2P01                          : 
WELL-ID            .         10800/01                      : 
WELL-NAME          .         EGBM-008                      : 
WITN               .         phcon2                        : 
WN                 .         EGBM-008                      : 
~Parameter Information Block
#_______________________________________________________________________________
#
#PARAMETER_NAME    .UNIT     VALUE                         : DESCRIPTION
#_______________________________________________________________________________
SET                .         SOH18 _4_1                    : 
ACQUISITION-PRODUCT .         DLIS/U                        : 
COMPANY            .         UNKNOWN                       : 
CREATION-TIME      .         2026/5/13 12_11               : 
DLIS_FRAME_DIRECTION .         INCREASING                    : 
DLIS_FRAME_NAME    .         1                             : 
DLIS_FRAME_SPACING .ft       0.5                           : 
FIELD-NAME         .         EGBEMA                        : 
FILE-ID            .         SOH18 .4                      : 
FILE-NUMBER        .         4                             : 
FILE-SET-NAME      .         LIS-TO-DLIS-CONVERSION        : 
FILE-SET-NUMBER    .         9191                          : 
FILE-TYPE          .         PTF                           : 
INDEX-TYPE         .         BOREHOLE-DEPTH                : 
NAME-SPACE-NAME    .                                       : 
NAME-SPACE-VERSION .         0                             : 
OriginalDatasetName .         1                             : 
PRODUCER-CODE      .         440                           : 
PRODUCER-NAME      .         Schlumberger                  : 
PRODUCT            .         DLIS/U                        : 
PROGRAMS           .         LIS-TO-DLIS                   : 
TLFamily_CAMS      .         Caliper                       : 
TLFamily_DEPT      .         Measured Depth                : 
TLFamily_GRL       .         Gamma Ray                     : 
TLFamily_LL9D      .         Resistivity - Deep            : 
TLFamily_LL9S      .         Resistivity - Medium          : 
TLFamily_MSFL      .         Resistivity - Spherically Focused: 
TLFamily_SPL       .         Spontaneous Potential         : 
TLFamily_TENS      .         Tension                       : 
VERSION            .         0.1                           : 
WELL-ID            .         10800/01                      : 
WELL-NAME          .         EGBM-008                      : 
~Curve Information
#_______________________________________________________________________________
#
#LOGNAME           .UNIT     LOG_ID                        : DESCRIPTION
#_______________________________________________________________________________
DEPT               .ft                                     :  {F}
CAMS               .in                                     :  {F}
GRL                .gAPI                                   :  {F}
LL9D               .ohm.m                                  :  {F}
LL9S               .ohm.m                                  :  {F}
MSFL               .ohm.m                                  :  {F}
SPL                .mV                                     :  {F}
TENS               .                                       :  {F}
~Ascii
# ...
7959       8.796875   97.0625    7.27439    7.189934   2.653646   -34.1875   3020      
7959.5     8.726563   89.0625    11.89977   11.66539   2.323567   -35.5      3094      
7960       8.703125   76.125     14.247     13.92321   4.761719   -36.625    3130      
7960.5     8.578125   63.4375    14.581     14.09189   8.579428   -37.625    3084      
7961       8.507813   55.25      14.22054   13.67637   10.97917   -38.625    3064      
7961.5     8.507813   51.625     13.2221    12.62363   12.14583   -38.28125  3080      
7962       8.515625   56.53125   12.24525   11.69072   10.66927   -38.96875  3070      
7962.5     8.515625   60.15625   11.46463   10.85102   9.950521   -39.1875   3050      
7963       8.5        68.875     10.81181   10.18629   9.015625   -39.25     3054      
7963.5     8.523438   76.6875    10.41201   9.727287   8.203125   -39.59375  3060      
7964       8.507813   85.5       10.13193   9.369106   7.992188   -39.96875  3054      
7964.5     8.515625   95.1875    9.756655   8.978388   7.712239   -40.21875  3090      
7965       8.515625   101.4375   9.207613   8.452692   7.522135   -40.65625  3100      
7965.5     8.53125    112.6875   8.711752   7.98975    8.053385   -41.09375  3090      
7966       8.539063   122.0625   8.324852   7.59828    7.96875    -41.78125  3084      
7966.5     8.523438   129.5      8.053827   7.308654   6.59375    -41.125    3070      
7967       8.507813   132.25     8.045799   7.229846   6.197916   -42.28125  3104      
7967.5     8.515625   132.125    7.961925   7.11762    6.602864   -42.5      3154      
7968       8.523438   135.125    7.86989    7.051884   6.783854   -42.3125   3060      
7968.5     8.507813   139.75     7.857198   6.94791    6.983072   -42        3080      
7969       8.515625   139.25     7.43972    6.539925   7.567708   -41.125    3100      
7969.5     8.523438   130.75     6.965661   6.099413   6.238281   -40.5      3114      
7970       8.523438   123.9375   6.896016   6.033297   6.567708   -40.34375  3130      
7970.5     8.539063   119.6875   6.861456   5.972961   6.139322   -40.375    3080      
7971       8.523438   124.1875   6.611948   5.770894   5.339844   -40.5      3040      
7971.5     8.585938   124.375    6.310788   5.496777   5.946614   -39.375    3040      
7972       8.734375   126.125    6.080674   5.304268   6.303385   -39.75     3050      
7972.5     8.742188   126        5.755908   5.038928   5.720052   -39.25     3060      
7973       8.726563   123.5625   5.61076    4.89367    5.450521   -38.96875  3050      
7973.5     8.71875    122.4375   5.639999   4.941992   5.302083   -38.96875  3040      
7974       8.710938   123        5.690058   5.011374   5.175781   -39.5625   3050      
7974.5     8.734375   122.1875   5.883366   5.132299   5.630208   -40.25     3050      
7975       8.742188   116.4375   5.97683    5.199844   5.398438   -40.78125  3020      
7975.5     8.742188   110.8125   5.697816   4.961683   5.490885   -41.03125  3044      
7976       8.78125    108        5.239151   4.557404   5.802083   -41.375    3054      
7976.5     8.90625    114.6875   5.030533   4.43576    5.300781   -39.625    3030      
7977       8.78125    122.75     4.888357   4.348254   4.997396   -38.09375  3004      
7977.5     8.796875   132.125    4.800125   4.287571   6.216146   -37.03125  3004      
7978       8.78125    133.625    4.909315   4.414653   4.955729   -36.5      2970      
7978.5     8.804688   136.125    5.209248   4.710261   6.317708   -36.5      2960      
7979       8.820313   130.375    5.149287   4.749283   6.0625     -36        2974      
7979.5     8.78125    133.375    5.064466   4.716408   6.032552   -35.46875  2964      
7980       8.796875   130.25     4.87363    4.627258   4.983072   -34.84375  2964      
7980.5     8.859375   133.75     4.706268   4.515425   6.082031   -34.34375  2970      
7981       8.789063   134.5      4.622503   4.462105   5.210938   -33.84375  2974      
7981.5     8.820313   135.25     4.304334   4.199769   4.717447   -33.59375  2990      
7982       9.109375   131.125    4.07658    4.041034   5.928385   -31.96875  2994      
7982.5     8.84375    122.3125   3.891604   3.873298   4.772786   -31.92188  2980      
7983       8.859375   119.0625   3.710749   3.715085   4.384114   -31.54688  2984      
7983.5     8.976563   119.25     3.5783     3.604493   2.97526    -31.04688  3010      
7984       8.867188   120.8125   3.461472   3.553252   2.192057   -30.92188  2994      
7984.5     9.28125    122.1875   3.600367   3.729208   2.746744   -30.8125   3000      
7985       9.023438   125        4.171164   4.338907   3.070313   -31.5      2994      
7985.5     8.578125   114.0625   5.171389   5.410599   2.601563   -33.40625  2984      
7986       8.484375   94.875     6.985118   7.361277   6.479166   -35.1875   2984      
7986.5     8.460938   71.3125    10.25959   10.90238   8          -36.1875   2990      
7987       8.421875   56.78125   14.04      14.96832   7.583333   -37.5625   2974      
7987.5     8.421875   44.03125   19.20866   19.95114   10.0651    -36.875    2980      
7988       8.421875   33.8125    29.00232   29.04306   17.77603   -37.125    3004      
7988.5     8.414063   31.09375   42.46326   40.02847   17.44009   -37.28125  3004      
7989       8.421875   28.85938   53.65529   46.14758   13.3125    -37.03125  3010      
7989.5     8.421875   30.09375   65.85646   51.33722   11.58594   -35.40625  3034      
7990       8.421875   29.89063   76.24651   54.31566   11.96354   -37.1875   3040      
7990.5     8.421875   30.89063   84.2858    56.24637   12.39063   -37.09375  3040      
7991       8.421875   30.48438   83.98412   54.49606   9.791666   -37.125    3070      
7991.5     8.421875   28.40625   75.42006   49.30315   9.28125    -37.625    3070      
7992       8.429688   29.95313   65.80464   44.3094    9.830729   -36.8125   3060      
7992.5     8.429688   33.09375   58.21509   40.29312   10.3776    -37.125    3040      
7993       8.4375     37.125     50.77039   36.25252   10.43229   -37        3014      
7993.5     8.421875   40.65625   43.95023   32.43506   8.415365   -36.875    2984      
7994       8.429688   42.25      38.48688   29.48434   6.893229   -36.75     2984      
7994.5     8.421875   44.90625   35.29811   27.78056   6.696614   -36.34375  3024      
7995       8.429688   47.40625   33.96033   26.72534   6.951822   -36.03125  3054      
7995.5     8.421875   48.78125   32.58286   25.79556   7.848958   -35.90625  3064      
7996       8.429688   52.5625    31.44139   25.09233   8.104166   -35.5625   3080      
7996.5     8.421875   59.4375    30.48647   24.50142   7.769531   -35.9375   3080      
7997       8.429688   64.4375    30.60519   24.159     8.052084   -34.9375   3064      
7997.5     8.421875   68.6875    31.22641   24.00787   8.109375   -35.6875   3054      
7998       8.429688   69.0625    31.4295    23.61633   8.213541   -35.75     3064      
7998.5     8.421875   70.25      30.94704   23.15738   9.088541   -35.53125  3040      
7999       8.429688   69.0625    29.04535   22.05681   8.278646   -35.625    3034      
7999.5     8.421875   62.84375   26.40044   20.35513   7.501302   -35.5625   3060      
8000       8.421875   56.4375    24.6465    19.25072   7.904947   -35.875    3080      
8000.5     8.421875   57.9375    23.56628   18.60944   8.042969   -35.8125   3044      
8001       8.453125   57.03125   22.50716   18.00217   8.205729   -36        3004      
8001.5     8.460938   61.03125   20.68491   16.91901   8.205729   -36.34375  3014      
8002       8.460938   58.375     18.14996   15.25484   7.891927   -35.46875  3080      
8002.5     8.453125   59.78125   16.4705    14.14919   8.11849    -35.9375   3160      
8003       8.460938   58.15625   16.11885   13.95209   8.002604   -36        3064      
8003.5     8.460938   56.9375    15.50207   13.6051    8.058594   -36.40625  3024      
8004       8.460938   60.03125   14.89544   13.25796   7.519531   -36.53125  2974      
