~Version
 VERS              .         3.0                           : CWLS LOG ASCII STANDARD - VERSION 3.0
 WRAP              .         NO                            : ONE LINE PER DEPTH STEP
 DLM               .         SPACE                         : DELIMITING CHARACTER(SPACE TAB OR COMMA)
~Well Information
#_______________________________________________________________________________
#
#PARAMETER_NAME    .UNIT     VALUE                         : DESCRIPTION
#_______________________________________________________________________________
STRT               .ft       7185.5                        : First reference value
STOP               .ft       8158.5                        : Last reference value
STEP               .ft       0.5                           : Step increment
NULL               .         -9999                         : Missing value
COMP               .         UNKNOWN                       : Company
WELL               .         EGBM-008                      : Well name
FLD                .         EGBEMA                        : Field
LOC                .                                       : Location
SRVC               .                                       : Service Company
CTRY               .                                       : Country
DATE               .         1982/08/24                    : Service Date
LATI               .         5.5418848363                  : Latitude
LONG               .         6.7703148139                  : Longitude
GDAT               .                                       : Geodetic Datum
APIN               .         10800/01                      : 
BHT                .degF     170                           : 
BLI                .ft       8140                          : 
BS                 .in       8.5                           : 
COMPANY            .         UNKNOWN                       : 
CREATION-TIME      .         1982/8/24 0_0                 : 
CSIZ               .in       9.625                         : 
DFD                .lbm/gal  9.800001                      : 
DFT                .         CMC POLYMER                   : 
DFV                .s        -999.25                       : 
EDF                .         82.00000                      : 
ELZ                .ohm.m    -999.25                       : 
ENGI               .         phcon2                        : 
FIELD-NAME         .         EGBEMA                        : 
FILE-ID            .         SOH18 .4                      : 
FILE-NUMBER        .         0                             : 
FILE-SET-NAME      .                                       : 
FILE-SET-NUMBER    .         0                             : 
FILE-TYPE          .         PTF                           : 
HIDE               .         4540_300_185_8_1_DATE_82/08/24_SOH_18_SEQ_4: 
LCC                .         0                             : 
LMF                .         1                             : 
MCST               .degF     75                            : 
MFST               .degF     75                            : 
MST                .degF     95                            : 
NAME-SPACE-NAME    .         LIS                           : 
NAME-SPACE-VERSION .         0                             : 
PRODUC             .         SHELL(PARASOL)                : 
PRODUCER-CODE      .         0                             : 
PRODUCER-NAME      .         Schlumberger                  : 
PRODUCT            .                                       : 
PROGRAMS           .         INC                           : 
R1                 .         BEAM WIDTH _ 24"              : 
R2                 .         UNABLE TO REACH DRILLERS TD   : 
R3                 .         EXTENSIVE WASHOUT AFFECTS MSFL READINGS: 
R4                 .         DEPTH MATCHED TO RUN 2  LLD AS GR WAS 2FT SHALLOW.: 
R5                 .         LOGGERS TD IS 15FT DEEPER THAN TENSION PICKUP.: 
RMCS               .ohm.m    1.89                          : 
RMFS               .ohm.m    0.6                           : 
RMS                .ohm.m    0.5320001                     : 
TCS                .h        -999.25                       : 
TDD                .ft       8188                          : 
TDL                .ft       8155                          : 
TLI                .ft       7200                          : 
VERSION            .         2P01                          : 
WELL-ID            .         10800/01                      : 
WELL-NAME          .         EGBM-008                      : 
WITN               .         phcon2                        : 
WN                 .         EGBM-008                      : 
~Parameter Information Block
#_______________________________________________________________________________
#
#PARAMETER_NAME    .UNIT     VALUE                         : DESCRIPTION
#_______________________________________________________________________________
SET                .         SOH18 _4_1                    : 
ACQUISITION-PRODUCT .         DLIS/U                        : 
COMPANY            .         UNKNOWN                       : 
CREATION-TIME      .         2026/5/13 12_11               : 
DLIS_FRAME_DIRECTION .         INCREASING                    : 
DLIS_FRAME_NAME    .         1                             : 
DLIS_FRAME_SPACING .ft       0.5                           : 
FIELD-NAME         .         EGBEMA                        : 
FILE-ID            .         SOH18 .4                      : 
FILE-NUMBER        .         4                             : 
FILE-SET-NAME      .         LIS-TO-DLIS-CONVERSION        : 
FILE-SET-NUMBER    .         9191                          : 
FILE-TYPE          .         PTF                           : 
INDEX-TYPE         .         BOREHOLE-DEPTH                : 
NAME-SPACE-NAME    .                                       : 
NAME-SPACE-VERSION .         0                             : 
OriginalDatasetName .         1                             : 
PRODUCER-CODE      .         440                           : 
PRODUCER-NAME      .         Schlumberger                  : 
PRODUCT            .         DLIS/U                        : 
PROGRAMS           .         LIS-TO-DLIS                   : 
TLFamily_CAMS      .         Caliper                       : 
TLFamily_DEPT      .         Measured Depth                : 
TLFamily_GRL       .         Gamma Ray                     : 
TLFamily_LL9D      .         Resistivity - Deep            : 
TLFamily_LL9S      .         Resistivity - Medium          : 
TLFamily_MSFL      .         Resistivity - Spherically Focused: 
TLFamily_SPL       .         Spontaneous Potential         : 
TLFamily_TENS      .         Tension                       : 
VERSION            .         0.1                           : 
WELL-ID            .         10800/01                      : 
WELL-NAME          .         EGBM-008                      : 
~Curve Information
#_______________________________________________________________________________
#
#LOGNAME           .UNIT     LOG_ID                        : DESCRIPTION
#_______________________________________________________________________________
DEPT               .ft                                     :  {F}
CAMS               .in                                     :  {F}
GRL                .gAPI                                   :  {F}
LL9D               .ohm.m                                  :  {F}
LL9S               .ohm.m                                  :  {F}
MSFL               .ohm.m                                  :  {F}
SPL                .mV                                     :  {F}
TENS               .                                       :  {F}
~Ascii
# ...
7231       9.710938   113.8125   5.249602   5.255642   3.462239   -31.01563  2840      
7231.5     9.296875   105.5      5.165954   5.148898   5.785156   -31.07813  2810      
7232       10.13281   104        4.873167   4.920928   1.664713   -31.07813  2860      
7232.5     10.95313   103.25     4.514363   4.537322   1.38151    -30.76563  2890      
7233       11.14844   110.125    4.632979   4.648011   1.663736   -30.76563  2830      
7233.5     11.25781   108.375    4.946036   5.015716   2.14095    -30.70313  2870      
7234       11.07031   102.25     5.392847   5.427763   1.883789   -30.45313  2850      
7234.5     10.04688   96.75      5.717418   5.768888   3.286458   -30.39063  2884      
7235       9.179688   92.25      5.579926   5.616819   5.675781   -30.34375  2904      
7235.5     9.460938   92.9375    5.262269   5.331367   3.951822   -30.84375  2860      
7236       9.945313   93.9375    4.999995   5.069145   1.516602   -31.09375  2850      
7236.5     10.58594   103.25     4.680332   4.749524   1.254883   -30.96875  2850      
7237       9.78125    108.0625   4.609098   4.710534   1.498697   -30.53125  2874      
7237.5     9.953125   113.9375   4.771256   4.843102   2.858072   -30.59375  2870      
7238       9.757813   114.3125   4.777487   4.865202   2.140625   -30.67188  2870      
7238.5     10.09375   114.125    4.999595   5.035541   2.68815    -30.54688  2870      
7239       9.765625   111.75     5.36667    5.42593    2.42513    -30.57813  2864      
7239.5     9.664063   107.3125   5.442493   5.517698   3.432942   -30.70313  2920      
7240       9.429688   107.4375   5.259013   5.336064   2.959635   -31.26563  2890      
7240.5     9.164063   108.875    5.261908   5.332177   3.423828   -30.57813  2814      
7241       10.07813   106        4.916593   5.014335   1.673177   -31.07813  2774      
7241.5     10.76563   103.9375   4.649198   4.700465   2.12565    -31.32813  2840      
7242       10.6875    102.3125   5.102952   5.110806   1.601236   -30.95313  2964      
7242.5     10.76563   107        5.436053   5.439172   1.279622   -30.76563  2964      
7243       9.296875   111.6875   5.578376   5.586874   2.69401    -30.59375  2854      
7243.5     9.742188   108.6875   5.912786   5.899538   4.951822   -31.09375  2824      
7244       9.203125   101.5      6.000114   5.994536   4.972656   -31.03125  2860      
7244.5     9.21875    94         6.170691   6.162752   5.441406   -31.34375  2880      
7245       9.085938   94.6875    6.005475   6.027024   4.94401    -31.65625  2850      
7245.5     8.984375   94.625     6.025018   6.048518   5.632813   -31.09375  2860      
7246       8.96875    93.375     5.99952    6.033629   5.236979   -30.73438  2860      
7246.5     8.984375   89.625     5.726028   5.739372   5.59375    -31.35938  2790      
7247       9.515625   93.4375    5.404303   5.388908   4.123047   -31.29688  2820      
7247.5     10.83594   97         5.186721   5.168764   1.954427   -30.25     2844      
7248       11.26563   100.125    4.910303   4.938047   2.009439   -29.5625   2854      
7248.5     11.51563   101.9375   4.88308    4.907119   2.181641   -29.125    2780      
7249       11.46094   104.6875   4.771602   4.810286   2.176432   -29.01563  2784      
7249.5     11.34375   109.25     4.738631   4.798365   2.151692   -29.09375  2820      
7250       12.03906   114.3125   4.653376   4.746642   1.666992   -29.0625   2850      
7250.5     11.375     111.875    4.547092   4.649649   1.404947   -29.15625  2820      
7251       11.39844   106.5625   4.553399   4.656982   1.436523   -28.46875  2850      
7251.5     11.41406   103.875    4.352923   4.481113   1.433268   -29.29688  2874      
7252       11.63281   103.125    4.303765   4.386955   1.380208   -29.23438  2850      
7252.5     11.94531   109.875    4.210983   4.312125   1.457031   -29.42188  2804      
7253       11.77344   102.25     4.087504   4.179629   1.585611   -29.5      2800      
7253.5     12.10938   103        4.181632   4.268208   1.758463   -29.25     2834      
7254       12.16406   99.9375    4.399622   4.477657   1.523438   -29.28125  2830      
7254.5     12.16406   100.4375   4.58957    4.667509   1.200195   -29.17188  2854      
7255       10.66406   101.4375   4.714028   4.807558   1.839844   -29.48438  2780      
7255.5     9.765625   99.25      4.97412    5.085835   2.276041   -30.10938  2820      
7256       10.01563   102        4.835824   4.969162   5.108072   -29.04688  2810      
7256.5     10.77344   99         4.552651   4.663383   3.062174   -29.5      2824      
7257       11.78125   96.75      4.454578   4.545413   1.218424   -29.375    2810      
7257.5     12.11719   92.6875    4.307675   4.421214   1.494141   -29.45313  2774      
7258       11.63281   90.75      4.176485   4.29517    1.262695   -29.20313  2754      
7258.5     11.32031   94.0625    4.334394   4.409554   1.6722     -29.375    2760      
7259       11         97.6875    4.577876   4.658959   2.134114   -29.03125  2830      
7259.5     10.875     103        4.75278    4.861289   1.618814   -28.96875  2904      
7260       10.80469   101.625    4.805045   4.896033   1.498697   -28.96875  2850      
7260.5     9.570313   98.8125    4.940445   5.042402   4.746744   -29.23438  2830      
7261       10.29688   96.8125    4.988188   5.059216   3.106771   -28.73438  2794      
7261.5     10.26563   99.25      4.901279   4.949357   3.626302   -28.79688  2830      
7262       10.54688   105.125    4.732195   4.754932   2.304036   -29.01563  2804      
7262.5     11.55469   108.75     4.707906   4.720428   2.051758   -28.57813  2784      
7263       11.51563   108.6875   4.462988   4.430226   2.621744   -28.51563  2800      
7263.5     11.92188   106.875    4.478834   4.405886   2.128906   -27.84375  2830      
7264       11.69531   102.375    4.534813   4.481603   1.985352   -27.40625  2804      
7264.5     11.16406   99.1875    4.782434   4.967938   1.588541   -27.03125  2760      
7265       9.328125   94.9375    5.443225   5.202336   1.980143   -26.71875  2780      
7265.5     9.023438   89.75      6.075937   5.746864   2.231771   -26.71875  2814      
7266       8.851563   84.1875    5.896933   5.630583   5.680989   -27.09375  2854      
7266.5     8.695313   76.8125    5.735445   5.429155   5.947916   -26.48438  2934      
7267       8.625      65.5       5.742699   5.461024   5.570313   -26.14063  2840      
7267.5     8.601563   58.6875    5.88203    5.506529   4.710938   -25.64063  2810      
7268       8.601563   59.125     5.981283   5.524401   4.355469   -25.01563  2770      
7268.5     8.5625     64.1875    6.083485   5.516154   4.774739   -24.70313  2884      
7269       8.5625     65.6875    6.334765   5.643751   5.598958   -24.95313  3020      
7269.5     8.539063   57.0625    6.372548   5.628952   4.791666   -25.20313  2950      
7270       8.46875    54.28125   6.356177   5.623968   4.388021   -25.32813  2840      
7270.5     8.476563   54.21875   6.346415   5.656367   4.686197   -25.45313  2760      
7271       8.492188   58.53125   6.723897   5.930404   5.786458   -25.70313  2840      
7271.5     8.5        53.96875   6.887377   5.963617   5.359375   -24.64063  3024      
7272       8.507813   48.71875   6.906855   6.008504   4.705729   -25.39063  2950      
7272.5     8.5        51.6875    6.918162   5.996681   5.572916   -25.76563  2840      
7273       8.5        54.28125   6.948484   6.002772   6.119791   -25.64063  2774      
7273.5     8.5        51.78125   6.271906   5.45527    6.0625     -25.07813  2784      
7274       8.476563   42.5625    5.842615   5.072552   4.536458   -24.39063  2884      
7274.5     8.476563   43.4375    6.083189   5.224121   4.332031   -23.95313  2964      
7275       8.476563   44.625     6.083203   5.232446   4.048828   -23.32813  2870      
7275.5     8.507813   51.46875   6.165493   5.277529   4.178385   -23.07813  2880      
7276       8.46875    48.375     6.385179   5.455311   4.410156   -22.82813  2800      
