~Version
 VERS              .         3.0                           : CWLS LOG ASCII STANDARD - VERSION 3.0
 WRAP              .         NO                            : ONE LINE PER DEPTH STEP
 DLM               .         SPACE                         : DELIMITING CHARACTER(SPACE TAB OR COMMA)
~Well Information
#_______________________________________________________________________________
#
#PARAMETER_NAME    .UNIT     VALUE                         : DESCRIPTION
#_______________________________________________________________________________
STRT               .ft       7185.5                        : First reference value
STOP               .ft       8158.5                        : Last reference value
STEP               .ft       0.5                           : Step increment
NULL               .         -9999                         : Missing value
COMP               .         UNKNOWN                       : Company
WELL               .         EGBM-008                      : Well name
FLD                .         EGBEMA                        : Field
LOC                .                                       : Location
SRVC               .                                       : Service Company
CTRY               .                                       : Country
DATE               .         1982/08/24                    : Service Date
LATI               .         5.5418848363                  : Latitude
LONG               .         6.7703148139                  : Longitude
GDAT               .                                       : Geodetic Datum
APIN               .         10800/01                      : 
BHT                .degF     170                           : 
BLI                .ft       8140                          : 
BS                 .in       8.5                           : 
COMPANY            .         UNKNOWN                       : 
CREATION-TIME      .         1982/8/24 0_0                 : 
CSIZ               .in       9.625                         : 
DFD                .lbm/gal  9.800001                      : 
DFT                .         CMC POLYMER                   : 
DFV                .s        -999.25                       : 
EDF                .         82.00000                      : 
ELZ                .ohm.m    -999.25                       : 
ENGI               .         phcon2                        : 
FIELD-NAME         .         EGBEMA                        : 
FILE-ID            .         SOH18 .4                      : 
FILE-NUMBER        .         0                             : 
FILE-SET-NAME      .                                       : 
FILE-SET-NUMBER    .         0                             : 
FILE-TYPE          .         PTF                           : 
HIDE               .         4540_300_185_8_1_DATE_82/08/24_SOH_18_SEQ_4: 
LCC                .         0                             : 
LMF                .         1                             : 
MCST               .degF     75                            : 
MFST               .degF     75                            : 
MST                .degF     95                            : 
NAME-SPACE-NAME    .         LIS                           : 
NAME-SPACE-VERSION .         0                             : 
PRODUC             .         SHELL(PARASOL)                : 
PRODUCER-CODE      .         0                             : 
PRODUCER-NAME      .         Schlumberger                  : 
PRODUCT            .                                       : 
PROGRAMS           .         INC                           : 
R1                 .         BEAM WIDTH _ 24"              : 
R2                 .         UNABLE TO REACH DRILLERS TD   : 
R3                 .         EXTENSIVE WASHOUT AFFECTS MSFL READINGS: 
R4                 .         DEPTH MATCHED TO RUN 2  LLD AS GR WAS 2FT SHALLOW.: 
R5                 .         LOGGERS TD IS 15FT DEEPER THAN TENSION PICKUP.: 
RMCS               .ohm.m    1.89                          : 
RMFS               .ohm.m    0.6                           : 
RMS                .ohm.m    0.5320001                     : 
TCS                .h        -999.25                       : 
TDD                .ft       8188                          : 
TDL                .ft       8155                          : 
TLI                .ft       7200                          : 
VERSION            .         2P01                          : 
WELL-ID            .         10800/01                      : 
WELL-NAME          .         EGBM-008                      : 
WITN               .         phcon2                        : 
WN                 .         EGBM-008                      : 
~Parameter Information Block
#_______________________________________________________________________________
#
#PARAMETER_NAME    .UNIT     VALUE                         : DESCRIPTION
#_______________________________________________________________________________
SET                .         SOH18 _4_1                    : 
ACQUISITION-PRODUCT .         DLIS/U                        : 
COMPANY            .         UNKNOWN                       : 
CREATION-TIME      .         2026/5/13 12_11               : 
DLIS_FRAME_DIRECTION .         INCREASING                    : 
DLIS_FRAME_NAME    .         1                             : 
DLIS_FRAME_SPACING .ft       0.5                           : 
FIELD-NAME         .         EGBEMA                        : 
FILE-ID            .         SOH18 .4                      : 
FILE-NUMBER        .         4                             : 
FILE-SET-NAME      .         LIS-TO-DLIS-CONVERSION        : 
FILE-SET-NUMBER    .         9191                          : 
FILE-TYPE          .         PTF                           : 
INDEX-TYPE         .         BOREHOLE-DEPTH                : 
NAME-SPACE-NAME    .                                       : 
NAME-SPACE-VERSION .         0                             : 
OriginalDatasetName .         1                             : 
PRODUCER-CODE      .         440                           : 
PRODUCER-NAME      .         Schlumberger                  : 
PRODUCT            .         DLIS/U                        : 
PROGRAMS           .         LIS-TO-DLIS                   : 
TLFamily_CAMS      .         Caliper                       : 
TLFamily_DEPT      .         Measured Depth                : 
TLFamily_GRL       .         Gamma Ray                     : 
TLFamily_LL9D      .         Resistivity - Deep            : 
TLFamily_LL9S      .         Resistivity - Medium          : 
TLFamily_MSFL      .         Resistivity - Spherically Focused: 
TLFamily_SPL       .         Spontaneous Potential         : 
TLFamily_TENS      .         Tension                       : 
VERSION            .         0.1                           : 
WELL-ID            .         10800/01                      : 
WELL-NAME          .         EGBM-008                      : 
~Curve Information
#_______________________________________________________________________________
#
#LOGNAME           .UNIT     LOG_ID                        : DESCRIPTION
#_______________________________________________________________________________
DEPT               .ft                                     :  {F}
CAMS               .in                                     :  {F}
GRL                .gAPI                                   :  {F}
LL9D               .ohm.m                                  :  {F}
LL9S               .ohm.m                                  :  {F}
MSFL               .ohm.m                                  :  {F}
SPL                .mV                                     :  {F}
TENS               .                                       :  {F}
~Ascii
# ...
7504       8.601563   39.21875   6.284718   5.712077   5.686197   -25.34375  2814      
7504.5     8.585938   33.34375   6.267002   5.70421    5.425781   -24.35938  2800      
7505       8.59375    33.0625    6.228757   5.712548   5.358072   -24.75     2794      
7505.5     8.59375    30.35938   6.314721   5.824297   5.355469   -24.84375  2830      
7506       8.59375    28.42188   6.485076   6.039407   5.723958   -24.95313  2854      
7506.5     8.59375    28.32813   6.512363   6.076467   5.997396   -25.39063  2890      
7507       8.59375    31         6.402634   6.022472   6.15625    -25.53125  2890      
7507.5     8.59375    40.5       6.441412   6.079788   6.177083   -25.57813  2850      
7508       8.601563   49.96875   6.635528   6.247577   6.333333   -26.07813  2804      
7508.5     8.796875   58.3125    7.029931   6.566491   6.488281   -26.65625  2814      
7509       8.867188   65.625     7.487692   6.925407   3.927083   -27.34375  2830      
7509.5     9.46875    75.4375    7.230359   6.732248   2.657552   -26.01563  2830      
7510       9.476563   83.8125    7.104836   6.66734    2.273763   -26.65625  2834      
7510.5     8.875      87.375     7.081298   6.645586   1.706705   -27.96875  2800      
7511       8.734375   79.0625    6.817799   6.47515    5.00651    -28.89063  2810      
7511.5     8.734375   69.3125    6.733833   6.401031   8.242188   -29.45313  2810      
7512       8.6875     63.5       7.054924   6.736744   7.709635   -28.96875  2800      
7512.5     8.6875     64.4375    7.023407   6.664283   6.815104   -28.32813  2800      
7513       8.796875   67.625     6.568272   6.200332   6.020833   -27.32813  2820      
7513.5     8.515625   64.0625    6.188332   5.828932   5.285156   -26.75     2824      
7514       8.523438   59.90625   5.721894   5.454362   4.789063   -26.9375   2810      
7514.5     8.578125   53.78125   5.309964   5.083282   4.545572   -26.71875  2804      
7515       8.65625    51.1875    5.125698   4.861752   4.932291   -25.34375  2810      
7515.5     8.703125   54.65625   5.418338   5.145572   5.266927   -25.17188  2804      
7516       8.726563   52.9375    6.093297   5.683573   4.821614   -24.73438  2810      
7516.5     8.742188   49         6.740083   6.201857   5.709635   -24.04688  2804      
7517       8.625      39.5       7.33832    6.64222    5.872396   -23.9375   2814      
7517.5     8.625      34.90625   7.443309   6.731934   6.010416   -23.625    2820      
7518       8.648438   34.59375   7.22414    6.526047   5.714844   -22.82813  2834      
7518.5     8.65625    36.875     7.15696    6.409934   5.822916   -22.76563  2860      
7519       8.648438   37.6875    7.130091   6.333891   5.997396   -22.54688  2844      
7519.5     8.648438   38         7.117613   6.269707   6.201822   -23.0625   2830      
7520       8.648438   36.84375   6.948017   6.10345    5.863281   -21.9375   2820      
7520.5     8.65625    37.90625   6.626041   5.814557   5.678385   -22.64063  2840      
7521       8.65625    36.53125   6.454386   5.681843   5.46875    -22.70313  2840      
7521.5     8.65625    36         6.514843   5.715261   5.169271   -22.90625  2864      
7522       8.65625    36.625     6.63795    5.824529   5.283854   -23.42188  2854      
7522.5     8.65625    36.90625   6.770459   5.946445   5.617188   -23.14063  2850      
7523       8.65625    36.6875    6.781328   5.976175   5.809896   -23.21875  2830      
7523.5     8.65625    37.3125    6.711626   5.948402   5.832031   -23.26563  2810      
7524       8.695313   39.84375   6.60787    5.843489   5.628906   -23.70313  2824      
7524.5     8.703125   41.28125   6.449512   5.754799   5.401041   -23.78125  2864      
7525       8.726563   43.375     6.37155    5.696297   5.334635   -23.6875   2874      
7525.5     8.695313   42.15625   6.34551    5.658172   4.748697   -23.70313  2834      
7526       8.65625    42.1875    6.265252   5.654432   5.027344   -23.70313  2770      
7526.5     8.65625    39.1875    6.239697   5.674175   5.130208   -24.96875  2774      
7527       8.65625    41.21875   6.688946   6.162069   5.395833   -25.07813  2900      
7527.5     8.710938   46.40625   6.729404   6.240196   5.686197   -25.64063  3054      
7528       8.820313   59.84375   6.738981   6.283916   5.910156   -25.78125  3014      
7528.5     9.242188   75.375     6.736191   6.298552   4.723307   -25.71875  2880      
7529       10.14844   84.375     6.71826    6.325668   1.963216   -25.89063  2864      
7529.5     10.67188   92.875     6.660977   6.366085   3.837891   -26.84375  2854      
7530       10.11719   99         6.452785   6.256841   2.822916   -27.3125   2824      
7530.5     9.992188   94.6875    6.566719   6.538218   2.936197   -27.25     2844      
7531       9.640625   88.0625    6.848091   6.839785   1.133626   -28.70313  2864      
7531.5     9.28125    74.8125    6.835804   6.896567   3.163411   -29.65625  2834      
7532       9.945313   81.375     7.176613   7.194442   3.609375   -30.21875  2850      
7532.5     9.484375   82.9375    6.326797   6.486241   1.160807   -30.26563  2844      
7533       10.35938   93.4375    5.10743    5.344345   1.001627   -30.26563  2824      
7533.5     10.52344   98.0625    4.131945   4.339292   1.747396   -30.0625   2844      
7534       10.67969   98.75      3.354658   3.575575   1.898111   -30        2870      
7534.5     11.5625    97.1875    3.043485   3.252787   1.475586   -30.20313  2870      
7535       11.39063   95.0625    3.005828   3.243542   1.120768   -30.85938  2810      
7535.5     11.16406   99.25      3.116148   3.394777   1.545247   -29.85938  2844      
7536       11.23438   98.5       3.341372   3.64095    1.963541   -29.875    2890      
7536.5     11.63281   102.5      3.551682   3.894599   1.620442   -30.15625  2870      
7537       11.86719   102.75     3.514453   3.906726   1.664713   -30.15625  2874      
7537.5     11.86719   104.8125   3.267814   3.675674   1.81543    -30.28125  2864      
7538       11.32813   99.625     3.140397   3.527184   1.298177   -30.40625  2854      
7538.5     11.84375   101.3125   3.069483   3.452144   1.397786   -30.17188  2840      
7539       11.71094   96.6875    3.034775   3.390212   1.64095    -30.42188  2840      
7539.5     11.42969   92.9375    3.064339   3.424958   1.1722     -30.29688  2844      
7540       11.67969   88         3.066178   3.442194   1.330729   -30.375    2850      
7540.5     11.08594   93.25      3.055611   3.409755   1.305013   -29.84375  2864      
7541       11.6875    99.25      3.112033   3.486392   1.317708   -29.96875  2874      
7541.5     12.19531   101        3.223533   3.571222   1.861328   -30.40625  2860      
7542       12.60156   98.5       3.193861   3.532627   2.378255   -30.34375  2860      
7542.5     12.21094   94.9375    3.145621   3.476059   1.652344   -30.54688  2880      
7543       11.98438   92.0625    3.044847   3.373422   1.61263    -30.42188  2890      
7543.5     12.98438   95.625     2.990145   3.300374   1.674153   -30.54688  2890      
7544       12.5       97.5625    2.952538   3.265734   1.457356   -30.3125   2880      
7544.5     11.97656   99.75      3.053114   3.347411   1.110025   -30.1875   2874      
7545       13         97.3125    3.094732   3.42146    1.030924   -30.57813  2850      
7545.5     11.39063   99.8125    3.455352   3.761003   2.311523   -31.17188  2800      
7546       9.421875   99.25      4.602743   4.925071   2.983724   -30.32813  2864      
7546.5     9.585938   100.25     4.440538   4.807917   4.20638    -30.95313  2984      
7547       10.50781   99.25      4.241978   4.578056   1.981445   -31.07813  2954      
7547.5     11.53125   99.625     3.751887   4.083556   1.499674   -30.57813  2904      
7548       11.55469   99.6875    3.286175   3.565877   2.258789   -30.76563  2930      
7548.5     11.32031   99.9375    3.454094   3.682649   1.73763    -30.70313  2964      
7549       10.875     99.25      3.445559   3.706686   1.420898   -30.51563  2914      
