~Version
 VERS              .         3.0                           : CWLS LOG ASCII STANDARD - VERSION 3.0
 WRAP              .         NO                            : ONE LINE PER DEPTH STEP
 DLM               .         SPACE                         : DELIMITING CHARACTER(SPACE TAB OR COMMA)
~Well Information
#_______________________________________________________________________________
#
#PARAMETER_NAME    .UNIT     VALUE                         : DESCRIPTION
#_______________________________________________________________________________
STRT               .ft       3440                          : First reference value
STOP               .ft       8976                          : Last reference value
STEP               .ft       0.5                           : Step increment
NULL               .         -9999                         : Missing value
COMP               .                                       : Company
WELL               .         EGBM-005                      : Well name
FLD                .         EGBEMA                        : Field
LOC                .                                       : Location
SRVC               .                                       : Service Company
CTRY               .                                       : Country
DATE               .         1966/04/03                    : Service Date
X                  .                                       : X or East-West coordinate
Y                  .                                       : Y or North South coordinate
GDAT               .                                       : Geodetic Datum
HZCS               .                                       : Horizontal Co-ordinate System
APIN               .         10803/01                      : 
BHT                .degF     177                           : 
BLI                .ft       5700                          : 
BS                 .in       9.625                         : 
CREATION-TIME      .         2066/4/3 0_0                  : 
CSIZ               .in       10.75                         : 
DFD                .g/cm3    1.2                           : 
DFT                .         BENT. Q-BROXIN                : 
DFV                .s        0                             : 
ELZ                .         -999.25                       : 
FIELD-NAME         .         EGBEMA                        : 
FILE-ID            .         SOH5  .5                      : 
FILE-NUMBER        .         101                           : 
FILE-SET-NAME      .                                       : 
FILE-SET-NUMBER    .         0                             : 
FILE-TYPE          .         PTF                           : 
HIDE               .         Well/Hole_ EGBM-5  Service Name_ ML  Run Number_ 1: 
LCC                .         0                             : 
LMF                .         1                             : 
MFST               .degF     77                            : 
MST                .degF     87                            : 
NAME-SPACE-NAME    .         LIS                           : 
NAME-SPACE-VERSION .         0                             : 
PRODUC             .         SHELL(PARASOL)                : 
PRODUCER-CODE      .         0                             : 
PRODUCER-NAME      .         Schlumberger                  : 
PRODUCT            .                                       : 
PROGRAMS           .                                       : 
R1                 .         REMARKS_<_techsia_br_>        : 
R2                 .         SHELL LAB. MEASUREMENTS<_techsia_br_>: 
R3                 .         MUD      1.62 OHMS AT 77 DEGF<_techsia_br_>: 
R4                 .         FILTRATE 1.55 OHMS AT 77 DEGF<_techsia_br_>: 
RMCS               .ohm.m    -999.25                       : 
RMFS               .ohm.m    1.55                          : 
RMS                .ohm.m    1.56                          : 
TCS                .h        -999.25                       : 
TDD                .ft       9000                          : 
TDL                .ft       8977                          : 
TLI                .ft       3437                          : 
VERSION            .         2P01                          : 
WELL-ID            .         10803/01                      : 
WELL-NAME          .         EGBM-005                      : 
WN                 .         EGBM-005                      : 
~Parameter Information Block
#_______________________________________________________________________________
#
#PARAMETER_NAME    .UNIT     VALUE                         : DESCRIPTION
#_______________________________________________________________________________
SET                .         SOH3  _1_1                    : 
ACQUISITION-PRODUCT .         DLIS/U                        : 
CREATION-TIME      .         2026/5/13 10_35               : 
DLIS_FRAME_DIRECTION .         INCREASING                    : 
DLIS_FRAME_NAME    .         1                             : 
DLIS_FRAME_SPACING .ft       0.5                           : 
FIELD-NAME         .         EGBEMA                        : 
FILE-ID            .         SOH3  .1                      : 
FILE-NUMBER        .         1                             : 
FILE-SET-NAME      .         LIS-TO-DLIS-CONVERSION        : 
FILE-SET-NUMBER    .         7647                          : 
FILE-TYPE          .         PTF                           : 
INDEX-TYPE         .         BOREHOLE-DEPTH                : 
NAME-SPACE-NAME    .                                       : 
NAME-SPACE-VERSION .         0                             : 
OriginalDatasetName .         1                             : 
PRODUCER-CODE      .         440                           : 
PRODUCER-NAME      .         Schlumberger                  : 
PRODUCT            .         DLIS/U                        : 
PROGRAMS           .         LIS-TO-DLIS                   : 
TLFamily_DEPT      .         Measured Depth                : 
TLFamily_LN        .                                       : 
TLFamily_SN        .         Resistivity - Shallow         : 
TLFamily_SP        .         Spontaneous Potential         : 
VERSION            .         0.1                           : 
WELL-ID            .         10803/01                      : 
WELL-NAME          .         EGBM-005                      : 
~Curve Information
#_______________________________________________________________________________
#
#LOGNAME           .UNIT     LOG_ID                        : DESCRIPTION
#_______________________________________________________________________________
DEPT               .ft                                     :  {F}
LN                 .ohm.m                                  :  {F}
SN                 .ohm.m                                  :  {F}
SP                 .mV                                     :  {F}
~Ascii
# ...
4168       23.50906   15.05046   20.22954  
4168.5     24.71161   15.09235   20        
4169       25.63266   15.18773   20        
4169.5     26.20454   15.29729   20        
4170       26.35483   15.32128   20.25014  
4170.5     26.34596   15.25151   20.53317  
4171       26.00237   15.16943   20.67937  
4171.5     25.65877   15.07941   20.75452  
4172       25.23654   14.9795    20.9507   
4172.5     24.75552   14.98791   21.24104  
4173       24.27451   15.065     21.53137  
4173.5     24.25197   15.16484   21.82172  
4174       24.25197   15.16484   22.07394  
4174.5     24.25952   15.17854   22.31451  
4175       24.36409   15.19453   22.43637  
4175.5     24.46867   15.28551   22.48544  
4176       24.55573   15.41503   22.14178  
4176.5     24.37074   15.60714   21.91113  
4177       24.18576   15.82291   21.99132  
4177.5     24.00076   15.95919   22.01689  
4178       23.937     16.00662   21.91667  
4178.5     23.937     15.96169   21.74315  
4179       23.937     15.91259   21.5573   
4179.5     23.87509   15.75277   21.44795  
4180       23.77892   15.63863   21.56158  
4180.5     23.68272   15.53931   21.73228  
4181       23.58504   15.43053   21.70526  
4181.5     23.48482   15.29975   21.6506   
4182       23.3846    15.24589   21.59593  
4182.5     23.30708   15.21112   21.11353  
4183       23.30708   15.1786    20.52538  
4183.5     23.30708   15.13866   20.06279  
4184       23.30708   15.00838   20        
4184.5     23.30708   14.86449   20        
4185       23.30708   14.80435   20.05118  
4185.5     23.30708   14.75134   20.13133  
4186       23.2784    14.6776    20.02948  
4186.5     23.17818   14.59568   19.83955  
4187       23.07796   14.50232   19.657    
4187.5     22.96072   14.44905   19.50664  
4188       22.74207   14.5387    19.36317  
4188.5     22.52341   14.58459   19.28799  
4189       22.27606   14.44258   19.21281  
4189.5     21.9482    14.13762   19.2126   
4190       21.62032   13.95256   19.22777  
4190.5     21.37369   14.07533   19.3203   
4191       21.25917   14.06496   19.25897  
4191.5     21.14464   13.79733   19.07547  
4192       21.10236   13.67237   19.20908  
4192.5     21.10236   13.62678   19.42548  
4193       21.05663   13.46648   19.52756  
4193.5     20.73587   13.2692    19.52756  
4194       20.47243   13.2603    19.45615  
4194.5     20.33537   13.3124    19.37024  
4195       20.07401   13.3124    18.93361  
4195.5     19.81265   13.23364   18.62831  
4196       19.29111   13.0465    18.42773  
4196.5     18.52129   12.65014   18.42519  
4197       17.51437   12.26485   18.67175  
4197.5     16.33025   12.19111   18.9727   
4198       15.29984   12.07844   18.9192   
4198.5     14.32084   11.82018   18.25421  
4199       13.727     11.28667   17.67128  
4199.5     13.38166   10.57206   17.46114  
4200       13.20939   9.984303   17.06032  
4200.5     13.09242   9.487919   16.92502  
4201       13.0058    8.196896   16.37677  
4201.5     12.9457    7.473109   15.09817  
4202       12.87192   7.012357   13.91741  
4202.5     12.79413   6.805364   14.20864  
4203       12.70667   6.935315   13.70079  
4203.5     12.74356   7.334162   13.25084  
4204       12.84523   7.917199   11.58508  
4204.5     13.06388   8.496113   8.356998  
4205       13.33087   9.089689   6.49894   
4205.5     13.73816   9.604031   5.533534  
4206       14.27144   9.903091   5.263863  
4206.5     14.7253    10.14899   5.280069  
4207       15.2716    10.40225   5.685935  
4207.5     15.84219   10.67346   6.341489  
4208       16.41292   10.90438   6.997463  
4208.5     16.85481   11.05418   7.743914  
4209       17.19658   11.30988   8.812052  
4209.5     17.49031   11.65012   10.21431  
4210       17.75305   11.95925   11.55882  
4210.5     17.98322   12.34239   12.68295  
4211       18.14702   12.78502   14.2445   
4211.5     18.19075   12.9862    16.03423  
4212       18.20471   13.0343    17.45308  
4212.5     18.18694   13.09313   18.25377  
4213       18.13377   13.16484   18.85492  
4213.5     18.00017   13.26097   19.12798  
4214       17.9313    13.33355   19.23518  
4214.5     17.84927   13.35433   19.33534  
4215       17.71808   13.35433   19.45735  
4215.5     17.56799   13.35433   19.48367  
4216       17.3392    13.26493   19.3912   
4216.5     16.97455   13.14714   19.37007  
4217       16.49454   13.09962   19.37007  
4217.5     15.77534   13.05956   19.46397  
4218       15.16557   12.93713   19.47876  
4218.5     14.60224   12.65892   19.3327   
4219       14.02984   12.24845   18.86879  
4219.5     13.45539   11.79677   18.09312  
4220       12.90387   11.21202   17.79527  
4220.5     12.20808   10.58725   17.66008  
4221       11.50312   9.836906   16.57861  
4221.5     10.90294   9.22439    15.53873  
4222       10.30883   8.825003   15.02754  
4222.5     9.709787   8.504486   15.37723  
4223       8.895422   8.355322   14.58785  
4223.5     8.143353   8.210232   14.26382  
4224       7.535031   7.997887   14.43726  
4224.5     7.275068   7.5829     14.66164  
4225       7.099375   7.051697   14.78189  
4225.5     6.949003   6.491146   15.35756  
4226       6.8047     5.801575   15.62464  
4226.5     6.586987   5.240671   14.60256  
4227       6.428333   4.749465   15.16888  
4227.5     6.316743   4.503937   16.97884  
4228       6.185549   4.550477   16.03242  
4228.5     6.054414   4.598425   12.93069  
4229       5.912261   4.546445   11.47353  
4229.5     5.731971   4.41495    11.2332   
4230       5.56951    4.237982   11.26673  
4230.5     5.413306   4.128654   11.65889  
4231       5.244951   3.98933    12.50632  
4231.5     5.065787   3.857883   12.90712  
4232       4.983419   3.792331   12.91338  
4232.5     4.895361   3.696611   13.25514  
4233       4.783645   3.59357    14.4651   
4233.5     4.746659   3.386311   14.60458  
4234       4.718022   3.203646   15.14632  
4234.5     4.701993   3.128517   18.78593  
4235       4.706814   3.102793   19.24702  
4235.5     4.738873   3.149606   19.44734  
4236       4.773243   3.149606   19.88789  
4236.5     4.810229   3.135643   20.43472  
4237       4.910864   3.110338   21.20177  
4237.5     5.065557   3.087687   21.73137  
4238       5.253435   3.104861   22.03656  
4238.5     5.472071   3.127265   22.37277  
4239       5.712578   3.16733    22.4821   
4239.5     6.004566   3.248723   22.459    
4240       6.321126   3.438846   22.36653  
4240.5     6.661945   3.715326   22.64861  
4241       7.112391   3.991806   22.87625  
4241.5     7.619359   4.355077   22.9855   
4242       8.160902   4.735208   22.61557  
4242.5     8.747847   5.272751   22.0625   
4243       9.277855   6.086956   20.49268  
4243.5     9.896383   7.183447   17.14581  
4244       10.84875   8.61615    16.45204  
4244.5     12.11078   9.84865    16.67355  
4245       13.6004    11.0664    17.16281  
4245.5     15.28947   12.02238   17.76378  
4246       16.70393   12.64482   18.30595  
4246.5     17.96346   13.14367   18.82115  
4247       19.1077    13.57295   19.29134  
4247.5     19.81612   13.911     19.72073  
4248       20.09932   14.23003   19.96124  
4248.5     21.20891   14.58268   19.92796  
4249       22.18593   14.96216   19.84134  
4249.5     23.04462   15.18258   19.60101  
4250       23.90329   15.2126    19.36224  
4250.5     24.76196   15.22285   19.16193  
4251       25.4729    15.28245   18.94287  
4251.5     26.14839   15.4695    18.70242  
4252       26.40146   15.65639   18.58267  
4252.5     26.65451   15.74058   18.60088  
4253       26.69569   15.80958   18.90297  
4253.5     26.55431   15.88355   19.3237   
4254       26.40352   15.9731    19.74443  
4254.5     26.23178   16.11014   20.20979  
4255       26.32225   16.43195   20.67276  
4255.5     26.70183   16.83336   20.87308  
4256       27.08142   17.11182   21.33046  
4256.5     27.36552   17.39029   21.88976  
4257       27.64832   17.75145   21.88976  
4257.5     28.10056   18.35304   21.75774  
4258       28.60667   18.81668   21.41122  
4258.5     29.0484    18.98714   21.3019   
