~Version
 VERS              .         3.0                           : CWLS LOG ASCII STANDARD - VERSION 3.0
 WRAP              .         NO                            : ONE LINE PER DEPTH STEP
 DLM               .         SPACE                         : DELIMITING CHARACTER(SPACE TAB OR COMMA)
~Well Information
#_______________________________________________________________________________
#
#PARAMETER_NAME    .UNIT     VALUE                         : DESCRIPTION
#_______________________________________________________________________________
STRT               .ft       3440                          : First reference value
STOP               .ft       8976                          : Last reference value
STEP               .ft       0.5                           : Step increment
NULL               .         -9999                         : Missing value
COMP               .                                       : Company
WELL               .         EGBM-005                      : Well name
FLD                .         EGBEMA                        : Field
LOC                .                                       : Location
SRVC               .                                       : Service Company
CTRY               .                                       : Country
DATE               .         1966/04/03                    : Service Date
X                  .                                       : X or East-West coordinate
Y                  .                                       : Y or North South coordinate
GDAT               .                                       : Geodetic Datum
HZCS               .                                       : Horizontal Co-ordinate System
APIN               .         10803/01                      : 
BHT                .degF     177                           : 
BLI                .ft       5700                          : 
BS                 .in       9.625                         : 
CREATION-TIME      .         2066/4/3 0_0                  : 
CSIZ               .in       10.75                         : 
DFD                .g/cm3    1.2                           : 
DFT                .         BENT. Q-BROXIN                : 
DFV                .s        0                             : 
ELZ                .         -999.25                       : 
FIELD-NAME         .         EGBEMA                        : 
FILE-ID            .         SOH5  .5                      : 
FILE-NUMBER        .         101                           : 
FILE-SET-NAME      .                                       : 
FILE-SET-NUMBER    .         0                             : 
FILE-TYPE          .         PTF                           : 
HIDE               .         Well/Hole_ EGBM-5  Service Name_ ML  Run Number_ 1: 
LCC                .         0                             : 
LMF                .         1                             : 
MFST               .degF     77                            : 
MST                .degF     87                            : 
NAME-SPACE-NAME    .         LIS                           : 
NAME-SPACE-VERSION .         0                             : 
PRODUC             .         SHELL(PARASOL)                : 
PRODUCER-CODE      .         0                             : 
PRODUCER-NAME      .         Schlumberger                  : 
PRODUCT            .                                       : 
PROGRAMS           .                                       : 
R1                 .         REMARKS_<_techsia_br_>        : 
R2                 .         SHELL LAB. MEASUREMENTS<_techsia_br_>: 
R3                 .         MUD      1.62 OHMS AT 77 DEGF<_techsia_br_>: 
R4                 .         FILTRATE 1.55 OHMS AT 77 DEGF<_techsia_br_>: 
RMCS               .ohm.m    -999.25                       : 
RMFS               .ohm.m    1.55                          : 
RMS                .ohm.m    1.56                          : 
TCS                .h        -999.25                       : 
TDD                .ft       9000                          : 
TDL                .ft       8977                          : 
TLI                .ft       3437                          : 
VERSION            .         2P01                          : 
WELL-ID            .         10803/01                      : 
WELL-NAME          .         EGBM-005                      : 
WN                 .         EGBM-005                      : 
~Parameter Information Block
#_______________________________________________________________________________
#
#PARAMETER_NAME    .UNIT     VALUE                         : DESCRIPTION
#_______________________________________________________________________________
SET                .         SOH3  _1_1                    : 
ACQUISITION-PRODUCT .         DLIS/U                        : 
CREATION-TIME      .         2026/5/13 10_35               : 
DLIS_FRAME_DIRECTION .         INCREASING                    : 
DLIS_FRAME_NAME    .         1                             : 
DLIS_FRAME_SPACING .ft       0.5                           : 
FIELD-NAME         .         EGBEMA                        : 
FILE-ID            .         SOH3  .1                      : 
FILE-NUMBER        .         1                             : 
FILE-SET-NAME      .         LIS-TO-DLIS-CONVERSION        : 
FILE-SET-NUMBER    .         7647                          : 
FILE-TYPE          .         PTF                           : 
INDEX-TYPE         .         BOREHOLE-DEPTH                : 
NAME-SPACE-NAME    .                                       : 
NAME-SPACE-VERSION .         0                             : 
OriginalDatasetName .         1                             : 
PRODUCER-CODE      .         440                           : 
PRODUCER-NAME      .         Schlumberger                  : 
PRODUCT            .         DLIS/U                        : 
PROGRAMS           .         LIS-TO-DLIS                   : 
TLFamily_DEPT      .         Measured Depth                : 
TLFamily_LN        .                                       : 
TLFamily_SN        .         Resistivity - Shallow         : 
TLFamily_SP        .         Spontaneous Potential         : 
VERSION            .         0.1                           : 
WELL-ID            .         10803/01                      : 
WELL-NAME          .         EGBM-005                      : 
~Curve Information
#_______________________________________________________________________________
#
#LOGNAME           .UNIT     LOG_ID                        : DESCRIPTION
#_______________________________________________________________________________
DEPT               .ft                                     :  {F}
LN                 .ohm.m                                  :  {F}
SN                 .ohm.m                                  :  {F}
SP                 .mV                                     :  {F}
~Ascii
# ...
5624       13.23275   8.307447   8.87105   
5624.5     12.96576   8.382151   8.67104   
5625       12.87857   8.539806   8.647797  
5625.5     12.79908   8.786676   8.647797  
5626       12.7253    8.939632   8.72678   
5626.5     12.44425   9.132954   8.876835  
5627       12.03844   9.391493   8.931852  
5627.5     11.55895   9.417324   8.861237  
5628       11.09065   9.432041   8.774406  
5628.5     10.7637    9.592365   8.624355  
5629       10.28966   9.578856   8.5166    
5629.5     9.72578    9.27762    8.756725  
5630       9.19302    8.837875   9.352921  
5630.5     8.75271    8.510176   10.03878  
5631       8.380447   8.407135   12.44669  
5631.5     8.068968   8.27799    14.44057  
5632       7.960055   8.111456   15.43445  
5632.5     7.845004   7.906764   16.05486  
5633       7.725121   7.663113   16.9758   
5633.5     7.605236   7.280966   18.61314  
5634       7.526058   6.987038   20.17854  
5634.5     7.468273   6.668789   21.59624  
5635       7.428309   6.459626   22.7216   
5635.5     7.409733   6.316188   23.58887  
5636       7.409733   6.20686    23.95836  
5636.5     7.455584   6.141857   24.35628  
5637       7.542379   6.079158   24.81787  
5637.5     7.689859   6.105856   25.06609  
5638       7.844239   6.238185   25.11151  
5638.5     8.004095   6.4258     24.83456  
5639       8.203243   6.78128    24.33258  
5639.5     8.379829   7.172104   23.55676  
5640       8.523718   7.702996   22.24687  
5640.5     8.70089    8.547812   21.25443  
5641       8.918905   9.485134   20.3338   
5641.5     9.158674   10.34528   18.44612  
5642       9.357553   10.97497   16.92804  
5642.5     9.486717   11.0723    16.24219  
5643       9.505154   10.98363   15.77412  
5643.5     9.42009    10.69177   15.54904  
5644       9.239473   10.32424   15.33336  
5644.5     9.019672   9.913445   15.13323  
5645       8.678576   9.201258   14.34205  
5645.5     8.251421   8.397985   13.32466  
5646       7.800617   7.80938    12.87037  
5646.5     7.369064   7.386701   13.6682   
5647       6.990948   7.041966   15.50933  
5647.5     6.635597   6.752427   17.81311  
5648       6.305985   6.47771    18.87938  
5648.5     6.018283   6.170041   19.7507   
5649       5.802432   5.740639   20.99004  
5649.5     5.624472   5.131812   22.66812  
5650       5.513798   4.644344   24.70921  
5650.5     5.404079   4.268471   26.30147  
5651       5.298888   4.004226   27.51181  
5651.5     5.226962   3.930515   28.47319  
5652       5.211931   3.859787   28.73996  
5652.5     5.285332   3.82434    29.00676  
5653       5.423343   3.822939   28.94891  
5653.5     5.638771   3.863891   28.74883  
5654       5.970564   3.952102   28.54877  
5654.5     6.483478   4.164927   28.16472  
5655       7.10475    4.716887   27.38196  
5655.5     7.919703   5.563932   25.60646  
5656       8.818913   6.543072   22.47958  
5656.5     9.972532   7.539114   17.47917  
5657       11.41691   8.374983   14.49986  
5657.5     12.73555   8.880754   13.04641  
5658       13.18681   8.931091   12.26466  
5658.5     13.0372    8.969854   11.75026  
5659       12.77774   9.071306   11.38659  
5659.5     12.46828   9.304108   11.06634  
5660       12.2504    9.452387   10.84379  
5660.5     12.2181    9.548517   10.64378  
5661       12.38008   9.511257   10.5043   
5661.5     12.59448   9.425892   10.43761  
5662       12.89312   9.345762   10.39186  
5662.5     13.09555   9.258463   10.54192  
5663       13.15549   9.068245   10.69183  
5663.5     13.15821   8.85486    10.69183  
5664       13.0983    8.840239   10.69183  
5664.5     13.01369   8.940287   10.66965  
5665       12.94988   8.962112   10.48501  
5665.5     12.91299   8.910686   10.30586  
5666       12.82809   8.804892   10.1344   
5666.5     12.6902    8.681946   9.955751  
5667       12.38629   8.659454   9.622269  
5667.5     12.07139   8.721098   9.288784  
5668       11.89702   8.841352   9.469631  
5668.5     11.75834   8.94924    9.654026  
5669       11.72272   8.992682   9.814074  
5669.5     11.69989   8.996605   10.04258  
5670       11.67975   8.95962    10.36267  
5670.5     11.67975   8.93524    10.67351  
5671       11.6809    8.91921    10.97361  
5671.5     11.73226   8.923594   11.18945  
5672       11.79654   8.939623   11.26007  
5672.5     11.91643   8.974264   11.31021  
5673       11.98508   9.028746   11.23518  
5673.5     12.02195   9.107265   11.17071  
5674       11.93748   9.133791   11.33076  
5674.5     11.8416    9.116617   11.4844   
5675       11.66603   9.108652   11.56446  
5675.5     11.46357   9.145658   11.6153   
5676       11.24364   9.123175   11.44383  
5676.5     11.1146    9.020407   11.29739  
5677       11.1146    8.908127   11.21459  
5677.5     11.0933    8.860037   11.13179  
5678       11.06334   8.815737   11.04899  
5678.5     11.11736   8.793871   11.03536  
5679       11.23718   8.768604   11.09537  
5679.5     11.31544   8.803194   11.15538  
5680       11.29663   8.893368   11.21813  
5680.5     11.07384   8.906225   11.28132  
5681       10.57625   8.779156   11.297    
5681.5     9.918766   8.639639   11.23381  
5682       9.249027   8.687704   11.17062  
5682.5     8.573574   8.66909    11.28189  
5683       7.904824   8.511423   11.41523  
5683.5     7.155571   8.040886   11.67356  
5684       6.646194   7.544801   12.04305  
5684.5     6.089044   7.238888   12.40485  
5685       5.708814   6.938292   13.0446   
5685.5     5.364067   6.501966   14.40797  
5686       5.189808   5.887389   16.58884  
5686.5     5.072546   5.312003   19.53748  
5687       4.975121   4.64203    22.55913  
5687.5     4.887934   4.007279   24.94591  
5688       4.814869   3.580818   26.96255  
5688.5     4.74639    3.272508   28.12187  
5689       4.677912   3.101496   28.81403  
5689.5     4.615384   3.09201    29.11412  
5690       4.615384   3.254201   29.39079  
5690.5     4.661486   3.557083   29.09068  
5691       4.781301   4.037973   28.22081  
5691.5     4.979086   4.494692   24.26018  
5692       5.194862   4.655369   19.96948  
5692.5     5.415275   4.502763   16.39209  
5693       5.655026   4.198869   15.23399  
5693.5     5.877025   3.870757   17.1759   
5694       6.065606   3.66996    19.48799  
5694.5     6.185496   3.622852   21.08469  
5695       6.334897   3.844954   20.01753  
5695.5     6.619905   4.238806   18.10741  
5696       6.926415   4.755295   16.83653  
5696.5     7.451346   5.641959   14.20492  
5697       8.18726    6.827594   11.04447  
5697.5     9.190325   7.729145   9.156219  
5698       10.39499   7.885341   8.30364   
5698.5     11.53153   8.072386   7.983544  
5699       12.07085   8.174007   7.808526  
5699.5     12.21454   8.188976   7.722751  
5700       12.23634   8.188976   7.395757  
5700.5     12.25009   8.16284    7.133141  
5701       12.31959   8.113974   7.237479  
5701.5     12.49846   8.135792   7.4288    
5702       12.61853   8.17317    7.538132  
5702.5     12.69006   8.169672   7.315937  
5703       12.74218   8.040907   7.064673  
5703.5     12.76167   7.965041   6.972204  
5704       12.66569   8.125114   6.753929  
5704.5     12.68143   8.385509   6.394068  
5705       12.88031   8.303995   5.726045  
5705.5     13.14423   8.183681   5.590717  
5706       13.12983   8.163544   5.51181   
5706.5     12.97155   8.230209   5.51181   
5707       12.87823   8.185568   5.473504  
5707.5     12.95816   8.150915   5.398361  
5708       13.10296   8.343018   5.420704  
5708.5     13.25728   8.530239   5.581     
5709       13.40432   8.500017   5.804314  
5709.5     13.47852   8.384317   6.104891  
5710       13.36364   8.275234   6.29921   
5710.5     13.05685   8.442591   6.29921   
5711       12.71227   8.677187   6.29921   
5711.5     12.50517   8.794651   6.488388  
5712       12.37178   8.836477   6.745992  
5712.5     12.30443   8.836477   7.021562  
5713       12.24836   8.921202   7.32352   
5713.5     12.2017    8.9849     7.724165  
5714       12.22572   8.952908   7.816102  
5714.5     12.33485   8.938251   7.723584  
