~Version
 VERS              .         3.0                           : CWLS LOG ASCII STANDARD - VERSION 3.0
 WRAP              .         NO                            : ONE LINE PER DEPTH STEP
 DLM               .         SPACE                         : DELIMITING CHARACTER(SPACE TAB OR COMMA)
~Well Information
#_______________________________________________________________________________
#
#PARAMETER_NAME    .UNIT     VALUE                         : DESCRIPTION
#_______________________________________________________________________________
STRT               .ft       3440                          : First reference value
STOP               .ft       8976                          : Last reference value
STEP               .ft       0.5                           : Step increment
NULL               .         -9999                         : Missing value
COMP               .                                       : Company
WELL               .         EGBM-005                      : Well name
FLD                .         EGBEMA                        : Field
LOC                .                                       : Location
SRVC               .                                       : Service Company
CTRY               .                                       : Country
DATE               .         1966/04/03                    : Service Date
X                  .                                       : X or East-West coordinate
Y                  .                                       : Y or North South coordinate
GDAT               .                                       : Geodetic Datum
HZCS               .                                       : Horizontal Co-ordinate System
APIN               .         10803/01                      : 
BHT                .degF     177                           : 
BLI                .ft       5700                          : 
BS                 .in       9.625                         : 
CREATION-TIME      .         2066/4/3 0_0                  : 
CSIZ               .in       10.75                         : 
DFD                .g/cm3    1.2                           : 
DFT                .         BENT. Q-BROXIN                : 
DFV                .s        0                             : 
ELZ                .         -999.25                       : 
FIELD-NAME         .         EGBEMA                        : 
FILE-ID            .         SOH5  .5                      : 
FILE-NUMBER        .         101                           : 
FILE-SET-NAME      .                                       : 
FILE-SET-NUMBER    .         0                             : 
FILE-TYPE          .         PTF                           : 
HIDE               .         Well/Hole_ EGBM-5  Service Name_ ML  Run Number_ 1: 
LCC                .         0                             : 
LMF                .         1                             : 
MFST               .degF     77                            : 
MST                .degF     87                            : 
NAME-SPACE-NAME    .         LIS                           : 
NAME-SPACE-VERSION .         0                             : 
PRODUC             .         SHELL(PARASOL)                : 
PRODUCER-CODE      .         0                             : 
PRODUCER-NAME      .         Schlumberger                  : 
PRODUCT            .                                       : 
PROGRAMS           .                                       : 
R1                 .         REMARKS_<_techsia_br_>        : 
R2                 .         SHELL LAB. MEASUREMENTS<_techsia_br_>: 
R3                 .         MUD      1.62 OHMS AT 77 DEGF<_techsia_br_>: 
R4                 .         FILTRATE 1.55 OHMS AT 77 DEGF<_techsia_br_>: 
RMCS               .ohm.m    -999.25                       : 
RMFS               .ohm.m    1.55                          : 
RMS                .ohm.m    1.56                          : 
TCS                .h        -999.25                       : 
TDD                .ft       9000                          : 
TDL                .ft       8977                          : 
TLI                .ft       3437                          : 
VERSION            .         2P01                          : 
WELL-ID            .         10803/01                      : 
WELL-NAME          .         EGBM-005                      : 
WN                 .         EGBM-005                      : 
~Parameter Information Block
#_______________________________________________________________________________
#
#PARAMETER_NAME    .UNIT     VALUE                         : DESCRIPTION
#_______________________________________________________________________________
SET                .         SOH3  _1_1                    : 
ACQUISITION-PRODUCT .         DLIS/U                        : 
CREATION-TIME      .         2026/5/13 10_35               : 
DLIS_FRAME_DIRECTION .         INCREASING                    : 
DLIS_FRAME_NAME    .         1                             : 
DLIS_FRAME_SPACING .ft       0.5                           : 
FIELD-NAME         .         EGBEMA                        : 
FILE-ID            .         SOH3  .1                      : 
FILE-NUMBER        .         1                             : 
FILE-SET-NAME      .         LIS-TO-DLIS-CONVERSION        : 
FILE-SET-NUMBER    .         7647                          : 
FILE-TYPE          .         PTF                           : 
INDEX-TYPE         .         BOREHOLE-DEPTH                : 
NAME-SPACE-NAME    .                                       : 
NAME-SPACE-VERSION .         0                             : 
OriginalDatasetName .         1                             : 
PRODUCER-CODE      .         440                           : 
PRODUCER-NAME      .         Schlumberger                  : 
PRODUCT            .         DLIS/U                        : 
PROGRAMS           .         LIS-TO-DLIS                   : 
TLFamily_DEPT      .         Measured Depth                : 
TLFamily_LN        .                                       : 
TLFamily_SN        .         Resistivity - Shallow         : 
TLFamily_SP        .         Spontaneous Potential         : 
VERSION            .         0.1                           : 
WELL-ID            .         10803/01                      : 
WELL-NAME          .         EGBM-005                      : 
~Curve Information
#_______________________________________________________________________________
#
#LOGNAME           .UNIT     LOG_ID                        : DESCRIPTION
#_______________________________________________________________________________
DEPT               .ft                                     :  {F}
LN                 .ohm.m                                  :  {F}
SN                 .ohm.m                                  :  {F}
SP                 .mV                                     :  {F}
~Ascii
# ...
7444       1.017888   1.2446     40.20636  
7444.5     1.006737   1.256118   40.37547  
7445       1.012193   1.270596   40.2189   
7445.5     1.017649   1.285601   40.06233  
7446       1.023105   1.28128    39.9371   
7446.5     1.028561   1.276729   39.9371   
7447       1.034017   1.275003   39.9371   
7447.5     1.039646   1.261913   39.99168  
7448       1.045647   1.240014   40.16315  
7448.5     1.051648   1.214164   40.1987   
7449       1.057649   1.205473   40.09433  
7449.5     1.06365    1.197003   40.09433  
7450       1.069182   1.18585    40.09433  
7450.5     1.069182   1.170097   39.41194  
7451       1.069182   1.138238   39.15094  
7451.5     1.069182   1.123841   39.29254  
7452       1.069182   1.122543   39.53261  
7452.5     1.069182   1.129895   39.62263  
7453       1.069182   1.145896   39.62263  
7453.5     1.062475   1.142728   39.62263  
7454       1.0552     1.131305   39.69484  
7454.5     1.047924   1.12445    39.84483  
7455       1.040648   1.123195   40.0631   
7455.5     1.034857   1.136528   40.39058  
7456       1.030056   1.149862   40.2955   
7456.5     1.025254   1.160971   40.04402  
7457       1.020453   1.171883   39.77988  
7457.5     1.015652   1.183153   39.88025  
7458       1.010851   1.203721   40.0303   
7458.5     1.006845   1.22429    40.18034  
7459       1.01801    1.242213   39.93622  
7459.5     1.029176   1.253508   39.46626  
7460       1.040341   1.264151   39.14796  
7460.5     1.051507   1.264151   39.06795  
7461       1.062673   1.264151   39.01105  
7461.5     1.080622   1.290857   39.33289  
7462       1.108056   1.318649   39.76921  
7462.5     1.135491   1.359748   40.23045  
7463       1.162926   1.415751   40.40201  
7463.5     1.19036    1.47535    39.80214  
7464       1.194968   1.528283   39.77988  
7464.5     1.194968   1.566265   39.77988  
7465       1.194968   1.576491   39.92365  
7465.5     1.194968   1.555166   40.0677   
7466       1.193358   1.509278   40.21176  
7466.5     1.179508   1.505205   40.20815  
7467       1.165659   1.521944   40.14813  
7467.5     1.151809   1.533022   40.06772  
7468       1.137959   1.512609   39.81052  
7468.5     1.124108   1.487002   39.53021  
7469       1.110259   1.456985   39.18727  
7469.5     1.104692   1.411312   39.25513  
7470       1.118029   1.3206     39.69421  
7470.5     1.131366   1.306203   39.87886  
7471       1.144702   1.293481   39.81381  
7471.5     1.158038   1.28107    39.63371  
7472       1.152361   1.268442   39.46881  
7472.5     1.133408   1.25397    39.521    
7473       1.114454   1.22997    39.57317  
7473.5     1.095502   1.191807   39.63394  
7474       1.076549   1.173409   39.85225  
7474.5     1.069182   1.172782   39.87596  
7475       1.069182   1.202325   39.79103  
7475.5     1.069182   1.223594   40.07681  
7476       1.069182   1.232321   40.36258  
7476.5     1.069182   1.225643   40.56604  
7477       1.069182   1.217091   40.50037  
7477.5     1.069182   1.205091   39.89996  
7478       1.069182   1.196467   39.55466  
7478.5     1.069182   1.206066   39.42833  
7479       1.069182   1.215664   39.30231  
7479.5     1.069182   1.225965   39.1823   
7480       1.058428   1.236876   39.06227  
7480.5     1.04388    1.247788   38.99371  
7481       1.029332   1.245301   38.99371  
7481.5     1.014785   1.235703   39.70261  
7482       1.006289   1.226233   39.93108  
7482.5     1.006289   1.220586   39.67387  
7483       1.006289   1.214939   39.41994  
7483.5     1.006289   1.228694   39.17999  
7484       1.006289   1.249714   39.3268   
7484.5     1.006289   1.293347   39.52689  
7485       1.008439   1.311697   39.6727   
7485.5     1.016717   1.31703    39.76871  
7486       1.024995   1.321961   39.86472  
7486.5     1.033273   1.325961   39.90302  
7487       1.03082    1.329962   39.7645   
7487.5     1.015818   1.333333   39.62598  
7488       1.000814   1.333333   39.48746  
7488.5     0.9858118  1.292684   39.36449  
7489       0.9708089  1.245282   39.24446  
7489.5     0.9558059  1.245282   39.06259  
7490       0.9433963  1.247416   38.66234  
7490.5     0.9433963  1.259416   38.522    
7491       0.9433963  1.249614   38.522    
7491.5     0.9433963  1.225606   38.93243  
7492       0.9433963  1.214948   39.87022  
7492.5     0.9478208  1.21713    39.80629  
7493       0.9539766  1.219312   39.84865  
7493.5     0.9601326  1.222861   39.93442  
7494       0.9662884  1.227224   40.04277  
7494.5     0.9724443  1.231587   40.20946  
7495       0.967696   1.229132   40.39534  
7495.5     0.9559864  1.224331   40.24049  
7496       0.9442768  1.219509   40.08565  
7496.5     0.9325672  1.214544   39.93079  
7497       0.9208578  1.209579   39.78835  
7497.5     0.9119498  1.204613   40.12183  
7498       0.9119498  1.203088   40.45531  
7498.5     0.9119498  1.208735   40.40575  
7499       0.9119498  1.216929   40.19022  
7499.5     0.9131805  1.248922   40.09433  
7500       0.9389004  1.279629   40.09433  
7500.5     1.126356   1.296981   39.61488  
7501       1.118814   1.312214   39.2869   
7501.5     1.099607   1.306887   39.83234  
7502       1.080399   1.311594   40.44826  
7502.5     1.056155   1.317982   40.32809  
7503       1.024841   1.330012   40.10081  
7503.5     0.9935273  1.360524   39.86037  
7504       0.9748429  1.363804   40.24738  
7504.5     0.9748429  1.354217   40.36638  
7505       0.9748429  1.359158   40.15747  
7505.5     0.9748429  1.356389   40.15747  
7506       0.9935988  1.340015   40.15747  
7506.5     1.024576   1.305628   40.40317  
7507       1.055553   1.293563   40.70374  
7507.5     1.086532   1.293563   40.67903  
7508       1.104072   1.307791   40.52879  
7508.5     1.110389   1.358556   40.3651   
7509       1.116707   1.40888    39.88933  
7509.5     1.123024   1.451464   39.76442  
7510       1.129342   1.456828   40.02315  
7510.5     1.132075   1.45221    40.53835  
7511       1.132075   1.441561   40.97363  
7511.5     1.132075   1.432432   41.11829  
7512       1.132075   1.442022   40.67957  
7512.5     1.127722   1.444269   40.75298  
7513       1.119148   1.444269   40.66046  
7513.5     1.110575   1.433104   40.62991  
7514       1.102001   1.41631    40.62991  
7514.5     1.095587   1.383025   40.58397  
7515       1.089583   1.336993   40.50383  
7515.5     1.08358    1.311185   40.27289  
7516       1.077577   1.299843   40.06212  
7516.5     1.071574   1.299843   40.43198  
7517       1.077205   1.303714   40.57913  
7517.5     1.090542   1.299556   40.45834  
7518       1.103878   1.287571   39.85707  
7518.5     1.117215   1.278838   39.5706   
7519       1.130551   1.276577   39.41031  
7519.5     1.138151   1.289655   39.77036  
7520       1.145012   1.305567   40        
7520.5     1.151872   1.322687   39.94389  
7521       1.158731   1.333275   39.85803  
7521.5     1.154828   1.342862   40.43324  
7522       1.126017   1.338394   41.00584  
7522.5     1.097205   1.332404   41.43518  
7523       1.068394   1.314689   41.21417  
7523.5     1.039583   1.294145   41.05328  
7524       1.010772   1.25163    41.27444  
7524.5     0.9819613  1.228395   41.54166  
7525       0.9792519  1.220561   41.80887  
7525.5     0.9851078  1.23144    41.05154  
7526       0.9909636  1.247416   40.73529  
7526.5     0.9968194  1.25267    40.66852  
7527       1.002675   1.245822   40.71448  
7527.5     1.008331   1.241151   40.91493  
7528       1.013667   1.237727   40.26331  
7528.5     1.019003   1.223323   39.76869  
7529       1.024339   1.206203   40.06927  
7529.5     1.029675   1.193535   40.36371  
7530       1.03501    1.202254   40.62816  
7530.5     1.048748   1.214431   40.02689  
7531       1.071256   1.224489   40.00928  
7531.5     1.093763   1.224489   40.45099  
7532       1.116271   1.230852   41.21577  
7532.5     1.132075   1.267134   41.44862  
7533       1.132075   1.349897   41.27811  
7533.5     1.132075   1.420938   40.55322  
7534       1.128374   1.482547   40.15259  
7534.5     1.115395   1.491924   40.31898  
