~Version
 VERS              .         3.0                           : CWLS LOG ASCII STANDARD - VERSION 3.0
 WRAP              .         NO                            : ONE LINE PER DEPTH STEP
 DLM               .         SPACE                         : DELIMITING CHARACTER(SPACE TAB OR COMMA)
~Well Information
#_______________________________________________________________________________
#
#PARAMETER_NAME    .UNIT     VALUE                         : DESCRIPTION
#_______________________________________________________________________________
STRT               .ft       3440                          : First reference value
STOP               .ft       8976                          : Last reference value
STEP               .ft       0.5                           : Step increment
NULL               .         -9999                         : Missing value
COMP               .                                       : Company
WELL               .         EGBM-005                      : Well name
FLD                .         EGBEMA                        : Field
LOC                .                                       : Location
SRVC               .                                       : Service Company
CTRY               .                                       : Country
DATE               .         1966/04/03                    : Service Date
X                  .                                       : X or East-West coordinate
Y                  .                                       : Y or North South coordinate
GDAT               .                                       : Geodetic Datum
HZCS               .                                       : Horizontal Co-ordinate System
APIN               .         10803/01                      : 
BHT                .degF     177                           : 
BLI                .ft       5700                          : 
BS                 .in       9.625                         : 
CREATION-TIME      .         2066/4/3 0_0                  : 
CSIZ               .in       10.75                         : 
DFD                .g/cm3    1.2                           : 
DFT                .         BENT. Q-BROXIN                : 
DFV                .s        0                             : 
ELZ                .         -999.25                       : 
FIELD-NAME         .         EGBEMA                        : 
FILE-ID            .         SOH5  .5                      : 
FILE-NUMBER        .         101                           : 
FILE-SET-NAME      .                                       : 
FILE-SET-NUMBER    .         0                             : 
FILE-TYPE          .         PTF                           : 
HIDE               .         Well/Hole_ EGBM-5  Service Name_ ML  Run Number_ 1: 
LCC                .         0                             : 
LMF                .         1                             : 
MFST               .degF     77                            : 
MST                .degF     87                            : 
NAME-SPACE-NAME    .         LIS                           : 
NAME-SPACE-VERSION .         0                             : 
PRODUC             .         SHELL(PARASOL)                : 
PRODUCER-CODE      .         0                             : 
PRODUCER-NAME      .         Schlumberger                  : 
PRODUCT            .                                       : 
PROGRAMS           .                                       : 
R1                 .         REMARKS_<_techsia_br_>        : 
R2                 .         SHELL LAB. MEASUREMENTS<_techsia_br_>: 
R3                 .         MUD      1.62 OHMS AT 77 DEGF<_techsia_br_>: 
R4                 .         FILTRATE 1.55 OHMS AT 77 DEGF<_techsia_br_>: 
RMCS               .ohm.m    -999.25                       : 
RMFS               .ohm.m    1.55                          : 
RMS                .ohm.m    1.56                          : 
TCS                .h        -999.25                       : 
TDD                .ft       9000                          : 
TDL                .ft       8977                          : 
TLI                .ft       3437                          : 
VERSION            .         2P01                          : 
WELL-ID            .         10803/01                      : 
WELL-NAME          .         EGBM-005                      : 
WN                 .         EGBM-005                      : 
~Parameter Information Block
#_______________________________________________________________________________
#
#PARAMETER_NAME    .UNIT     VALUE                         : DESCRIPTION
#_______________________________________________________________________________
SET                .         SOH3  _1_1                    : 
ACQUISITION-PRODUCT .         DLIS/U                        : 
CREATION-TIME      .         2026/5/13 10_35               : 
DLIS_FRAME_DIRECTION .         INCREASING                    : 
DLIS_FRAME_NAME    .         1                             : 
DLIS_FRAME_SPACING .ft       0.5                           : 
FIELD-NAME         .         EGBEMA                        : 
FILE-ID            .         SOH3  .1                      : 
FILE-NUMBER        .         1                             : 
FILE-SET-NAME      .         LIS-TO-DLIS-CONVERSION        : 
FILE-SET-NUMBER    .         7647                          : 
FILE-TYPE          .         PTF                           : 
INDEX-TYPE         .         BOREHOLE-DEPTH                : 
NAME-SPACE-NAME    .                                       : 
NAME-SPACE-VERSION .         0                             : 
OriginalDatasetName .         1                             : 
PRODUCER-CODE      .         440                           : 
PRODUCER-NAME      .         Schlumberger                  : 
PRODUCT            .         DLIS/U                        : 
PROGRAMS           .         LIS-TO-DLIS                   : 
TLFamily_DEPT      .         Measured Depth                : 
TLFamily_LN        .                                       : 
TLFamily_SN        .         Resistivity - Shallow         : 
TLFamily_SP        .         Spontaneous Potential         : 
VERSION            .         0.1                           : 
WELL-ID            .         10803/01                      : 
WELL-NAME          .         EGBM-005                      : 
~Curve Information
#_______________________________________________________________________________
#
#LOGNAME           .UNIT     LOG_ID                        : DESCRIPTION
#_______________________________________________________________________________
DEPT               .ft                                     :  {F}
LN                 .ohm.m                                  :  {F}
SN                 .ohm.m                                  :  {F}
SP                 .mV                                     :  {F}
~Ascii
# ...
8536       1.619475   1.785722   48.69856  
8536.5     1.657916   1.831105   48.4299   
8537       1.696358   1.870022   48.04837  
8537.5     1.713291   1.892188   47.66684  
8538       1.727425   1.906697   47.64151  
8538.5     1.739137   1.91471    47.64151  
8539       1.749581   1.887022   47.92862  
8539.5     1.760026   1.83368    48.42819  
8540       1.720683   1.770239   48.69475  
8540.5     1.653412   1.706914   48.24887  
8541       1.58614    1.673632   48.16051  
8541.5     1.538713   1.664723   48.56023  
8542       1.526071   1.636412   48.85112  
8542.5     1.513428   1.601045   49.05113  
8543       1.500785   1.578625   48.89     
8543.5     1.488142   1.560225   48.69739  
8544       1.483006   1.552828   48.37015  
8544.5     1.490072   1.549606   48.23254  
8545       1.497139   1.549606   48.17804  
8545.5     1.504206   1.549606   48.12354  
8546       1.511272   1.558262   48.20161  
8546.5     1.503882   1.568941   48.3107   
8547       1.4953     1.582033   48.41978  
8547.5     1.486717   1.598059   48.63969  
8548       1.475622   1.617606   48.86824  
8548.5     1.457139   1.634443   49.09674  
8549       1.438657   1.644056   49.32512  
8549.5     1.420175   1.624971   49.5535   
8550       1.398855   1.582754   49.68553  
8550.5     1.377019   1.531672   49.68553  
8551       1.355184   1.483601   49.52289  
8551.5     1.326626   1.466532   49.24625  
8552       1.297795   1.459106   49.47868  
8552.5     1.268965   1.476564   49.65166  
8553       1.245563   1.507311   49.54257  
8553.5     1.224674   1.527865   49.23056  
8554       1.203786   1.549439   48.90533  
8554.5     1.207547   1.586817   49.08531  
8555       1.22356    1.630783   49.26527  
8555.5     1.239574   1.652291   49.32162  
8556       1.255589   1.621765   49.14424  
8556.5     1.259842   1.542958   48.52989  
8557       1.259842   1.507713   48.23026  
8557.5     1.248581   1.481492   48.47884  
8558       1.218552   1.476488   49.05659  
8558.5     1.182969   1.449527   49.05659  
8559       1.132919   1.388008   48.22662  
8559.5     1.08287    1.336227   48.05757  
8560       1.03937    1.307046   48.20749  
8560.5     1.03937    1.30064    48.44437  
8561       1.03937    1.293383   48.74419  
8561.5     1.027497   1.285373   48.69257  
8562       0.996165   1.275788   48.2639   
8562.5     0.9648322  1.258615   47.83554  
8563       0.9448819  1.214794   47.40733  
8563.5     0.9448819  1.118785   47.24579  
8564       0.9448819  1.095427   47.30272  
8564.5     0.9448819  1.092661   47.85602  
8565       0.9448819  1.136142   48.2738   
8565.5     0.9448819  1.152161   48.57391  
8566       0.9686998  1.16818    48.6963   
8566.5     0.976378   1.16823    48.59203  
8567       0.980793   1.163986   48.48775  
8567.5     0.9896926  1.159985   48.42767  
8568       0.9985921  1.130054   48.42767  
8568.5     1.007491   1.092273   48.42767  
8569       1.000458   1.084485   48.48158  
8569.5     0.9927087  1.078833   48.58159  
8570       0.9849596  1.083056   49.16501  
8570.5     0.9772104  1.091412   49.33896  
8571       0.9837745  1.099767   48.91953  
8571.5     0.9920613  1.104912   49.15947  
8572       1.000347   1.10861    49.02852  
8572.5     1.007874   1.10042    48.51639  
8573       1.007874   1.092065   47.6855   
8573.5     1.007874   1.083709   47.48427  
8574       1.007874   1.081243   47.48427  
8574.5     1.007874   1.078953   47.60329  
8575       1.0072     1.07789    47.82816  
8575.5     1.00104    1.081204   47.92146  
8576       0.994881   1.084519   47.84152  
8576.5     0.9887214  1.087834   47.71904  
8577       0.9825617  1.094156   47.54756  
8577.5     0.976402   1.104667   47.52631  
8578       0.9930755  1.115177   47.59296  
8578.5     1.009838   1.125688   47.7636   
8579       1.026601   1.133858   48.21333  
8579.5     1.043364   1.18783    48.66832  
8580       1.060127   1.203149   49.14822  
8580.5     1.070866   1.203149   49.47282  
8581       1.070866   1.203351   49.536    
8581.5     1.070866   1.210749   48.9342   
8582       1.070866   1.231334   48.44814  
8582.5     1.070866   1.279406   48.51128  
8583       1.070866   1.299181   48.57442  
8583.5     1.070866   1.300182   48.53491  
8584       1.070866   1.294843   48.47496  
8584.5     1.070866   1.291338   48.42767  
8585       1.070866   1.291338   48.42767  
8585.5     1.070866   1.291338   48.42767  
8586       1.089062   1.302673   48.82076  
8586.5     1.10995    1.32189    49.19278  
8587       1.130838   1.371979   48.58533  
8587.5     1.142079   1.399676   49.02167  
8588       1.15169    1.395223   49.35764  
8588.5     1.1613     1.391129   49.05035  
8589       1.165354   1.402213   48.94943  
8589.5     1.165354   1.419027   49.22186  
8590       1.165354   1.436783   49.47906  
8590.5     1.165354   1.444786   49.04343  
8591       1.165354   1.448818   48.44377  
8591.5     1.165354   1.448818   48.48346  
8592       1.165354   1.434351   48.7148   
8592.5     1.165354   1.403193   48.51488  
8593       1.165354   1.341461   48.31496  
8593.5     1.165354   1.296875   48.31706  
8594       1.165354   1.293872   48.37706  
8594.5     1.165354   1.294153   48.46074  
8595       1.176069   1.314663   48.67241  
8595.5     1.203777   1.35588    48.88406  
8596       1.231484   1.398023   48.75104  
8596.5     1.259192   1.442627   48.59114  
8597       1.259842   1.477731   48.5849   
8597.5     1.259842   1.500621   48.60699  
8598       1.247478   1.52351    48.69267  
8598.5     1.229817   1.538943   48.77837  
8599       1.262571   1.550955   48.86406  
8599.5     1.295326   1.578511   49.0253   
8600       1.329525   1.637947   49.23952  
8600.5     1.371303   1.758923   49.45374  
8601       1.413079   1.939642   49.66795  
8601.5     1.455134   2.122834   50.02412  
8602       1.498837   2.069379   50.32948  
8602.5     1.542539   1.959055   50.40004  
8603       1.584725   1.959055   50.4706   
8603.5     1.62264    1.921755   50.11739  
8604       1.660553   1.86635    49.79796  
8604.5     1.669291   1.799133   49.49814  
8605       1.669291   1.775101   49.46986  
8605.5     1.670717   1.797533   49.64133  
8606       1.680327   1.832241   49.6299   
8606.5     1.689938   1.884785   49.55495  
8607       1.699548   1.960814   49.52829  
8607.5     1.672255   2.027478   49.57701  
8608       1.639501   2.015474   49.81685  
8608.5     1.606747   1.967545   49.96849  
8609       1.585696   1.88341    49.83522  
8609.5     1.564807   1.774559   49.70193  
8610       1.543919   1.669976   49.42259  
8610.5     1.515868   1.60528    49.12277  
8611       1.487602   1.581263   48.77611  
8611.5     1.48541    1.591034   48.61168  
8612       1.492274   1.639638   48.66882  
8612.5     1.49914    1.691104   48.72595  
8613       1.506005   1.736309   49.01077  
8613.5     1.51181    1.765736   49.38556  
8614       1.51181    1.769181   49.83749  
8614.5     1.51181    1.738222   50.30617  
8615       1.51181    1.732283   50.12152  
8615.5     1.51316    1.732283   49.95177  
8616       1.528174   1.711311   49.81065  
8616.5     1.543189   1.688189   49.70364  
8617       1.558205   1.688189   49.86353  
8617.5     1.573219   1.697837   49.94971  
8618       1.596301   1.694175   49.68553  
8618.5     1.653035   1.632567   49.68553  
8619       1.732283   1.610524   49.80016  
8619.5     1.72913    1.630557   50        
8620       1.694783   1.719526   50        
8620.5     1.669291   1.843281   50        
8621       1.669291   2.066662   50.72304  
8621.5     1.672636   2.350724   51.45609  
8622       1.693525   2.595106   52.33101  
8622.5     1.714414   2.51568    53.29033  
8623       1.74193    2.489842   54.46809  
8623.5     1.808677   2.637396   54.94775  
8624       1.875423   3.010678   55.41727  
8624.5     2.078271   2.936907   55.83717  
8625       2.307138   2.929791   56.25708  
8625.5     2.490498   3.082446   57.01056  
8626       2.564385   3.19295    58.03827  
8626.5     2.620707   3.09705    58.41109  
