~Version
 VERS              .         3.0                           : CWLS LOG ASCII STANDARD - VERSION 3.0
 WRAP              .         NO                            : ONE LINE PER DEPTH STEP
 DLM               .         SPACE                         : DELIMITING CHARACTER(SPACE TAB OR COMMA)
~Well Information
#_______________________________________________________________________________
#
#PARAMETER_NAME    .UNIT     VALUE                         : DESCRIPTION
#_______________________________________________________________________________
STRT               .ft       3440                          : First reference value
STOP               .ft       8976                          : Last reference value
STEP               .ft       0.5                           : Step increment
NULL               .         -9999                         : Missing value
COMP               .                                       : Company
WELL               .         EGBM-005                      : Well name
FLD                .         EGBEMA                        : Field
LOC                .                                       : Location
SRVC               .                                       : Service Company
CTRY               .                                       : Country
DATE               .         1966/04/03                    : Service Date
X                  .                                       : X or East-West coordinate
Y                  .                                       : Y or North South coordinate
GDAT               .                                       : Geodetic Datum
HZCS               .                                       : Horizontal Co-ordinate System
APIN               .         10803/01                      : 
BHT                .degF     177                           : 
BLI                .ft       5700                          : 
BS                 .in       9.625                         : 
CREATION-TIME      .         2066/4/3 0_0                  : 
CSIZ               .in       10.75                         : 
DFD                .g/cm3    1.2                           : 
DFT                .         BENT. Q-BROXIN                : 
DFV                .s        0                             : 
ELZ                .         -999.25                       : 
FIELD-NAME         .         EGBEMA                        : 
FILE-ID            .         SOH5  .5                      : 
FILE-NUMBER        .         101                           : 
FILE-SET-NAME      .                                       : 
FILE-SET-NUMBER    .         0                             : 
FILE-TYPE          .         PTF                           : 
HIDE               .         Well/Hole_ EGBM-5  Service Name_ ML  Run Number_ 1: 
LCC                .         0                             : 
LMF                .         1                             : 
MFST               .degF     77                            : 
MST                .degF     87                            : 
NAME-SPACE-NAME    .         LIS                           : 
NAME-SPACE-VERSION .         0                             : 
PRODUC             .         SHELL(PARASOL)                : 
PRODUCER-CODE      .         0                             : 
PRODUCER-NAME      .         Schlumberger                  : 
PRODUCT            .                                       : 
PROGRAMS           .                                       : 
R1                 .         REMARKS_<_techsia_br_>        : 
R2                 .         SHELL LAB. MEASUREMENTS<_techsia_br_>: 
R3                 .         MUD      1.62 OHMS AT 77 DEGF<_techsia_br_>: 
R4                 .         FILTRATE 1.55 OHMS AT 77 DEGF<_techsia_br_>: 
RMCS               .ohm.m    -999.25                       : 
RMFS               .ohm.m    1.55                          : 
RMS                .ohm.m    1.56                          : 
TCS                .h        -999.25                       : 
TDD                .ft       9000                          : 
TDL                .ft       8977                          : 
TLI                .ft       3437                          : 
VERSION            .         2P01                          : 
WELL-ID            .         10803/01                      : 
WELL-NAME          .         EGBM-005                      : 
WN                 .         EGBM-005                      : 
~Parameter Information Block
#_______________________________________________________________________________
#
#PARAMETER_NAME    .UNIT     VALUE                         : DESCRIPTION
#_______________________________________________________________________________
SET                .         SOH3  _1_1                    : 
ACQUISITION-PRODUCT .         DLIS/U                        : 
CREATION-TIME      .         2026/5/13 10_35               : 
DLIS_FRAME_DIRECTION .         INCREASING                    : 
DLIS_FRAME_NAME    .         1                             : 
DLIS_FRAME_SPACING .ft       0.5                           : 
FIELD-NAME         .         EGBEMA                        : 
FILE-ID            .         SOH3  .1                      : 
FILE-NUMBER        .         1                             : 
FILE-SET-NAME      .         LIS-TO-DLIS-CONVERSION        : 
FILE-SET-NUMBER    .         7647                          : 
FILE-TYPE          .         PTF                           : 
INDEX-TYPE         .         BOREHOLE-DEPTH                : 
NAME-SPACE-NAME    .                                       : 
NAME-SPACE-VERSION .         0                             : 
OriginalDatasetName .         1                             : 
PRODUCER-CODE      .         440                           : 
PRODUCER-NAME      .         Schlumberger                  : 
PRODUCT            .         DLIS/U                        : 
PROGRAMS           .         LIS-TO-DLIS                   : 
TLFamily_DEPT      .         Measured Depth                : 
TLFamily_LN        .                                       : 
TLFamily_SN        .         Resistivity - Shallow         : 
TLFamily_SP        .         Spontaneous Potential         : 
VERSION            .         0.1                           : 
WELL-ID            .         10803/01                      : 
WELL-NAME          .         EGBM-005                      : 
~Curve Information
#_______________________________________________________________________________
#
#LOGNAME           .UNIT     LOG_ID                        : DESCRIPTION
#_______________________________________________________________________________
DEPT               .ft                                     :  {F}
LN                 .ohm.m                                  :  {F}
SN                 .ohm.m                                  :  {F}
SP                 .mV                                     :  {F}
~Ascii
# ...
5260       5.080066   4.965623   6.286221  
5260.5     5.065084   5.020083   5.826205  
5261       5.043871   5.009249   5.456947  
5261.5     5.009614   4.940555   5.216822  
5262       4.952991   4.826155   5.321152  
5262.5     4.873115   4.703146   5.847067  
5263       4.815764   4.631048   5.869849  
5263.5     4.758575   4.565349   5.756731  
5264       4.694657   4.470022   5.669282  
5264.5     4.628275   4.321602   5.909234  
5265       4.554534   4.059369   6.84784   
5265.5     4.461485   3.813841   8.927301  
5266       4.3525     3.716536   10.72738  
5266.5     4.243514   3.716536   13.74566  
5267       4.180582   3.669714   15.42244  
5267.5     4.146319   3.540542   16.62325  
5268       4.166302   3.300018   17.82433  
5268.5     4.187772   3.05955    18.48598  
5269       4.210598   2.895788   19.00844  
5269.5     4.233425   2.883682   20.01016  
5270       4.312698   2.936257   20.75076  
5270.5     4.430795   3.104103   20.56465  
5271       4.605086   3.50626    19.85396  
5271.5     4.944455   4.060113   19.19901  
5272       5.285347   4.893524   17.08791  
5272.5     5.66223    5.58165    12.15621  
5273       5.962654   5.888785   8.932974  
5273.5     6.258787   6.220654   7.650115  
5274       6.498555   6.587059   6.971757  
5274.5     6.720681   6.805637   6.633363  
5275       6.912633   6.666569   7.002854  
5275.5     7.032967   6.253122   7.572853  
5276       7.031602   5.883189   8.472889  
5276.5     7.011633   5.808725   10.26935  
5277       7.027999   6.181581   12.1538   
5277.5     7.149953   6.674501   11.25526  
5278       7.440272   7.192775   8.943491  
5278.5     7.787757   7.512723   6.837868  
5279       8.147318   7.649272   6.256852  
5279.5     8.50688    7.714869   5.731667  
5280       8.768923   7.770606   5.336167  
5280.5     8.96137    7.84004    4.961037  
5281       9.01099    7.937008   4.822953  
5281.5     9.016901   7.937008   4.756256  
5282       9.046864   7.780114   4.68956   
5282.5     9.078213   7.734715   4.622866  
5283       9.121805   7.906451   4.545424  
5283.5     9.184095   8.060736   4.278633  
5284       9.237776   7.82642    3.863236  
5284.5     9.257757   7.565747   3.816954  
5285       9.192116   7.539828   4.278554  
5285.5     9.067799   7.808978   4.512275  
5286       9.049408   8.096016   4.103818  
5286.5     9.347281   8.230835   3.553143  
5287       9.714006   8.097689   3.137623  
5287.5     9.733126   7.789498   3.028543  
5288       9.743797   7.50889    2.880556  
5288.5     9.760925   7.425414   2.709028  
5289       9.79365    7.377313   2.537499  
5289.5     9.828804   7.431379   2.435123  
5290       9.845934   7.464566   2.265749  
5290.5     9.858713   7.348925   1.719965  
5291       9.858713   7.212598   1.509784  
5291.5     9.700462   7.212598   1.42405   
5292       9.652514   7.212598   1.512844  
5292.5     9.652155   7.07394    1.622002  
5293       9.67033    6.905646   1.734249  
5293.5     9.651337   6.780573   2.05434   
5294       9.62611    6.824275   2.35849   
5294.5     9.63563    6.846107   2.35849   
5295       9.735388   6.861136   2.35849   
5295.5     9.762026   6.914267   2.303581  
5296       9.619684   6.934841   2.236884  
5296.5     9.430853   6.862309   2.108049  
5297       9.36272    6.782212   1.90796   
5297.5     9.260422   6.866569   1.69704   
5298       9.086044   6.941991   1.39703   
5298.5     8.925262   6.921486   1.257866  
5299       8.765484   6.727007   1.381519  
5299.5     8.610422   6.601082   1.927303  
5300       8.477238   6.842564   2.673221  
5300.5     8.317417   7.149606   3.26086   
5301       8.272453   7.091589   3.363173  
5301.5     8.24419    6.95511    3.9019    
5302       8.19105    6.894976   4.351918  
5302.5     8.139664   6.928688   4.241688  
5303       8.12323    7.05392    4.081561  
5303.5     8.21913    7.198224   3.939609  
5304       8.476242   7.088895   4.088588  
5304.5     8.8099     6.866141   4.138606  
5305       8.95085    6.86869    4.188623  
5305.5     9.064999   7.006771   4.238642  
5306       9.198202   7.067098   4.37541   
5306.5     9.324961   7.022777   3.965343  
5307       9.222576   6.962861   3.453265  
5307.5     9.12867    7.054132   2.962804  
5308       9.111551   7.030099   2.602607  
5308.5     9.105181   7.023622   2.637166  
5309       8.997515   7.023622   2.797214  
5309.5     8.794285   7.023622   3.275148  
5310       8.756067   6.761289   3.835586  
5310.5     8.801012   6.588715   4.345872  
5311       8.841772   6.984135   4.632554  
5311.5     8.878664   7.128139   4.305086  
5312       9.007858   6.955967   3.977618  
5312.5     9.111559   6.692476   4.020303  
5313       9.117355   6.786716   4.674796  
5313.5     9.116024   7.045373   4.921225  
5314       9.135994   7.078996   5.07107   
5314.5     9.252943   7.029365   5.151093  
5315       9.20966    7.066351   5.188683  
5315.5     9.082748   7.207432   5.188683  
5316       8.953112   7.487067   5.023049  
5316.5     8.833553   7.799726   4.771825  
5317       8.753626   8.171299   4.376062  
5317.5     8.66877    8.377693   4.060589  
5318       8.588249   8.382698   3.930817  
5318.5     8.528305   8.289553   3.96316   
5319       8.556959   8.203686   4.033777  
5319.5     8.66073    8.046396   4.173518  
5320       8.840113   7.805944   4.542798  
5320.5     9.105961   7.565584   4.889991  
5321       9.265783   7.325118   5.180568  
5321.5     9.194599   7.124509   5.088247  
5322       9.046665   7.129102   4.980123  
5322.5     8.873816   7.269125   4.929187  
5323       8.719738   7.454056   5.178833  
5323.5     8.57128    7.571001   4.818637  
5324       8.440498   7.569387   4.645158  
5324.5     8.140263   7.303796   4.632998  
5325       7.841516   6.921191   5.133018  
5325.5     7.561971   6.801714   5.721993  
5326       7.341851   6.803854   6.338713  
5326.5     7.27755    6.855374   6.707996  
5327       7.239843   6.7901     6.88378   
5327.5     7.10654    6.6989     6.803756  
5328       6.633816   6.613032   6.960795  
5328.5     6.004585   6.568542   7.389688  
5329       5.391957   6.565336   7.69909   
5329.5     4.86864    6.63403    7.939157  
5330       4.450089   6.689945   8.602177  
5330.5     4.140448   6.653964   9.54911   
5331       3.92131    6.53377    10.67424  
5331.5     3.818663   6.30738    12.29771  
5332       3.826683   6.085708   15.11337  
5332.5     3.904169   5.504441   17.15831  
5333       3.969561   4.967366   18.04997  
5333.5     3.975002   4.585304   17.78319  
5334       3.957883   4.133036   18.42569  
5334.5     3.807951   3.997632   20.55348  
5335       3.641674   3.845742   21.81226  
5335.5     3.473847   3.721354   22.34622  
5336       3.277873   3.580636   22.78255  
5336.5     3.087927   3.374184   22.68312  
5337       2.920101   3.124373   22.87683  
5337.5     2.7726     2.842496   23.48004  
5338       2.639196   2.597351   24.46114  
5338.5     2.539288   2.385842   25.00693  
5339       2.424938   2.239022   25.44708  
5339.5     2.3051     2.215383   25.81665  
5340       2.220835   2.193235   26.01678  
5340.5     2.140938   2.157107   26.13937  
5341       2.073358   2.130425   26.20607  
5341.5     2.006765   2.122834   26.27199  
5342       1.960992   2.095545   26.33514  
5342.5     1.931028   2.04921    26.39832  
5343       1.920624   2.002896   26.62253  
5343.5     1.932041   1.996885   26.905    
5344       1.943458   1.990873   27.18747  
5344.5     1.939094   1.96324    27.46992  
5345       1.928672   1.971118   27.7011   
5345.5     1.91825    1.997514   27.80116  
5346       1.878764   2.007818   27.72992  
5346.5     1.827405   2.014824   27.58868  
5347       1.768541   2.010815   27.51572  
5347.5     1.708614   2.000392   27.51572  
5348       1.667386   1.95522    27.53441  
5348.5     1.631423   1.883787   27.60716  
5349       1.597577   1.79497    27.67992  
5349.5     1.574751   1.739174   27.75267  
5350       1.551925   1.671822   27.82542  
5350.5     1.529096   1.616981   27.91646  
