~Version
 VERS              .         3.0                           : CWLS LOG ASCII STANDARD - VERSION 3.0
 WRAP              .         NO                            : ONE LINE PER DEPTH STEP
 DLM               .         SPACE                         : DELIMITING CHARACTER(SPACE TAB OR COMMA)
~Well Information
#_______________________________________________________________________________
#
#PARAMETER_NAME    .UNIT     VALUE                         : DESCRIPTION
#_______________________________________________________________________________
STRT               .ft       3440                          : First reference value
STOP               .ft       8976                          : Last reference value
STEP               .ft       0.5                           : Step increment
NULL               .         -9999                         : Missing value
COMP               .                                       : Company
WELL               .         EGBM-005                      : Well name
FLD                .         EGBEMA                        : Field
LOC                .                                       : Location
SRVC               .                                       : Service Company
CTRY               .                                       : Country
DATE               .         1966/04/03                    : Service Date
X                  .                                       : X or East-West coordinate
Y                  .                                       : Y or North South coordinate
GDAT               .                                       : Geodetic Datum
HZCS               .                                       : Horizontal Co-ordinate System
APIN               .         10803/01                      : 
BHT                .degF     177                           : 
BLI                .ft       5700                          : 
BS                 .in       9.625                         : 
CREATION-TIME      .         2066/4/3 0_0                  : 
CSIZ               .in       10.75                         : 
DFD                .g/cm3    1.2                           : 
DFT                .         BENT. Q-BROXIN                : 
DFV                .s        0                             : 
ELZ                .         -999.25                       : 
FIELD-NAME         .         EGBEMA                        : 
FILE-ID            .         SOH5  .5                      : 
FILE-NUMBER        .         101                           : 
FILE-SET-NAME      .                                       : 
FILE-SET-NUMBER    .         0                             : 
FILE-TYPE          .         PTF                           : 
HIDE               .         Well/Hole_ EGBM-5  Service Name_ ML  Run Number_ 1: 
LCC                .         0                             : 
LMF                .         1                             : 
MFST               .degF     77                            : 
MST                .degF     87                            : 
NAME-SPACE-NAME    .         LIS                           : 
NAME-SPACE-VERSION .         0                             : 
PRODUC             .         SHELL(PARASOL)                : 
PRODUCER-CODE      .         0                             : 
PRODUCER-NAME      .         Schlumberger                  : 
PRODUCT            .                                       : 
PROGRAMS           .                                       : 
R1                 .         REMARKS_<_techsia_br_>        : 
R2                 .         SHELL LAB. MEASUREMENTS<_techsia_br_>: 
R3                 .         MUD      1.62 OHMS AT 77 DEGF<_techsia_br_>: 
R4                 .         FILTRATE 1.55 OHMS AT 77 DEGF<_techsia_br_>: 
RMCS               .ohm.m    -999.25                       : 
RMFS               .ohm.m    1.55                          : 
RMS                .ohm.m    1.56                          : 
TCS                .h        -999.25                       : 
TDD                .ft       9000                          : 
TDL                .ft       8977                          : 
TLI                .ft       3437                          : 
VERSION            .         2P01                          : 
WELL-ID            .         10803/01                      : 
WELL-NAME          .         EGBM-005                      : 
WN                 .         EGBM-005                      : 
~Parameter Information Block
#_______________________________________________________________________________
#
#PARAMETER_NAME    .UNIT     VALUE                         : DESCRIPTION
#_______________________________________________________________________________
SET                .         SOH3  _1_1                    : 
ACQUISITION-PRODUCT .         DLIS/U                        : 
CREATION-TIME      .         2026/5/13 10_35               : 
DLIS_FRAME_DIRECTION .         INCREASING                    : 
DLIS_FRAME_NAME    .         1                             : 
DLIS_FRAME_SPACING .ft       0.5                           : 
FIELD-NAME         .         EGBEMA                        : 
FILE-ID            .         SOH3  .1                      : 
FILE-NUMBER        .         1                             : 
FILE-SET-NAME      .         LIS-TO-DLIS-CONVERSION        : 
FILE-SET-NUMBER    .         7647                          : 
FILE-TYPE          .         PTF                           : 
INDEX-TYPE         .         BOREHOLE-DEPTH                : 
NAME-SPACE-NAME    .                                       : 
NAME-SPACE-VERSION .         0                             : 
OriginalDatasetName .         1                             : 
PRODUCER-CODE      .         440                           : 
PRODUCER-NAME      .         Schlumberger                  : 
PRODUCT            .         DLIS/U                        : 
PROGRAMS           .         LIS-TO-DLIS                   : 
TLFamily_DEPT      .         Measured Depth                : 
TLFamily_LN        .                                       : 
TLFamily_SN        .         Resistivity - Shallow         : 
TLFamily_SP        .         Spontaneous Potential         : 
VERSION            .         0.1                           : 
WELL-ID            .         10803/01                      : 
WELL-NAME          .         EGBM-005                      : 
~Curve Information
#_______________________________________________________________________________
#
#LOGNAME           .UNIT     LOG_ID                        : DESCRIPTION
#_______________________________________________________________________________
DEPT               .ft                                     :  {F}
LN                 .ohm.m                                  :  {F}
SN                 .ohm.m                                  :  {F}
SP                 .mV                                     :  {F}
~Ascii
# ...
8900       0.6335502  0.9700788  52.55482  
8900.5     0.6514914  0.9700788  52.7348   
8901       0.6694326  0.9700788  52.91234  
8901.5     0.6873739  0.9700788  52.77907  
8902       0.7053151  0.9647982  52.6458   
8902.5     0.7232563  0.9488002  52.40498  
8903       0.7411977  0.93246    52.14133  
8903.5     0.7512673  0.9155151  52.35953  
8904       0.7440196  0.9028809  52.24034  
8904.5     0.7367719  0.9188789  51.92038  
8905       0.7295243  0.9341131  51.95912  
8905.5     0.7222766  0.9454     52.18414  
8906       0.7159638  0.9566867  52.47491  
8906.5     0.7096696  0.9522291  52.81766  
8907       0.7033755  0.9465809  52.91338  
8907.5     0.6970812  0.9389631  52.88045  
8908       0.6907871  0.9304979  52.65564  
8908.5     0.6907378  0.9268137  52.43794  
8909       0.6907378  0.9285908  52.37125  
8909.5     0.6907378  0.9303677  52.30457  
8910       0.6907378  0.9321446  52.19235  
8910.5     0.6907378  0.948674   52.2121   
8911       0.6907378  0.9664534  52.02859  
8911.5     0.6907378  0.9842329  51.65353  
8912       0.6907378  1.00106    51.65353  
8912.5     0.6907378  1.016324   51.80496  
8913       0.6907378  1.031589   52.30515  
8913.5     0.6907378  1.047214   52.57536  
8914       0.7314827  1.063214   52.75392  
8914.5     0.7737122  1.079214   52.66156  
8915       0.8248392  1.097563   52.62373  
8915.5     0.8791846  1.11676    52.70372  
8916       0.93353    1.135386   52.91235  
8916.5     1.036325   1.156268   53.36238  
8917       1.147959   1.216941   54.03136  
8917.5     1.272089   1.369691   55.36409  
8918       1.397973   1.541536   56.69681  
8918.5     1.510557   1.933795   58.62057  
8919       1.601701   2.11801    60.55849  
8919.5     1.692843   2.244132   62.35693  
8920       1.748265   2.354355   63.95639  
8920.5     1.782432   2.463141   65.56313  
8921       1.848636   2.565766   67.3629   
8921.5     1.923405   2.628159   67.72186  
8922       1.985411   2.642945   67.76694  
8922.5     2.041668   2.642899   67.56686  
8923       2.05293    2.635509   68.19939  
8923.5     2.010737   2.562375   68.86575  
8924       1.972903   2.473151   68.7753   
8924.5     1.950118   2.507086   68.10185  
8925       1.927332   2.504086   67.11882  
8925.5     1.934724   2.480089   66.24077  
8926       1.976315   2.511569   66.05605  
8926.5     2.017908   2.547387   66.71774  
8927       2.020663   2.495113   67.50108  
8927.5     1.975801   2.439617   67.46483  
8928       1.932691   2.3958     66.26874  
8928.5     1.892834   2.347806   65.13733  
8929       1.852978   2.21529    64.73767  
8929.5     1.852433   2.176362   64.40796  
8930       1.843715   2.206182   64.38666  
8930.5     1.812501   2.303112   64.644    
8931       1.781286   2.354734   65.27415  
8931.5     1.760327   2.381008   65.79933  
8932       1.768297   2.453035   66.05638  
8932.5     1.776267   2.442525   65.97003  
8933       1.784237   2.296927   65.71297  
8933.5     1.780004   2.183456   63.72794  
8934       1.750105   2.002108   62.68106  
8934.5     1.720206   1.89549    62.08084  
8935       1.695447   1.833795   60.35739  
8935.5     1.695447   1.791319   59.43292  
8936       1.695447   1.77717    59.28291  
8936.5     1.695447   1.812084   59.40382  
8937       1.701272   1.815917   59.80437  
8937.5     1.717219   1.814173   60.3499   
8938       1.736329   1.836933   59.42657  
8938.5     1.76025    1.922618   59.12204  
8939       1.784172   2.047609   59.25121  
8939.5     1.808094   2.247041   61.22812  
8940       1.82812    2.541472   63.20503  
8940.5     1.843554   2.796596   66.18854  
8941       1.85899    3.022805   69.74202  
8941.5     1.874425   3.156207   73.25087  
8942       1.892588   3.028265   73.97186  
8942.5     1.915009   2.77023    72.14301  
8943       1.937428   2.596477   69.96382  
8943.5     1.959848   2.448092   68.0717   
8944       1.983353   2.321505   66.35617  
8944.5     2.011494   2.236525   64.7626   
8945       2.039635   2.206115   63.59814  
8945.5     2.067775   2.201835   63.07843  
8946       2.095916   2.28912    63.62396  
8946.5     2.088501   2.358717   64.69101  
8947       2.067704   2.386417   65.96608  
8947.5     2.046908   2.351837   66.94846  
8948       2.02203    2.361436   67.72394  
8948.5     1.995459   2.373773   67.91336  
8949       1.968888   2.393755   68.10277  
8949.5     1.942149   2.33867    67.53482  
8950       1.914544   2.277863   65.99246  
8950.5     1.886939   2.213978   64.89296  
8951       1.859334   2.125945   64.39357  
8951.5     1.805226   2.001899   64.61989  
8952       1.742285   1.928324   62.32166  
8952.5     1.687006   1.968962   61.12236  
8953       1.654014   1.994637   61.41647  
8953.5     1.621021   2.000475   62.2135   
8954       1.58803    1.886361   61.15863  
8954.5     1.574741   1.86645    59.79852  
8955       1.58561    1.888841   59.50191  
8955.5     1.596479   1.946391   59.302    
8956       1.596465   2.003941   59.48576  
8956.5     1.587919   2.057189   59.98     
8957       1.579372   2.050346   60.31496  
8957.5     1.570827   1.999555   60.31496  
8958       1.531307   1.944715   60.1507   
8958.5     1.487831   1.88788    60.10451  
8959       1.444354   1.829553   60.13054  
8959.5     1.435086   1.77886    58.75035  
8960       1.425884   1.728764   58.89157  
8960.5     1.416682   1.667459   59.03278  
8961       1.404379   1.606153   59.48743  
8961.5     1.389884   1.574582   57.47469  
8962       1.375388   1.55059    56.39857  
8962.5     1.360893   1.578903   56.63853  
8963       1.33996    1.61569    57.36801  
8963.5     1.300111   1.639514   57.70914  
8964       1.260261   1.625799   56.97112  
8964.5     1.220411   1.612084   56.92656  
8965       1.189331   1.583194   57.30159  
8965.5     1.17737    1.543246   56.97787  
8966       1.165409   1.5124     56.07991  
8966.5     1.153449   1.480429   55.44844  
8967       1.141488   1.442727   55.97348  
8967.5     1.129613   1.408621   56.49852  
8968       1.11898    1.381945   55.42744  
8968.5     1.108349   1.355268   54.94749  
8969       1.097717   1.345069   54.50336  
8969.5     1.087085   1.33547    54.85637  
8970       1.076453   1.370164   55.2094   
8970.5     1.067504   1.412261   56.02515  
8971       1.067504   1.455493   56.87148  
8971.5     1.067504   1.483503   57.07138  
8972       1.067504   1.488664   57.27129  
8972.5     1.071948   1.482265   57.19559  
8973       1.079196   1.401117   57.02417  
8973.5     1.086444   1.329702   56.85274  
8974       1.093692   1.281718   56.08896  
8974.5     1.088551   1.252068   55.25298  
8975       1.051751   1.226812   54.68112  
8975.5     1.014952   1.204949   55.1181   
8976       0.978152   1.190551   55.1181   
