~Version
 VERS              .         3.0                           : CWLS LOG ASCII STANDARD - VERSION 3.0
 WRAP              .         NO                            : ONE LINE PER DEPTH STEP
 DLM               .         SPACE                         : DELIMITING CHARACTER(SPACE TAB OR COMMA)
~Well Information
#_______________________________________________________________________________
#
#PARAMETER_NAME    .UNIT     VALUE                         : DESCRIPTION
#_______________________________________________________________________________
STRT               .ft       3440                          : First reference value
STOP               .ft       8976                          : Last reference value
STEP               .ft       0.5                           : Step increment
NULL               .         -9999                         : Missing value
COMP               .                                       : Company
WELL               .         EGBM-005                      : Well name
FLD                .         EGBEMA                        : Field
LOC                .                                       : Location
SRVC               .                                       : Service Company
CTRY               .                                       : Country
DATE               .         1966/04/03                    : Service Date
X                  .                                       : X or East-West coordinate
Y                  .                                       : Y or North South coordinate
GDAT               .                                       : Geodetic Datum
HZCS               .                                       : Horizontal Co-ordinate System
APIN               .         10803/01                      : 
BHT                .degF     177                           : 
BLI                .ft       5700                          : 
BS                 .in       9.625                         : 
CREATION-TIME      .         2066/4/3 0_0                  : 
CSIZ               .in       10.75                         : 
DFD                .g/cm3    1.2                           : 
DFT                .         BENT. Q-BROXIN                : 
DFV                .s        0                             : 
ELZ                .         -999.25                       : 
FIELD-NAME         .         EGBEMA                        : 
FILE-ID            .         SOH5  .5                      : 
FILE-NUMBER        .         101                           : 
FILE-SET-NAME      .                                       : 
FILE-SET-NUMBER    .         0                             : 
FILE-TYPE          .         PTF                           : 
HIDE               .         Well/Hole_ EGBM-5  Service Name_ ML  Run Number_ 1: 
LCC                .         0                             : 
LMF                .         1                             : 
MFST               .degF     77                            : 
MST                .degF     87                            : 
NAME-SPACE-NAME    .         LIS                           : 
NAME-SPACE-VERSION .         0                             : 
PRODUC             .         SHELL(PARASOL)                : 
PRODUCER-CODE      .         0                             : 
PRODUCER-NAME      .         Schlumberger                  : 
PRODUCT            .                                       : 
PROGRAMS           .                                       : 
R1                 .         REMARKS_<_techsia_br_>        : 
R2                 .         SHELL LAB. MEASUREMENTS<_techsia_br_>: 
R3                 .         MUD      1.62 OHMS AT 77 DEGF<_techsia_br_>: 
R4                 .         FILTRATE 1.55 OHMS AT 77 DEGF<_techsia_br_>: 
RMCS               .ohm.m    -999.25                       : 
RMFS               .ohm.m    1.55                          : 
RMS                .ohm.m    1.56                          : 
TCS                .h        -999.25                       : 
TDD                .ft       9000                          : 
TDL                .ft       8977                          : 
TLI                .ft       3437                          : 
VERSION            .         2P01                          : 
WELL-ID            .         10803/01                      : 
WELL-NAME          .         EGBM-005                      : 
WN                 .         EGBM-005                      : 
~Parameter Information Block
#_______________________________________________________________________________
#
#PARAMETER_NAME    .UNIT     VALUE                         : DESCRIPTION
#_______________________________________________________________________________
SET                .         SOH3  _1_1                    : 
ACQUISITION-PRODUCT .         DLIS/U                        : 
CREATION-TIME      .         2026/5/13 10_35               : 
DLIS_FRAME_DIRECTION .         INCREASING                    : 
DLIS_FRAME_NAME    .         1                             : 
DLIS_FRAME_SPACING .ft       0.5                           : 
FIELD-NAME         .         EGBEMA                        : 
FILE-ID            .         SOH3  .1                      : 
FILE-NUMBER        .         1                             : 
FILE-SET-NAME      .         LIS-TO-DLIS-CONVERSION        : 
FILE-SET-NUMBER    .         7647                          : 
FILE-TYPE          .         PTF                           : 
INDEX-TYPE         .         BOREHOLE-DEPTH                : 
NAME-SPACE-NAME    .                                       : 
NAME-SPACE-VERSION .         0                             : 
OriginalDatasetName .         1                             : 
PRODUCER-CODE      .         440                           : 
PRODUCER-NAME      .         Schlumberger                  : 
PRODUCT            .         DLIS/U                        : 
PROGRAMS           .         LIS-TO-DLIS                   : 
TLFamily_DEPT      .         Measured Depth                : 
TLFamily_LN        .                                       : 
TLFamily_SN        .         Resistivity - Shallow         : 
TLFamily_SP        .         Spontaneous Potential         : 
VERSION            .         0.1                           : 
WELL-ID            .         10803/01                      : 
WELL-NAME          .         EGBM-005                      : 
~Curve Information
#_______________________________________________________________________________
#
#LOGNAME           .UNIT     LOG_ID                        : DESCRIPTION
#_______________________________________________________________________________
DEPT               .ft                                     :  {F}
LN                 .ohm.m                                  :  {F}
SN                 .ohm.m                                  :  {F}
SP                 .mV                                     :  {F}
~Ascii
# ...
7080       6.33787    5.780476   20.38513  
7080.5     6.284322   5.558432   21.20108  
7081       6.230774   5.234575   21.45029  
7081.5     6.155294   5.046373   21.995    
7082       6.07025    5.127569   24.04109  
7082.5     5.959044   5.437654   27.42302  
7083       5.818423   5.990828   27.18524  
7083.5     5.788912   6.749372   24.29597  
7084       5.773737   6.990521   21.72169  
7084.5     5.78642    6.929447   20.66608  
7085       5.799103   6.373644   21.74666  
7085.5     5.804416   5.62758    24.16196  
7086       5.804416   5.333593   27.31212  
7086.5     5.804416   5.291338   30.142    
7087       5.787885   5.271985   31.07086  
7087.5     5.734314   5.216475   30.75311  
7088       5.680744   5.225998   30.2287   
7088.5     5.735647   5.271085   29.76711  
7089       5.795886   5.370818   28.12587  
7089.5     5.891544   5.596427   25.67758  
7090       5.993046   5.940516   22.87216  
7090.5     6.124021   6.014522   21.38365  
7091       6.304736   5.917629   21.90784  
7091.5     6.478592   5.764569   22.4913   
7092       6.634576   5.703099   21.73463  
7092.5     6.78778    5.683074   20.89474  
7093       6.891057   5.843451   20.69461  
7093.5     6.994334   6.023401   19.91098  
7094       7.092074   6.344117   18.54114  
7094.5     7.177119   6.601695   17.11374  
7095       7.258031   6.807778   16.17998  
7095.5     7.290174   6.958985   15.35917  
7096       7.318611   7.088511   14.62904  
7096.5     7.318611   7.218038   14.08326  
7097       7.092822   7.312453   13.65918  
7097.5     6.775187   7.329627   13.66125  
7098       6.444664   7.328119   13.8731   
7098.5     6.059151   7.301362   14.17842  
7099       5.685923   7.151073   14.60732  
7099.5     5.431464   6.887632   15.25802  
7100       5.177006   6.412528   16.60056  
7100.5     4.957941   5.649704   18.85019  
7101       4.751424   4.636376   22.58072  
7101.5     4.553308   4.026068   27.53525  
7102       4.439311   3.903377   32.93872  
7102.5     4.420768   3.881511   34.74139  
7103       4.487259   3.905629   35.37735  
7103.5     4.58041    3.913126   35.27303  
7104       4.680854   3.874016   34.99744  
7104.5     4.755582   3.939758   34.77913  
7105       4.803777   4.245392   34.53839  
7105.5     4.851972   4.72245    33.71739  
7106       4.866145   6.009542   29.86684  
7106.5     4.875414   6.274324   27.29599  
7107       4.884684   6.255024   23.15779  
7107.5     4.883286   5.954332   20.48132  
7108       4.869893   5.468441   21.70827  
7108.5     4.850639   4.780789   24.23994  
7109       4.786387   4.200024   27.55371  
7109.5     4.721049   4.105172   31.20633  
7110       4.649622   4.133234   33.20723  
7110.5     4.578196   4.265089   34.81523  
7111       4.506768   4.467469   34.22748  
7111.5     4.416467   4.687961   32.59575  
7112       4.314507   4.817441   31.22861  
7112.5     4.212546   4.79339    32.33073  
7113       4.116423   4.63687    33.48602  
7113.5     4.041628   4.440035   34.52684  
7114       3.966834   4.25752    35.04369  
7114.5     3.892039   4.060728   35.41882  
7115       3.798106   3.833726   35.74213  
7115.5     3.677629   3.620638   36.04228  
7116       3.56644    3.479153   36.32076  
7116.5     3.474605   3.428522   36.32076  
7117       3.382771   3.377891   36.28883  
7117.5     3.305981   3.370078   36.15544  
7118       3.240257   3.370078   36.02205  
7118.5     3.174535   3.381263   36.25537  
7119       3.119616   3.404169   36.53784  
7119.5     3.069409   3.427075   36.63521  
7120       3.019202   3.412174   36.63521  
7120.5     2.996845   3.383871   35.7771   
7121       2.996845   3.337205   34.84651  
7121.5     2.996845   3.273086   34.84048  
7122       2.996845   3.164978   35.18359  
7122.5     2.996845   3.066983   35.57756  
7123       2.996845   2.985581   35.93292  
7123.5     2.996845   2.951216   36.19395  
7124       2.993175   2.94141    36.45499  
7124.5     2.985643   2.975757   36.66901  
7125       2.978111   3.055071   36.77817  
7125.5     2.97058    3.182341   36.79245  
7126       2.973609   3.335401   36.55498  
7126.5     3.001416   3.401085   36.00105  
7127       3.029223   3.429597   36.04279  
7127.5     3.057031   3.412415   36.30968  
7128       3.08327    3.401574   36.57646  
7128.5     3.109325   3.401574   36.84689  
7129       3.135382   3.401574   37.13277  
7129.5     3.161438   3.401574   37.41864  
7130       3.187531   3.445032   37.57861  
7130.5     3.214305   3.490119   37.57861  
7131       3.241079   3.496062   37.47983  
7131.5     3.267853   3.496062   37.01797  
7132       3.294627   3.569959   36.8607   
7132.5     3.32108    3.684958   36.99409  
7133       3.346909   3.799956   37.03281  
7133.5     3.372737   3.929104   36.55255  
7134       3.398565   4.066566   35.88666  
7134.5     3.422701   4.149229   35.34761  
7135       3.446025   4.217923   35.23845  
7135.5     3.469348   4.174145   35.1293   
7136       3.492671   4.126031   35.10991  
7136.5     3.52415    4.045883   35.20605  
7137       3.560667   3.986287   35.05051  
7137.5     3.597184   3.954227   34.97543  
7138       3.6337     3.94814    34.95992  
7138.5     3.675672   3.972191   35.73151  
7139       3.730441   3.996242   36.38382  
7139.5     3.785211   4.057981   36.65073  
7140       3.838068   4.126699   36.91762  
7140.5     3.888274   4.198259   35.89334  
7141       3.93848    4.297278   34.58768  
7141.5     3.997041   4.396297   33.69705  
7142       4.077368   4.506803   33.05043  
7142.5     4.157695   4.619067   30.96228  
7143       4.221055   4.646626   30.23831  
7143.5     4.269268   4.661417   30.43845  
7144       4.299956   4.661417   31.07191  
7144.5     4.317176   4.661417   31.84866  
7145       4.277583   4.661417   31.99362  
7145.5     4.21734    4.712848   30.14899  
7146       4.164038   4.768343   29.84531  
7146.5     4.164038   4.823838   30.01686  
7147       4.164038   4.938189   30.88586  
7147.5     4.164038   5.093516   30.46935  
7148       4.144241   5.19126    29.54175  
7148.5     4.116434   5.022905   28.47372  
7149       4.088626   4.743628   29.05093  
7149.5     4.05523    4.52497    30.17087  
7150       4.009313   4.441982   32.02654  
7150.5     3.963396   4.405673   34.20174  
7151       3.895546   4.385641   34.63806  
7151.5     3.810501   4.367365   34.18741  
7152       3.735999   4.350182   33.68217  
7152.5     3.682428   4.273995   33.43108  
7153       3.628859   4.173036   34.19518  
7153.5     3.619891   3.976377   34.91553  
7154       3.611857   3.700238   35.47878  
7154.5     3.603824   3.444254   34.99852  
7155       3.594852   3.318666   34.79805  
7155.5     3.569031   3.27559    35.32846  
7156       3.543209   3.27559    36.2522   
7156.5     3.517387   3.28231    36.49168  
7157       3.507806   3.330422   36.51631  
7157.5     3.523873   3.39262    35.99799  
7158       3.53994    3.520859   35.81335  
7158.5     3.556007   3.677395   35.84569  
7159       3.592439   3.939783   35.92821  
7159.5     3.652686   4.259437   35.12769  
7160       3.712934   4.607232   33.0741   
7160.5     3.797932   4.958926   30.75729  
7161       3.935684   5.135569   29.01276  
7161.5     4.098559   5.05142    28.20573  
7162       4.287868   4.633765   28.5332   
7162.5     4.389147   4.415108   30.74544  
7163       4.443916   4.258169   33.40215  
7163.5     4.498685   4.175068   34.48398  
7164       4.498595   4.182763   34.80881  
7164.5     4.482524   4.256736   34.89404  
7165       4.520664   4.327361   34.53386  
7165.5     4.571395   4.396091   34.06223  
7166       4.633033   4.7194     34.22609  
7166.5     4.717406   5.104115   33.84956  
7167       4.801779   5.443618   31.90044  
7167.5     4.905141   5.6391     29.8707   
7168       5.01637    5.62684    29.42053  
7168.5     5.127599   5.566418   28.24254  
7169       5.226734   5.512065   26.89206  
7169.5     5.298141   5.451931   27.6479   
7170       5.369548   5.365883   28.8212   
7170.5     5.440955   5.335048   29.45811  
