~Version
 VERS              .         3.0                           : CWLS LOG ASCII STANDARD - VERSION 3.0
 WRAP              .         NO                            : ONE LINE PER DEPTH STEP
 DLM               .         SPACE                         : DELIMITING CHARACTER(SPACE TAB OR COMMA)
~Well Information
#_______________________________________________________________________________
#
#PARAMETER_NAME    .UNIT     VALUE                         : DESCRIPTION
#_______________________________________________________________________________
STRT               .ft       3440                          : First reference value
STOP               .ft       8976                          : Last reference value
STEP               .ft       0.5                           : Step increment
NULL               .         -9999                         : Missing value
COMP               .                                       : Company
WELL               .         EGBM-005                      : Well name
FLD                .         EGBEMA                        : Field
LOC                .                                       : Location
SRVC               .                                       : Service Company
CTRY               .                                       : Country
DATE               .         1966/04/03                    : Service Date
X                  .                                       : X or East-West coordinate
Y                  .                                       : Y or North South coordinate
GDAT               .                                       : Geodetic Datum
HZCS               .                                       : Horizontal Co-ordinate System
APIN               .         10803/01                      : 
BHT                .degF     177                           : 
BLI                .ft       5700                          : 
BS                 .in       9.625                         : 
CREATION-TIME      .         2066/4/3 0_0                  : 
CSIZ               .in       10.75                         : 
DFD                .g/cm3    1.2                           : 
DFT                .         BENT. Q-BROXIN                : 
DFV                .s        0                             : 
ELZ                .         -999.25                       : 
FIELD-NAME         .         EGBEMA                        : 
FILE-ID            .         SOH5  .5                      : 
FILE-NUMBER        .         101                           : 
FILE-SET-NAME      .                                       : 
FILE-SET-NUMBER    .         0                             : 
FILE-TYPE          .         PTF                           : 
HIDE               .         Well/Hole_ EGBM-5  Service Name_ ML  Run Number_ 1: 
LCC                .         0                             : 
LMF                .         1                             : 
MFST               .degF     77                            : 
MST                .degF     87                            : 
NAME-SPACE-NAME    .         LIS                           : 
NAME-SPACE-VERSION .         0                             : 
PRODUC             .         SHELL(PARASOL)                : 
PRODUCER-CODE      .         0                             : 
PRODUCER-NAME      .         Schlumberger                  : 
PRODUCT            .                                       : 
PROGRAMS           .                                       : 
R1                 .         REMARKS_<_techsia_br_>        : 
R2                 .         SHELL LAB. MEASUREMENTS<_techsia_br_>: 
R3                 .         MUD      1.62 OHMS AT 77 DEGF<_techsia_br_>: 
R4                 .         FILTRATE 1.55 OHMS AT 77 DEGF<_techsia_br_>: 
RMCS               .ohm.m    -999.25                       : 
RMFS               .ohm.m    1.55                          : 
RMS                .ohm.m    1.56                          : 
TCS                .h        -999.25                       : 
TDD                .ft       9000                          : 
TDL                .ft       8977                          : 
TLI                .ft       3437                          : 
VERSION            .         2P01                          : 
WELL-ID            .         10803/01                      : 
WELL-NAME          .         EGBM-005                      : 
WN                 .         EGBM-005                      : 
~Parameter Information Block
#_______________________________________________________________________________
#
#PARAMETER_NAME    .UNIT     VALUE                         : DESCRIPTION
#_______________________________________________________________________________
SET                .         SOH3  _1_1                    : 
ACQUISITION-PRODUCT .         DLIS/U                        : 
CREATION-TIME      .         2026/5/13 10_35               : 
DLIS_FRAME_DIRECTION .         INCREASING                    : 
DLIS_FRAME_NAME    .         1                             : 
DLIS_FRAME_SPACING .ft       0.5                           : 
FIELD-NAME         .         EGBEMA                        : 
FILE-ID            .         SOH3  .1                      : 
FILE-NUMBER        .         1                             : 
FILE-SET-NAME      .         LIS-TO-DLIS-CONVERSION        : 
FILE-SET-NUMBER    .         7647                          : 
FILE-TYPE          .         PTF                           : 
INDEX-TYPE         .         BOREHOLE-DEPTH                : 
NAME-SPACE-NAME    .                                       : 
NAME-SPACE-VERSION .         0                             : 
OriginalDatasetName .         1                             : 
PRODUCER-CODE      .         440                           : 
PRODUCER-NAME      .         Schlumberger                  : 
PRODUCT            .         DLIS/U                        : 
PROGRAMS           .         LIS-TO-DLIS                   : 
TLFamily_DEPT      .         Measured Depth                : 
TLFamily_LN        .                                       : 
TLFamily_SN        .         Resistivity - Shallow         : 
TLFamily_SP        .         Spontaneous Potential         : 
VERSION            .         0.1                           : 
WELL-ID            .         10803/01                      : 
WELL-NAME          .         EGBM-005                      : 
~Curve Information
#_______________________________________________________________________________
#
#LOGNAME           .UNIT     LOG_ID                        : DESCRIPTION
#_______________________________________________________________________________
DEPT               .ft                                     :  {F}
LN                 .ohm.m                                  :  {F}
SN                 .ohm.m                                  :  {F}
SP                 .mV                                     :  {F}
~Ascii
# ...
7808       1.20533    1.476016   40.47778  
7808.5     1.187763   1.459918   40.51668  
7809       1.170196   1.444587   40.56477  
7809.5     1.152628   1.448274   40.61287  
7810       1.13506    1.452218   40.62991  
7810.5     1.116744   1.456577   40.62991  
7811       1.098275   1.42522    40.68904  
7811.5     1.079805   1.390837   40.83049  
7812       1.062673   1.364676   40.95638  
7812.5     1.047348   1.375717   41.01648  
7813       1.032023   1.412567   41.07658  
7813.5     1.0167     1.409372   41.23442  
7814       1.001375   1.406593   41.46558  
7814.5     0.9860517  1.409869   41.69675  
7815       0.9802164  1.43799    41.85007  
7815.5     1.000225   1.431921   41.60956  
7816       1.020234   1.434913   41.06053  
7816.5     1.040243   1.456905   40.99597  
7817       1.060252   1.487421   41.05923  
7817.5     1.072591   1.481041   41.08221  
7818       1.078747   1.465066   41.01895  
7818.5     1.084902   1.451668   40.95569  
7819       1.091058   1.446933   40.94487  
7819.5     1.097214   1.455646   40.94487  
7820       1.102767   1.479434   40.85826  
7820.5     1.107569   1.486041   40.80594  
7821       1.11237    1.466072   40.8692   
7821.5     1.117172   1.463108   40.93246  
7822       1.121974   1.463108   41.05222  
7822.5     1.126776   1.463108   41.18576  
7823       1.131578   1.514102   41.34016  
7823.5     1.12329    1.528487   41.52054  
7824       1.11349    1.5215     41.70093  
7824.5     1.103691   1.498531   41.40135  
7825       1.093891   1.479698   41.00081  
7825.5     1.084092   1.476954   41.04834  
7826       1.074292   1.494074   41.16859  
7826.5     1.069182   1.50578    41.33546  
7827       1.069182   1.496852   41.649    
7827.5     1.069182   1.432923   41.96252  
7828       1.069182   1.386946   42.23891  
7828.5     1.069182   1.356578   42.38921  
7829       1.069182   1.354656   42.44762  
7829.5     1.071857   1.360847   41.90097  
7830       1.080135   1.339538   41.52449  
7830.5     1.088413   1.32667    41.22397  
7831       1.096692   1.343217   40.96936  
7831.5     1.083838   1.356578   41.31546  
7832       1.051821   1.369331   41.67595  
7832.5     1.019804   1.387514   41.63081  
7833       0.9877874  1.405697   41.20784  
7833.5     0.9974192  1.42388    40.99788  
7834       1.035317   1.445356   41.08374  
7834.5     1.067904   1.469324   41.27887  
7835       1.055898   1.48976    41.50426  
7835.5     1.043891   1.492058   41.72964  
7836       1.031885   1.465714   41.95502  
7836.5     1.019878   1.443056   42.13603  
7837       1.007872   1.439369   42.28632  
7837.5     0.9993421  1.446177   42.3622   
7838       0.9913398  1.459793   42.3622   
7838.5     0.9833375  1.475768   42.32993  
7839       0.9753352  1.472145   42.20976  
7839.5     0.9814701  1.445252   42.20471  
7840       0.9885317  1.404165   42.20471  
7840.5     0.9955934  1.375157   42.20471  
7841       1.002655   1.354183   42.14841  
7841.5     1.016883   1.350714   41.9966   
7842       1.038709   1.375141   41.78751  
7842.5     1.060535   1.375985   41.57843  
7843       1.082362   1.368917   41.41731  
7843.5     1.100629   1.354751   41.41731  
7844       1.100629   1.337496   41.41731  
7844.5     1.100629   1.333323   41.44928  
7845       1.100629   1.3487     41.51608  
7845.5     1.100629   1.381959   41.5845   
7846       1.10023    1.385953   41.66461  
7846.5     1.092956   1.377236   41.76102  
7847       1.08568    1.362637   41.94604  
7847.5     1.078404   1.362637   42.04724  
7848       1.071129   1.362637   42.04724  
7848.5     1.069182   1.362637   42.19023  
7849       1.069182   1.326458   42.4995   
7849.5     1.069182   1.358409   42.62491  
7850       1.069182   1.380253   42.4245   
7850.5     1.069182   1.378297   42.22409  
7851       1.067719   1.34493    42.04959  
7851.5     1.0614     1.300997   41.87785  
7852       1.055081   1.26794    41.74023  
7852.5     1.048762   1.250632   41.7925   
7853       1.042444   1.254989   41.84474  
7853.5     1.037736   1.274912   41.89616  
7854       1.037736   1.292677   41.94241  
7854.5     1.037736   1.288681   41.98866  
7855       1.037736   1.280356   42.03491  
7855.5     1.037736   1.269707   42.00716  
7856       1.037736   1.260166   41.95251  
7856.5     1.050662   1.253319   41.89787  
7857       1.067809   1.245614   41.96851  
7857.5     1.084955   1.236789   42.05998  
7858       1.100039   1.222041   42.14586  
7858.5     1.093179   1.202509   42.29921  
7859       1.086319   1.182131   42.59969  
7859.5     1.079459   1.189434   42.47128  
7860       1.072598   1.201415   42.19298  
7860.5     1.061648   1.207373   41.8923   
7861       1.046639   1.210035   41.63007  
7861.5     1.031631   1.209167   41.41156  
7862       1.016623   1.199577   41.19305  
7862.5     1.00371    1.218125   41.24301  
7863       0.9954326  1.217372   41.48346  
7863.5     0.9871547  1.209324   41.91379  
7864       0.9788767  1.2224     42.31418  
7864.5     0.9937811  1.268463   42.04678  
7865       1.03072    1.278703   41.58446  
7865.5     1.067657   1.247079   41.31099  
7866       1.098718   1.246248   41.48273  
7866.5     1.080933   1.257597   41.53761  
7867       1.063147   1.261284   41.45747  
7867.5     1.045361   1.264971   41.41731  
7868       1.023668   1.267656   41.41731  
7868.5     0.9990455  1.253961   41.41966  
7869       0.9744221  1.250476   41.66011  
7869.5     0.9497987  1.281543   41.88023  
7870       0.9251752  1.293528   41.66814  
7870.5     0.9186853  1.298871   41.45605  
7871       0.9332362  1.330324   41.3559   
7871.5     0.9477872  1.351454   41.28075  
7872       0.9623382  1.358246   41.49121  
7872.5     0.9719071  1.361442   41.8118   
7873       0.9510312  1.388356   42.21469  
7873.5     0.9301552  1.406491   42.64404  
7874       0.9081087  1.402608   42.67715  
7874.5     0.8780843  1.364248   42.10358  
7875       0.8499421  1.356895   41.53171  
7875.5     0.8766098  1.368823   41.06911  
7876       0.9032775  1.392723   40.88628  
7876.5     0.9637948  1.377039   40.80617  
7877       1.040625   1.365642   41.05815  
7877.5     1.117454   1.382716   41.41179  
7878       1.18916    1.416419   41.74532  
7878.5     1.253195   1.4835     42.06163  
7879       1.317229   1.544812   42.35555  
7879.5     1.381264   1.579967   42.22194  
7880       1.426417   1.619358   41.47145  
7880.5     1.450424   1.66613    40.81306  
7881       1.474431   1.694104   40.29785  
7881.5     1.498438   1.719166   40.64308  
7882       1.519844   1.762668   40.98878  
7882.5     1.539051   1.802993   41.06894  
7883       1.558259   1.793812   41.04628  
7883.5     1.580036   1.770926   40.95009  
7884       1.608847   1.781571   40.8539   
7884.5     1.637658   1.849847   40.76089  
7885       1.66647    1.955853   40.67503  
7885.5     1.704819   2.078568   40.75668  
7886       1.743234   2.204587   41.02377  
7886.5     1.781649   2.334053   41.33842  
7887       1.799957   2.463519   42.01472  
7887.5     1.810399   2.589163   42.68538  
7888       1.82084    2.713625   43.08603  
7888.5     1.828891   2.821254   43.20604  
7889       1.835951   2.749268   42.98059  
7889.5     1.843011   2.589242   42.70425  
7890       1.850071   2.513892   42.33438  
7890.5     1.857776   2.457395   41.81438  
7891       1.867382   2.35971    41.2133   
7891.5     1.876988   2.291832   41.2113   
7892       1.886595   2.248267   41.34491  
7892.5     1.87254    2.216271   41.45665  
7893       1.857988   2.186308   41.54251  
7893.5     1.843438   2.137609   42.12021  
7894       1.828887   2.058237   42.9079   
7894.5     1.804175   2.044219   41.40726  
7895       1.774165   2.164165   40.91486  
7895.5     1.744154   2.261745   41.08659  
7896       1.714144   2.32469    41.70856  
7896.5     1.692788   2.364889   42.03578  
7897       1.681357   2.438086   42.21652  
7897.5     1.669926   2.489532   42.29164  
7898       1.67413    2.460813   42.35791  
7898.5     1.684571   2.448839   42.28719  
