~Version
 VERS              .         3.0                           : CWLS LOG ASCII STANDARD - VERSION 3.0
 WRAP              .         NO                            : ONE LINE PER DEPTH STEP
 DLM               .         SPACE                         : DELIMITING CHARACTER(SPACE TAB OR COMMA)
~Well Information
#_______________________________________________________________________________
#
#PARAMETER_NAME    .UNIT     VALUE                         : DESCRIPTION
#_______________________________________________________________________________
STRT               .ft       3440                          : First reference value
STOP               .ft       8976                          : Last reference value
STEP               .ft       0.5                           : Step increment
NULL               .         -9999                         : Missing value
COMP               .                                       : Company
WELL               .         EGBM-005                      : Well name
FLD                .         EGBEMA                        : Field
LOC                .                                       : Location
SRVC               .                                       : Service Company
CTRY               .                                       : Country
DATE               .         1966/04/03                    : Service Date
X                  .                                       : X or East-West coordinate
Y                  .                                       : Y or North South coordinate
GDAT               .                                       : Geodetic Datum
HZCS               .                                       : Horizontal Co-ordinate System
APIN               .         10803/01                      : 
BHT                .degF     177                           : 
BLI                .ft       5700                          : 
BS                 .in       9.625                         : 
CREATION-TIME      .         2066/4/3 0_0                  : 
CSIZ               .in       10.75                         : 
DFD                .g/cm3    1.2                           : 
DFT                .         BENT. Q-BROXIN                : 
DFV                .s        0                             : 
ELZ                .         -999.25                       : 
FIELD-NAME         .         EGBEMA                        : 
FILE-ID            .         SOH5  .5                      : 
FILE-NUMBER        .         101                           : 
FILE-SET-NAME      .                                       : 
FILE-SET-NUMBER    .         0                             : 
FILE-TYPE          .         PTF                           : 
HIDE               .         Well/Hole_ EGBM-5  Service Name_ ML  Run Number_ 1: 
LCC                .         0                             : 
LMF                .         1                             : 
MFST               .degF     77                            : 
MST                .degF     87                            : 
NAME-SPACE-NAME    .         LIS                           : 
NAME-SPACE-VERSION .         0                             : 
PRODUC             .         SHELL(PARASOL)                : 
PRODUCER-CODE      .         0                             : 
PRODUCER-NAME      .         Schlumberger                  : 
PRODUCT            .                                       : 
PROGRAMS           .                                       : 
R1                 .         REMARKS_<_techsia_br_>        : 
R2                 .         SHELL LAB. MEASUREMENTS<_techsia_br_>: 
R3                 .         MUD      1.62 OHMS AT 77 DEGF<_techsia_br_>: 
R4                 .         FILTRATE 1.55 OHMS AT 77 DEGF<_techsia_br_>: 
RMCS               .ohm.m    -999.25                       : 
RMFS               .ohm.m    1.55                          : 
RMS                .ohm.m    1.56                          : 
TCS                .h        -999.25                       : 
TDD                .ft       9000                          : 
TDL                .ft       8977                          : 
TLI                .ft       3437                          : 
VERSION            .         2P01                          : 
WELL-ID            .         10803/01                      : 
WELL-NAME          .         EGBM-005                      : 
WN                 .         EGBM-005                      : 
~Parameter Information Block
#_______________________________________________________________________________
#
#PARAMETER_NAME    .UNIT     VALUE                         : DESCRIPTION
#_______________________________________________________________________________
SET                .         SOH3  _1_1                    : 
ACQUISITION-PRODUCT .         DLIS/U                        : 
CREATION-TIME      .         2026/5/13 10_35               : 
DLIS_FRAME_DIRECTION .         INCREASING                    : 
DLIS_FRAME_NAME    .         1                             : 
DLIS_FRAME_SPACING .ft       0.5                           : 
FIELD-NAME         .         EGBEMA                        : 
FILE-ID            .         SOH3  .1                      : 
FILE-NUMBER        .         1                             : 
FILE-SET-NAME      .         LIS-TO-DLIS-CONVERSION        : 
FILE-SET-NUMBER    .         7647                          : 
FILE-TYPE          .         PTF                           : 
INDEX-TYPE         .         BOREHOLE-DEPTH                : 
NAME-SPACE-NAME    .                                       : 
NAME-SPACE-VERSION .         0                             : 
OriginalDatasetName .         1                             : 
PRODUCER-CODE      .         440                           : 
PRODUCER-NAME      .         Schlumberger                  : 
PRODUCT            .         DLIS/U                        : 
PROGRAMS           .         LIS-TO-DLIS                   : 
TLFamily_DEPT      .         Measured Depth                : 
TLFamily_LN        .                                       : 
TLFamily_SN        .         Resistivity - Shallow         : 
TLFamily_SP        .         Spontaneous Potential         : 
VERSION            .         0.1                           : 
WELL-ID            .         10803/01                      : 
WELL-NAME          .         EGBM-005                      : 
~Curve Information
#_______________________________________________________________________________
#
#LOGNAME           .UNIT     LOG_ID                        : DESCRIPTION
#_______________________________________________________________________________
DEPT               .ft                                     :  {F}
LN                 .ohm.m                                  :  {F}
SN                 .ohm.m                                  :  {F}
SP                 .mV                                     :  {F}
~Ascii
# ...
3804       5.695321   4.29742    14.65353  
3804.5     5.775931   4.28486    15.20935  
3805       5.873856   4.345944   15.59512  
3805.5     5.961318   4.489796   15.68763  
3806       6.113311   4.644792   15.61955  
3806.5     6.297534   4.620816   15.24948  
3807       6.482435   4.677203   15.19568  
3807.5     6.611803   4.76741    15.53231  
3808       6.699265   4.898193   16.29761  
3808.5     6.728178   5.134769   15.96381  
3809       6.812663   5.435961   15.56149  
3809.5     6.973021   5.507886   15.41116  
3810       7.165413   5.50593    15.28297  
3810.5     7.286175   5.403201   15.35815  
3811       7.28261    5.188493   15.43434  
3811.5     7.095564   4.897675   15.80441  
3812       6.811816   4.729567   15.99712  
3812.5     6.55413    4.761934   15.77846  
3813       6.383348   5.008098   15.3338   
3813.5     6.386354   5.411506   14.60209  
3814       6.551099   5.795202   13.89335  
3814.5     6.815657   5.76696    13.56525  
3815       7.25315    5.60545    13.20668  
3815.5     7.832693   5.542129   12.90419  
3816       8.379799   5.614054   12.75591  
3816.5     8.976168   5.821435   12.86155  
3817       9.902636   6.06647    12.99518  
3817.5     10.73417   6.373392   12.81009  
3818       11.35561   6.775857   12.04276  
3818.5     11.71352   7.302969   10.55451  
3819       12.02888   7.861809   7.864427  
3819.5     12.32993   8.467194   5.127473  
3820       12.73553   9.033241   2.182323  
3820.5     13.28149   9.394222   -0.4559965
3821       13.64634   9.660702   -2.044392 
3821.5     13.72978   9.843615   -2.568528 
3822       13.67634   9.931913   -2.672071 
3822.5     13.356     10.02868   -1.87012  
3823       13.06241   10.07169   -0.5147319
3823.5     12.85522   10.03215   1.22838   
3824       12.76537   9.792107   2.28339   
3824.5     12.89897   9.40818    2.519684  
3825       13.06357   8.909616   2.202785  
3825.5     13.274     8.295977   1.382837  
3826       13.6064    7.561334   1.125785  
3826.5     14.03995   7.150197   2.576408  
3827       14.40522   7.120446   7.354568  
3827.5     14.7219    7.451076   9.77351   
3828       15.20417   8.412741   10.75183  
3828.5     16.02034   9.469585   12.56787  
3829       17.48805   10.93261   14.64306  
3829.5     19.3824    12.36105   15.5801   
3830       22.05937   13.55981   17.02367  
3830.5     23.79243   14.10092   17.99973  
3831       24.59511   14.48629   18.93228  
3831.5     25.07613   15.0842    19.8943   
3832       25.42203   15.63345   20.59486  
3832.5     25.72269   15.87632   21.01575  
3833       25.82677   15.83455   21.3365   
3833.5     25.82677   15.91447   21.59723  
3834       25.40692   16.00958   21.61507  
3834.5     24.65529   15.98626   21.26083  
3835       23.77437   15.77171   20.65956  
3835.5     22.74367   15.41739   19.88667  
3836       21.60474   15.06555   19.10489  
3836.5     20.20972   14.72864   18.0692   
3837       19.59621   14.26519   16.87373  
3837.5     18.91956   13.98958   16.17195  
3838       18.20453   13.74699   15.50888  
3838.5     17.63834   13.0936    14.8264   
3839       17.18736   12.29433   14.11188  
3839.5     16.54195   11.35573   13.46425  
3840       15.73648   10.40188   13.01184  
3840.5     15.05703   10.02299   13.16256  
3841       14.49819   9.903107   13.87275  
3841.5     13.95878   10.22861   14.27357  
3842       13.75809   10.60183   13.29935  
3842.5     13.75782   10.45678   12.42124  
3843       13.92536   9.728209   11.45066  
3843.5     13.96909   9.100267   10.18483  
3844       13.98425   8.862055   8.803335  
3844.5     13.9974    8.557594   8.605694  
3845       14.15773   8.235996   9.647814  
3845.5     14.19298   8.015106   10.48959  
3846       14.17689   7.881819   10.98243  
3846.5     14.11676   7.817897   11.34763  
3847       14.06105   7.817897   11.58822  
3847.5     14.01295   7.96242    11.49425  
3848       13.97779   8.295969   11.16532  
3848.5     13.96175   8.801844   10.37776  
3849       13.96156   9.684498   8.928913  
3849.5     13.9816    10.45854   7.946041  
3850       13.90078   11.16333   8.729378  
3850.5     13.58978   11.72371   12.33968  
3851       12.16192   12.25112   16.54776  
3851.5     10.498     12.52152   19.34776  
3852       9.825798   12.59323   20.18109  
3852.5     9.307615   12.38818   20.56104  
3853       8.759548   11.68719   20.26958  
3853.5     8.229908   10.11936   20        
3854       7.604049   8.333139   20        
3854.5     7.210299   6.764784   19.08682  
3855       6.933566   5.989676   17.98468  
3855.5     6.71883    5.573743   17.84605  
3856       6.625512   5.085822   18.53862  
3856.5     6.541765   4.660395   18.29808  
3857       6.461586   4.242111   18.05753  
3857.5     6.251451   3.879409   18.17911  
3858       6.05461    3.607358   18.58012  
3858.5     5.875901   3.413177   18.8387   
3859       5.635315   3.395725   19.03905  
3859.5     5.42127    3.513346   18.9388   
3860       5.235861   3.683249   18.48416  
3860.5     5.142986   3.896345   17.78342  
3861       5.198043   4.086519   17.12744  
3861.5     5.27788    4.142407   16.80696  
3862       5.387171   4.082452   16.73178  
3862.5     5.431837   3.897723   16.7292   
3863       5.445143   3.612849   16.80437  
3863.5     5.421092   3.304678   17.04472  
3864       5.366613   3.089037   17.54601  
3864.5     5.303211   2.939525   17.9325   
3865       5.231059   2.844149   18.24582  
3865.5     5.112601   2.794349   18.51308  
3866       4.992342   2.794349   18.74966  
3866.5     4.865085   2.847518   18.81297  
3867       4.669168   2.97995    18.87627  
3867.5     4.524863   3.152914   18.89763  
3868       4.503937   3.500191   18.89763  
3868.5     4.503123   4.051951   18.84509  
3869       4.466126   5.086694   18.75258  
3869.5     4.458011   6.723078   18.07761  
3870       4.554675   8.155182   17.46724  
3870.5     5.064819   8.522144   17.06622  
3871       5.739957   8.401306   16.84976  
3871.5     6.051372   8.320602   16.58299  
3872       6.298493   8.064039   15.86147  
3872.5     6.642013   7.539255   15.01067  
3873       7.036978   6.624248   14.45092  
3873.5     7.497858   6.05448    14.3584   
3874       7.916593   5.596581   14.21035  
3874.5     8.214184   5.312326   14.03856  
3875       8.454708   5.397739   13.92881  
3875.5     8.56155    5.754097   13.73947  
3876       8.796169   6.245017   13.19712  
3876.5     9.128586   6.779624   11.32683  
3877       9.466127   6.790923   9.600233  
3877.5     9.724258   6.574015   9.87793   
3878       9.812031   6.352548   10.70162  
3878.5     9.759916   6.171666   11.81403  
3879       9.611771   6.068903   12.08135  
3879.5     9.244221   6.035563   12.34867  
3880       9.001572   6.083512   12.67717  
3880.5     8.988157   6.203296   12.83034  
3881       9.20594    6.427199   12.58978  
3881.5     9.494549   6.826359   12.25751  
3882       9.918003   7.218124   11.76393  
3882.5     10.45532   7.377946   11.10773  
3883       11.37978   7.497919   10.27523  
3883.5     12.49001   7.700304   9.037008  
3884       13.84144   8.094036   7.693686  
3884.5     15.23813   8.530874   7.037712  
3885       16.55086   9.626024   5.925368  
3885.5     17.43991   10.47898   3.774942  
3886       18.73347   10.94174   1.14781   
3886.5     20.37341   11.12934   0.3919835 
3887       23.09828   11.26243   0.5948671 
3887.5     24.95392   11.58091   1.123977  
3888       26.59901   11.99265   1.834109  
3888.5     28.36273   12.61686   2.48174   
3889       30.49304   13.50898   2.918853  
3889.5     33.49974   14.94131   3.103888  
3890       36.5932    17.9189    3.796478  
3890.5     40.91435   20.98497   6.331389  
3891       47.66064   24.11772   9.771809  
3891.5     55.67854   27.38039   11.71137  
3892       62.34048   30.67921   12.72456  
3892.5     70.27223   32.27744   13.4647   
3893       76.5049    33.10742   14.16543  
3893.5     79.14137   33.9066    14.82375  
3894       78.95825   35.21294   15.5639   
3894.5     76.81868   36.23759   16.36771  
