~Version
 VERS              .         3.0                           : CWLS LOG ASCII STANDARD - VERSION 3.0
 WRAP              .         NO                            : ONE LINE PER DEPTH STEP
 DLM               .         SPACE                         : DELIMITING CHARACTER(SPACE TAB OR COMMA)
~Well Information
#_______________________________________________________________________________
#
#PARAMETER_NAME    .UNIT     VALUE                         : DESCRIPTION
#_______________________________________________________________________________
STRT               .ft       3440                          : First reference value
STOP               .ft       8976                          : Last reference value
STEP               .ft       0.5                           : Step increment
NULL               .         -9999                         : Missing value
COMP               .                                       : Company
WELL               .         EGBM-005                      : Well name
FLD                .         EGBEMA                        : Field
LOC                .                                       : Location
SRVC               .                                       : Service Company
CTRY               .                                       : Country
DATE               .         1966/04/03                    : Service Date
X                  .                                       : X or East-West coordinate
Y                  .                                       : Y or North South coordinate
GDAT               .                                       : Geodetic Datum
HZCS               .                                       : Horizontal Co-ordinate System
APIN               .         10803/01                      : 
BHT                .degF     177                           : 
BLI                .ft       5700                          : 
BS                 .in       9.625                         : 
CREATION-TIME      .         2066/4/3 0_0                  : 
CSIZ               .in       10.75                         : 
DFD                .g/cm3    1.2                           : 
DFT                .         BENT. Q-BROXIN                : 
DFV                .s        0                             : 
ELZ                .         -999.25                       : 
FIELD-NAME         .         EGBEMA                        : 
FILE-ID            .         SOH5  .5                      : 
FILE-NUMBER        .         101                           : 
FILE-SET-NAME      .                                       : 
FILE-SET-NUMBER    .         0                             : 
FILE-TYPE          .         PTF                           : 
HIDE               .         Well/Hole_ EGBM-5  Service Name_ ML  Run Number_ 1: 
LCC                .         0                             : 
LMF                .         1                             : 
MFST               .degF     77                            : 
MST                .degF     87                            : 
NAME-SPACE-NAME    .         LIS                           : 
NAME-SPACE-VERSION .         0                             : 
PRODUC             .         SHELL(PARASOL)                : 
PRODUCER-CODE      .         0                             : 
PRODUCER-NAME      .         Schlumberger                  : 
PRODUCT            .                                       : 
PROGRAMS           .                                       : 
R1                 .         REMARKS_<_techsia_br_>        : 
R2                 .         SHELL LAB. MEASUREMENTS<_techsia_br_>: 
R3                 .         MUD      1.62 OHMS AT 77 DEGF<_techsia_br_>: 
R4                 .         FILTRATE 1.55 OHMS AT 77 DEGF<_techsia_br_>: 
RMCS               .ohm.m    -999.25                       : 
RMFS               .ohm.m    1.55                          : 
RMS                .ohm.m    1.56                          : 
TCS                .h        -999.25                       : 
TDD                .ft       9000                          : 
TDL                .ft       8977                          : 
TLI                .ft       3437                          : 
VERSION            .         2P01                          : 
WELL-ID            .         10803/01                      : 
WELL-NAME          .         EGBM-005                      : 
WN                 .         EGBM-005                      : 
~Parameter Information Block
#_______________________________________________________________________________
#
#PARAMETER_NAME    .UNIT     VALUE                         : DESCRIPTION
#_______________________________________________________________________________
SET                .         SOH3  _1_1                    : 
ACQUISITION-PRODUCT .         DLIS/U                        : 
CREATION-TIME      .         2026/5/13 10_35               : 
DLIS_FRAME_DIRECTION .         INCREASING                    : 
DLIS_FRAME_NAME    .         1                             : 
DLIS_FRAME_SPACING .ft       0.5                           : 
FIELD-NAME         .         EGBEMA                        : 
FILE-ID            .         SOH3  .1                      : 
FILE-NUMBER        .         1                             : 
FILE-SET-NAME      .         LIS-TO-DLIS-CONVERSION        : 
FILE-SET-NUMBER    .         7647                          : 
FILE-TYPE          .         PTF                           : 
INDEX-TYPE         .         BOREHOLE-DEPTH                : 
NAME-SPACE-NAME    .                                       : 
NAME-SPACE-VERSION .         0                             : 
OriginalDatasetName .         1                             : 
PRODUCER-CODE      .         440                           : 
PRODUCER-NAME      .         Schlumberger                  : 
PRODUCT            .         DLIS/U                        : 
PROGRAMS           .         LIS-TO-DLIS                   : 
TLFamily_DEPT      .         Measured Depth                : 
TLFamily_LN        .                                       : 
TLFamily_SN        .         Resistivity - Shallow         : 
TLFamily_SP        .         Spontaneous Potential         : 
VERSION            .         0.1                           : 
WELL-ID            .         10803/01                      : 
WELL-NAME          .         EGBM-005                      : 
~Curve Information
#_______________________________________________________________________________
#
#LOGNAME           .UNIT     LOG_ID                        : DESCRIPTION
#_______________________________________________________________________________
DEPT               .ft                                     :  {F}
LN                 .ohm.m                                  :  {F}
SN                 .ohm.m                                  :  {F}
SP                 .mV                                     :  {F}
~Ascii
# ...
4896       14.70185   11.14297   7.001387  
4896.5     14.72926   11.12284   6.237292  
4897       14.76928   10.90368   5.671974  
4897.5     14.71367   10.66868   5.138397  
4898       14.47902   10.58268   4.752948  
4898.5     14.21724   10.58268   4.512761  
4899       14.00601   10.49604   4.280746  
4899.5     13.8532    10.33572   4.055666  
4900       13.70037   10.25305   3.964227  
4900.5     13.53228   10.2486    4.039254  
4901       13.37015   10.19869   4.193019  
4901.5     13.2741    10.15668   4.493263  
4902       13.14444   10.24414   4.698436  
4902.5     13.05391   10.26772   4.625683  
4903       13.03388   10.25084   4.552929  
4903.5     13.07754   10.21075   4.480175  
4904       13.06507   10.22045   4.407421  
4904.5     13.04226   10.2185    4.526922  
4905       13.00224   10.11691   4.660315  
4905.5     12.98742   10.13217   4.770113  
4906       13.01017   10.25243   4.862487  
4906.5     13.13025   10.37268   4.499771  
4907       13.25031   10.37165   4.088051  
4907.5     13.35671   10.29305   4.088051  
4908       13.28375   10.16107   4.13753   
4908.5     13.19528   10.02981   4.377658  
4909       13.0548    10.01337   4.617786  
4909.5     12.91624   10.13944   4.71698   
4910       12.89441   10.25596   4.71698   
4910.5     12.93069   10.15258   4.71698   
4911       12.9307    10.01368   4.71698   
4911.5     12.7981    9.97361    4.71698   
4912       12.57589   9.933535   4.71698   
4912.5     12.41282   9.893444   4.71698   
4913       12.39516   9.929482   4.864834  
4913.5     12.50432   9.964006   5.093537  
4914       12.53502   9.980793   5.322242  
4914.5     12.51283   9.958927   5.64488   
4915       12.43278   9.895243   5.978364  
4915.5     12.31265   9.889765   6.160221  
4916       12.14638   10.02065   6.212426  
4916.5     11.90546   10.27148   6.264631  
4917       11.66208   10.33071   6.394824  
4917.5     11.44383   10.14429   6.594916  
4918       11.2304    10.04025   6.833848  
4918.5     10.88037   9.984741   7.262512  
4919       10.39052   9.888895   7.63362   
4919.5     9.963614   9.741207   7.890954  
4920       9.355135   9.490681   8.179852  
4920.5     8.733515   9.295805   8.499943  
4921       7.833381   9.163548   8.728577  
4921.5     6.999343   8.984312   8.8787    
4922       6.23721    8.651636   9.050997  
4922.5     5.75692    8.25099    9.251131  
4923       5.37243    7.771818   10.20736  
4923.5     5.034787   6.685157   11.14007  
4924       4.730476   5.489327   12.09604  
4924.5     4.465057   4.477674   13.67441  
4925       4.23537    3.970948   16.00021  
4925.5     4.018473   3.420785   18.63324  
4926       3.838354   3.108865   21.23109  
4926.5     3.655073   2.878081   22.49043  
4927       3.481654   2.856675   22.94101  
4927.5     3.341561   2.888746   23.06151  
4928       3.161049   2.913429   23.05     
4928.5     2.988234   2.911331   22.73293  
4929       2.877385   2.833632   21.71275  
4929.5     2.749744   2.710151   21.66679  
4930       2.609761   2.565801   22.81912  
4930.5     2.506827   2.442605   23.79437  
4931       2.408635   2.3325     24.24565  
4931.5     2.333609   2.219452   24.33138  
4932       2.25858    2.129568   24.41138  
4932.5     2.183518   2.045011   24.48643  
4933       2.108458   1.961785   24.58141  
4933.5     2.059865   1.907905   24.70148  
4934       2.01211    1.872348   24.82153  
4934.5     1.982099   1.841629   24.95258  
4935       1.952088   1.817578   25.08597  
4935.5     1.934447   1.797657   25.15723  
4936       1.917883   1.785677   25.15723  
4936.5     1.901319   1.786122   25.15723  
4937       1.886792   1.802104   25.17406  
4937.5     1.886792   1.824545   25.22626  
4938       1.882545   1.844254   25.27847  
4938.5     1.855866   1.851968   25.31447  
4939       1.829188   1.851935   25.31447  
4939.5     1.813766   1.818264   25.31447  
4940       1.801128   1.782935   25.31447  
4940.5     1.784526   1.767264   25.31447  
4941       1.75924    1.76595    25.31447  
4941.5     1.733954   1.776279   25.35332  
4942       1.709721   1.772271   25.41051  
4942.5     1.685708   1.766115   25.46768  
4943       1.664049   1.757562   25.40604  
4943.5     1.651406   1.763973   25.33542  
4944       1.638763   1.769672   25.35117  
4944.5     1.63522    1.761181   25.40338  
4945       1.63522    1.75269    25.45558  
4945.5     1.627331   1.743766   25.53555  
4946       1.614688   1.734749   25.6279   
4946.5     1.600647   1.725732   25.72026  
4947       1.577776   1.716714   25.81262  
4947.5     1.554906   1.703269   25.90497  
4948       1.536237   1.687042   25.99345  
4948.5     1.524231   1.667802   26.07919  
4949       1.512224   1.6675     25.90762  
4949.5     1.500656   1.707919   25.65028  
4950       1.489222   1.740691   25.57388  
4950.5     1.477796   1.751181   25.51384  
4951       1.466876   1.715562   25.48958  
4951.5     1.455956   1.664536   25.54961  
4952       1.444596   1.603683   25.60963  
4952.5     1.430472   1.569845   25.69977  
4953       1.416349   1.562204   25.80415  
4953.5     1.426609   1.55854    25.90852  
4954       1.439246   1.5393     25.85455  
4954.5     1.452184   1.49994    25.72115  
4955       1.465528   1.472878   25.61348  
4955.5     1.481177   1.472607   25.56345  
4956       1.529215   1.505036   25.51343  
4956.5     1.581122   1.571562   25.48036  
4957       1.666901   1.703816   25.53256  
4957.5     1.738187   1.835233   25.58478  
4958       1.770196   1.928114   25.62892  
4958.5     1.783842   1.930555   25.62892  
4959       1.755583   1.916986   25.62892  
4959.5     1.727325   1.928269   25.62892  
4960       1.699079   1.994396   25.62892  
4960.5     1.670832   2.066377   25.62892  
4961       1.628271   2.078733   25.59407  
4961.5     1.583234   2.014672   25.52739  
4962       1.535927   1.917053   25.46179  
4962.5     1.487894   1.80022    25.40175  
4963       1.439861   1.678191   25.34172  
4963.5     1.398475   1.583304   25.36128  
4964       1.364163   1.556583   25.44707  
4964.5     1.342427   1.546527   25.53284  
4965       1.327422   1.536928   25.61862  
4965.5     1.312903   1.529531   25.58667  
4966       1.298774   1.523176   25.53865  
4966.5     1.289308   1.519167   25.49065  
4967       1.289308   1.502927   25.47169  
4967.5     1.289308   1.482308   25.47169  
4968       1.274706   1.455117   25.47169  
4968.5     1.259694   1.454165   25.47169  
4969       1.245457   1.440418   25.47169  
4969.5     1.231327   1.426422   25.47169  
4970       1.234247   1.411619   25.47169  
4970.5     1.246254   1.402889   25.47169  
4971       1.2587     1.399454   25.47169  
4971.5     1.283977   1.398425   25.47169  
4972       1.309252   1.403791   25.42896  
4972.5     1.353479   1.436672   25.37437  
4973       1.413534   1.495936   25.31979  
4973.5     1.473589   1.557257   25.31447  
4974       1.552186   1.621169   25.31447  
4974.5     1.632249   1.742738   25.31447  
4975       1.681452   1.851197   25.31447  
4975.5     1.729465   1.891447   25.31447  
4976       1.715458   1.892513   25.42677  
4976.5     1.701328   1.907269   25.56807  
4977       1.661006   1.934573   25.62892  
4977.5     1.612968   1.933999   25.62892  
4978       1.545524   1.871858   25.62892  
4978.5     1.485474   1.748771   25.62892  
4979       1.43746    1.592115   25.62892  
4979.5     1.386568   1.455944   25.61563  
4980       1.333182   1.372438   25.5489   
4980.5     1.287174   1.346563   25.48219  
4981       1.275167   1.342554   25.42113  
4981.5     1.263161   1.344121   25.36111  
4982       1.257861   1.347127   25.31447  
4982.5     1.257861   1.354759   25.31447  
4983       1.257861   1.364382   25.31447  
4983.5     1.257861   1.383247   25.31447  
4984       1.257861   1.405654   25.31447  
4984.5     1.257861   1.434515   25.31447  
4985       1.299668   1.455552   25.33098  
4985.5     1.344684   1.457356   25.381    
4986       1.399282   1.435908   25.43102  
4986.5     1.455799   1.400922   25.47169  
