~Version
 VERS              .         3.0                           : CWLS LOG ASCII STANDARD - VERSION 3.0
 WRAP              .         NO                            : ONE LINE PER DEPTH STEP
 DLM               .         SPACE                         : DELIMITING CHARACTER(SPACE TAB OR COMMA)
~Well Information
#_______________________________________________________________________________
#
#PARAMETER_NAME    .UNIT     VALUE                         : DESCRIPTION
#_______________________________________________________________________________
STRT               .ft       3440                          : First reference value
STOP               .ft       8976                          : Last reference value
STEP               .ft       0.5                           : Step increment
NULL               .         -9999                         : Missing value
COMP               .                                       : Company
WELL               .         EGBM-005                      : Well name
FLD                .         EGBEMA                        : Field
LOC                .                                       : Location
SRVC               .                                       : Service Company
CTRY               .                                       : Country
DATE               .         1966/04/03                    : Service Date
X                  .                                       : X or East-West coordinate
Y                  .                                       : Y or North South coordinate
GDAT               .                                       : Geodetic Datum
HZCS               .                                       : Horizontal Co-ordinate System
APIN               .         10803/01                      : 
BHT                .degF     177                           : 
BLI                .ft       5700                          : 
BS                 .in       9.625                         : 
CREATION-TIME      .         2066/4/3 0_0                  : 
CSIZ               .in       10.75                         : 
DFD                .g/cm3    1.2                           : 
DFT                .         BENT. Q-BROXIN                : 
DFV                .s        0                             : 
ELZ                .         -999.25                       : 
FIELD-NAME         .         EGBEMA                        : 
FILE-ID            .         SOH5  .5                      : 
FILE-NUMBER        .         101                           : 
FILE-SET-NAME      .                                       : 
FILE-SET-NUMBER    .         0                             : 
FILE-TYPE          .         PTF                           : 
HIDE               .         Well/Hole_ EGBM-5  Service Name_ ML  Run Number_ 1: 
LCC                .         0                             : 
LMF                .         1                             : 
MFST               .degF     77                            : 
MST                .degF     87                            : 
NAME-SPACE-NAME    .         LIS                           : 
NAME-SPACE-VERSION .         0                             : 
PRODUC             .         SHELL(PARASOL)                : 
PRODUCER-CODE      .         0                             : 
PRODUCER-NAME      .         Schlumberger                  : 
PRODUCT            .                                       : 
PROGRAMS           .                                       : 
R1                 .         REMARKS_<_techsia_br_>        : 
R2                 .         SHELL LAB. MEASUREMENTS<_techsia_br_>: 
R3                 .         MUD      1.62 OHMS AT 77 DEGF<_techsia_br_>: 
R4                 .         FILTRATE 1.55 OHMS AT 77 DEGF<_techsia_br_>: 
RMCS               .ohm.m    -999.25                       : 
RMFS               .ohm.m    1.55                          : 
RMS                .ohm.m    1.56                          : 
TCS                .h        -999.25                       : 
TDD                .ft       9000                          : 
TDL                .ft       8977                          : 
TLI                .ft       3437                          : 
VERSION            .         2P01                          : 
WELL-ID            .         10803/01                      : 
WELL-NAME          .         EGBM-005                      : 
WN                 .         EGBM-005                      : 
~Parameter Information Block
#_______________________________________________________________________________
#
#PARAMETER_NAME    .UNIT     VALUE                         : DESCRIPTION
#_______________________________________________________________________________
SET                .         SOH3  _1_1                    : 
ACQUISITION-PRODUCT .         DLIS/U                        : 
CREATION-TIME      .         2026/5/13 10_35               : 
DLIS_FRAME_DIRECTION .         INCREASING                    : 
DLIS_FRAME_NAME    .         1                             : 
DLIS_FRAME_SPACING .ft       0.5                           : 
FIELD-NAME         .         EGBEMA                        : 
FILE-ID            .         SOH3  .1                      : 
FILE-NUMBER        .         1                             : 
FILE-SET-NAME      .         LIS-TO-DLIS-CONVERSION        : 
FILE-SET-NUMBER    .         7647                          : 
FILE-TYPE          .         PTF                           : 
INDEX-TYPE         .         BOREHOLE-DEPTH                : 
NAME-SPACE-NAME    .                                       : 
NAME-SPACE-VERSION .         0                             : 
OriginalDatasetName .         1                             : 
PRODUCER-CODE      .         440                           : 
PRODUCER-NAME      .         Schlumberger                  : 
PRODUCT            .         DLIS/U                        : 
PROGRAMS           .         LIS-TO-DLIS                   : 
TLFamily_DEPT      .         Measured Depth                : 
TLFamily_LN        .                                       : 
TLFamily_SN        .         Resistivity - Shallow         : 
TLFamily_SP        .         Spontaneous Potential         : 
VERSION            .         0.1                           : 
WELL-ID            .         10803/01                      : 
WELL-NAME          .         EGBM-005                      : 
~Curve Information
#_______________________________________________________________________________
#
#LOGNAME           .UNIT     LOG_ID                        : DESCRIPTION
#_______________________________________________________________________________
DEPT               .ft                                     :  {F}
LN                 .ohm.m                                  :  {F}
SN                 .ohm.m                                  :  {F}
SP                 .mV                                     :  {F}
~Ascii
# ...
8172       1.579353   2.116954   46.14172  
8172.5     1.609735   2.16607    46.14172  
8173       1.622393   2.199253   46.07613  
8173.5     1.635051   2.221145   45.8911   
8174       1.637794   2.233675   45.96936  
8174.5     1.637794   2.227287   46.18794  
8175       1.637225   2.217865   46.40652  
8175.5     1.620051   2.201889   46.58908  
8176       1.602878   2.178351   46.76091  
8176.5     1.585704   2.151423   46.87407  
8177       1.57222    2.122673   46.49522  
8177.5     1.565146   2.084388   45.66928  
8178       1.558074   2.021276   45.66928  
8178.5     1.551002   1.944877   45.77513  
8179       1.543928   1.94027    45.96834  
8179.5     1.549953   1.928821   45.59827  
8180       1.55724    1.896997   45.41736  
8180.5     1.564527   1.884968   45.60228  
8181       1.571814   1.929212   45.77881  
8181.5     1.583399   1.950777   45.95053  
8182       1.597973   1.907497   45.82318  
8182.5     1.612547   1.791491   45.62277  
8183       1.627121   1.757011   45.48199  
8183.5     1.636007   1.791233   45.41519  
8184       1.629327   1.817122   45.37213  
8184.5     1.622647   1.833431   45.57254  
8185       1.615967   1.830436   45.77295  
8185.5     1.609286   1.827441   45.16719  
8186       1.59457    1.855573   45.29291  
8186.5     1.573352   1.869778   45.73845  
8187       1.552134   1.839283   45.92339  
8187.5     1.530915   1.811944   46.02458  
8188       1.509814   1.809431   46.08472  
8188.5     1.489774   1.820844   46.12617  
8189       1.469733   1.832257   45.82559  
8189.5     1.449693   1.823835   45.52501  
8190       1.429652   1.804966   45.76727  
8190.5     1.412182   1.737344   46.03447  
8191       1.398822   1.676673   46.25243  
8191.5     1.385461   1.66405    46.43736  
8192       1.372101   1.66405    46.32996  
8192.5     1.35874    1.65355    46.18843  
8193       1.35433    1.600843   45.49535  
8193.5     1.35433    1.558424   45.43298  
8194       1.35433    1.595435   45.52208  
8194.5     1.329083   1.618903   45.61116  
8195       1.297008   1.628481   45.6954   
8195.5     1.264933   1.612357   45.77055  
8196       1.232857   1.576401   45.9644   
8196.5     1.216541   1.547193   46.51068  
8197       1.202806   1.525631   46.22438  
8197.5     1.18907    1.504069   45.74348  
8198       1.175334   1.486441   45.66928  
8198.5     1.169465   1.46952    45.66928  
8199       1.184502   1.468519   45.66928  
8199.5     1.199537   1.477232   45.97116  
8200       1.214573   1.485946   46.4005   
8200.5     1.133858   1.446004   45.57434  
8201       1.116928   1.415172   46.0645   
8201.5     1.099129   1.402061   46.13113  
8202       1.081329   1.396111   45.59747  
8202.5     1.05849    1.392907   45.59747  
8203       1.028461   1.376532   45.75919  
8203.5     0.9984311  1.361117   46.09627  
8204       0.9723897  1.347066   46.43311  
8204.5     0.9573748  1.333342   45.63341  
8205       0.9423599  1.331094   45.28493  
8205.5     0.927345   1.33392    45.29004  
8206       0.9137979  1.339156   45.60982  
8206.5     0.9196576  1.347165   45.87402  
8207       0.9255173  1.353824   46.05862  
8207.5     0.9313771  1.349017   45.95862  
8208       0.9372368  1.344211   46.00328  
8208.5     0.9430965  1.341732   45.98718  
8209       0.9563998  1.341732   45.73793  
8209.5     0.9729648  1.341732   45.33841  
8210       0.9895296  1.331981   45.60109  
8210.5     1.006094   1.318631   45.90009  
8211       1.02437    1.307089   45.82513  
8211.5     1.042853   1.298609   45.73741  
8212       1.061336   1.291338   45.45174  
8212.5     1.063109   1.291338   45.16606  
8213       1.047095   1.287817   44.96855  
8213.5     1.031081   1.279804   44.96855  
8214       1.015067   1.275962   45.87079  
8214.5     0.9980706  1.272759   45.39703  
8215       0.9802716  1.260083   45.13046  
8215.5     0.9624724  1.247525   45.38766  
8216       0.9447337  1.251896   44.61528  
8216.5     0.9320909  1.253543   45.08647  
8217       0.919448   1.238523   45.28302  
8217.5     0.9068052  1.190531   45.2086   
8218       0.8941623  1.180238   44.92638  
8218.5     0.88174    1.171122   44.65225  
8219       0.8766271  1.167918   44.60011  
8219.5     0.8715143  1.170144   44.54797  
8220       0.8664014  1.194187   44.50856  
8220.5     0.8612885  1.209449   45.10844  
8221       0.8561757  1.209449   45.42482  
8221.5     0.8510628  1.196756   45.56467  
8222       0.8573529  1.184252   45.32472  
8222.5     0.8653598  1.184252   44.71698  
8223       0.8733668  1.185555   44.65408  
8223.5     0.8813738  1.188086   44.65408  
8224       0.8818898  1.190795   44.65408  
8224.5     0.8818898  1.200403   44.98132  
8225       0.8818898  1.209449   45.61505  
8225.5     0.8818898  1.209449   45.90692  
8226       0.8818898  1.209449   45.39896  
8226.5     0.8905773  1.209449   44.95946  
8227       0.9060756  1.20876    44.74779  
8227.5     0.921574   1.20609    44.53612  
8228       0.9370723  1.203421   44.43581  
8228.5     0.9404669  1.181579   44.36084  
8229       0.9315673  1.157565   44.54208  
8229.5     0.9226679  1.140157   44.82455  
8230       0.9137683  1.140157   45.23979  
8230.5     0.8990161  1.150468   45.79308  
8231       0.8840013  1.168486   45.59801  
8231.5     0.9061812  1.183318   44.95645  
8232       0.9344476  1.194625   44.48396  
8232.5     0.9638265  1.20406    44.32996  
8233       0.9564081  1.207758   45.16685  
8233.5     0.9220976  1.202339   45.22366  
8234       0.901438   1.190019   44.82381  
8234.5     0.8854241  1.184679   45.78632  
8235       0.8818898  1.209529   45.94891  
8235.5     0.8818898  1.240835   46.52254  
8236       0.8818898  1.293133   46.22734  
8236.5     0.8818898  1.283615   45.47733  
8237       0.8818898  1.227525   45.4128   
8237.5     0.8818898  1.217585   45.6678   
8238       0.8818898  1.229768   46.12939  
8238.5     0.8818898  1.243507   45.57703  
8239       0.8982497  1.252823   45.16325  
8239.5     0.9191384  1.250154   45.57635  
8240       0.940027   1.247483   45.71254  
8240.5     0.9609156  1.243269   46.10042  
8241       0.9818041  1.238902   45.91545  
8241.5     1.002692   1.234462   45.55205  
8242       0.998845   1.227252   45.48541  
8242.5     0.9868376  1.220042   45.57668  
8243       0.976378   1.215748   46        
8243.5     0.976378   1.215748   46.41823  
8244       0.976378   1.215748   46.78708  
8244.5     0.976378   1.215982   47.01257  
8245       0.9718072  1.217831   47.01257  
8245.5     0.964058   1.219679   47.01257  
8246       0.956309   1.221527   46.78244  
8246.5     0.9485598  1.220016   46.4826   
8247       0.9409376  1.217189   46.18266  
8247.5     0.9334302  1.207434   45.8768   
8248       0.9259228  1.190474   45.51688  
8248.5     0.9184152  1.179096   45.20441  
8249       0.9082702  1.183466   45.05368  
8249.5     0.8927718  1.200023   45.43718  
8250       0.8772736  1.199662   45.34486  
8250.5     0.8617753  1.171171   45.62224  
8251       0.8531698  1.16277    46.474    
8251.5     0.8636209  1.159568   46.46686  
8252       0.874072   1.164434   46.09799  
8252.5     0.8818898  1.17084    46.26431  
8253       0.8818898  1.165359   46.47597  
8253.5     0.8818898  1.158149   46.6689   
8254       0.8818898  1.150333   46.85353  
8254.5     0.8818898  1.14072    46.5387   
8255       0.8818898  1.131107   46.21362  
8255.5     0.8790243  1.127559   45.66821  
8256       0.8660403  1.127559   45.16107  
8256.5     0.8530564  1.127559   44.68141  
8257       0.8400726  1.129799   44.49686  
8257.5     0.8270887  1.132802   44.49686  
8258       0.8242726  1.143594   44.44496  
8258.5     0.8388333  1.158609   44.36493  
8259       0.853394   1.166615   44.27135  
8259.5     0.8679547  1.168903   44.21985  
8260       0.882705   1.171192   44.64992  
8260.5     0.9016768  1.17805    45.44025  
8261       0.9206485  1.186058   45.39261  
8261.5     0.9396203  1.194066   45.40479  
8262       0.9585919  1.206828   45.98119  
8262.5     0.9767355  1.222124   46.23381  
