~Version
 VERS              .         3.0                           : CWLS LOG ASCII STANDARD - VERSION 3.0
 WRAP              .         NO                            : ONE LINE PER DEPTH STEP
 DLM               .         SPACE                         : DELIMITING CHARACTER(SPACE TAB OR COMMA)
~Well Information
#_______________________________________________________________________________
#
#PARAMETER_NAME    .UNIT     VALUE                         : DESCRIPTION
#_______________________________________________________________________________
STRT               .ft       3440                          : First reference value
STOP               .ft       8976                          : Last reference value
STEP               .ft       0.5                           : Step increment
NULL               .         -9999                         : Missing value
COMP               .                                       : Company
WELL               .         EGBM-005                      : Well name
FLD                .         EGBEMA                        : Field
LOC                .                                       : Location
SRVC               .                                       : Service Company
CTRY               .                                       : Country
DATE               .         1966/04/03                    : Service Date
X                  .                                       : X or East-West coordinate
Y                  .                                       : Y or North South coordinate
GDAT               .                                       : Geodetic Datum
HZCS               .                                       : Horizontal Co-ordinate System
APIN               .         10803/01                      : 
BHT                .degF     177                           : 
BLI                .ft       5700                          : 
BS                 .in       9.625                         : 
CREATION-TIME      .         2066/4/3 0_0                  : 
CSIZ               .in       10.75                         : 
DFD                .g/cm3    1.2                           : 
DFT                .         BENT. Q-BROXIN                : 
DFV                .s        0                             : 
ELZ                .         -999.25                       : 
FIELD-NAME         .         EGBEMA                        : 
FILE-ID            .         SOH5  .5                      : 
FILE-NUMBER        .         101                           : 
FILE-SET-NAME      .                                       : 
FILE-SET-NUMBER    .         0                             : 
FILE-TYPE          .         PTF                           : 
HIDE               .         Well/Hole_ EGBM-5  Service Name_ ML  Run Number_ 1: 
LCC                .         0                             : 
LMF                .         1                             : 
MFST               .degF     77                            : 
MST                .degF     87                            : 
NAME-SPACE-NAME    .         LIS                           : 
NAME-SPACE-VERSION .         0                             : 
PRODUC             .         SHELL(PARASOL)                : 
PRODUCER-CODE      .         0                             : 
PRODUCER-NAME      .         Schlumberger                  : 
PRODUCT            .                                       : 
PROGRAMS           .                                       : 
R1                 .         REMARKS_<_techsia_br_>        : 
R2                 .         SHELL LAB. MEASUREMENTS<_techsia_br_>: 
R3                 .         MUD      1.62 OHMS AT 77 DEGF<_techsia_br_>: 
R4                 .         FILTRATE 1.55 OHMS AT 77 DEGF<_techsia_br_>: 
RMCS               .ohm.m    -999.25                       : 
RMFS               .ohm.m    1.55                          : 
RMS                .ohm.m    1.56                          : 
TCS                .h        -999.25                       : 
TDD                .ft       9000                          : 
TDL                .ft       8977                          : 
TLI                .ft       3437                          : 
VERSION            .         2P01                          : 
WELL-ID            .         10803/01                      : 
WELL-NAME          .         EGBM-005                      : 
WN                 .         EGBM-005                      : 
~Parameter Information Block
#_______________________________________________________________________________
#
#PARAMETER_NAME    .UNIT     VALUE                         : DESCRIPTION
#_______________________________________________________________________________
SET                .         SOH3  _1_1                    : 
ACQUISITION-PRODUCT .         DLIS/U                        : 
CREATION-TIME      .         2026/5/13 10_35               : 
DLIS_FRAME_DIRECTION .         INCREASING                    : 
DLIS_FRAME_NAME    .         1                             : 
DLIS_FRAME_SPACING .ft       0.5                           : 
FIELD-NAME         .         EGBEMA                        : 
FILE-ID            .         SOH3  .1                      : 
FILE-NUMBER        .         1                             : 
FILE-SET-NAME      .         LIS-TO-DLIS-CONVERSION        : 
FILE-SET-NUMBER    .         7647                          : 
FILE-TYPE          .         PTF                           : 
INDEX-TYPE         .         BOREHOLE-DEPTH                : 
NAME-SPACE-NAME    .                                       : 
NAME-SPACE-VERSION .         0                             : 
OriginalDatasetName .         1                             : 
PRODUCER-CODE      .         440                           : 
PRODUCER-NAME      .         Schlumberger                  : 
PRODUCT            .         DLIS/U                        : 
PROGRAMS           .         LIS-TO-DLIS                   : 
TLFamily_DEPT      .         Measured Depth                : 
TLFamily_LN        .                                       : 
TLFamily_SN        .         Resistivity - Shallow         : 
TLFamily_SP        .         Spontaneous Potential         : 
VERSION            .         0.1                           : 
WELL-ID            .         10803/01                      : 
WELL-NAME          .         EGBM-005                      : 
~Curve Information
#_______________________________________________________________________________
#
#LOGNAME           .UNIT     LOG_ID                        : DESCRIPTION
#_______________________________________________________________________________
DEPT               .ft                                     :  {F}
LN                 .ohm.m                                  :  {F}
SN                 .ohm.m                                  :  {F}
SP                 .mV                                     :  {F}
~Ascii
3440.0     1.726844   5.920892   34.06708  
3440.5     3.773511   6.454913   33.80319  
3441       4.7604     6.879762   34.25342  
3441.5     4.931596   7.048409   34.5639   
3442       5.146821   7.081002   34.45474  
3442.5     5.413136   7.071545   34.23956  
3443       5.661975   7.268705   33.8194   
3443.5     5.761837   7.534284   33.67154  
3444       5.861699   7.354405   34.07181  
3444.5     5.961561   6.670512   34.472    
3445       5.6776     5.8421     34.59119  
3445.5     5.378036   5.682028   34.59119  
3446       5.215607   5.547182   34.9512   
3446.5     5.074625   5.454759   35.47708  
3447       4.95078    5.414744   35.98959  
3447.5     4.836669   5.260129   36.35909  
3448       4.722558   5.049726   36.74942  
3448.5     4.617216   4.787928   37.14963  
3449       4.513      4.547175   37.396    
3449.5     4.408784   4.3956     37.58131  
3450       4.641908   4.413008   37.82144  
3450.5     4.923869   4.600628   37.81648  
3451       5.205832   5.046886   37.59647  
3451.5     5.487793   5.821761   37.04086  
3452       5.60123    6.075479   36.24051  
3452.5     5.481399   6.049963   35.62079  
3453       5.361567   5.960192   35.53459  
3453.5     5.236701   5.720153   35.90448  
3454       5.11057    5.419956   36.47902  
3454.5     5.023547   5.042695   37.13506  
3455       5.023547   4.591273   37.61531  
3455.5     5.023547   4.288277   37.98112  
3456       5.023547   4.188358   38.31337  
3456.5     5.023547   4.15143    38.39377  
3457       5.023547   4.293068   38.0663   
3457.5     4.93817    4.461482   37.27603  
3458       4.812016   4.657705   37.49028  
3458.5     4.709576   5.115668   36.64049  
3459       4.709576   5.453494   34.77867  
3459.5     4.709576   5.773577   33.67271  
3460       4.709576   6.002813   31.73511  
3460.5     4.709576   5.984119   30.36983  
3461       4.709576   5.412389   30.63809  
3461.5     4.709576   4.692568   31.91817  
3462       4.491234   4.150123   33.95927  
3462.5     4.14884    3.661228   36.28909  
3463       4.015215   3.398462   37.13882  
3463.5     3.932575   3.25075    38.07259  
3464       3.849936   3.169811   38.664    
3464.5     3.768538   3.229188   39.08023  
3465       3.968232   3.252625   39.34209  
3465.5     4.081633   3.228621   39.43446  
3466       4.081633   3.251508   39.46541  
3466.5     4.081633   3.605268   39.46541  
3467       4.081633   3.850204   39.46541  
3467.5     4.081633   3.937499   39.46541  
3468       4.163174   3.990917   39.45235  
3468.5     4.415435   4.011327   39.29227  
3469       4.667697   3.915311   39.15094  
3469.5     4.820626   3.73922    39.15094  
3470       4.953783   3.480066   39.15094  
3470.5     5.090665   3.132349   39.15094  
3471       5.231646   2.866518   39.21484  
3471.5     5.456867   2.830189   39.41498  
3472       5.936132   3.020196   39.38374  
3472.5     6.526696   3.812915   39.16969  
3473       7.398285   5.203719   38.57654  
3473.5     9.050463   7.151598   36.34256  
3474       11.59656   10.06574   32.11192  
3474.5     15.72387   12.62931   28.91762  
3475       23.31056   14.89183   24.81357  
3475.5     30.61891   16.25188   18.63332  
3476       37.42482   17.60269   15.18138  
3476.5     42.91896   19.15012   14.09453  
3477       49.90784   21.50551   14.48323  
3477.5     56.41077   24.95006   16.91499  
3478       62.80096   28.65372   21.48169  
3478.5     70.63817   32.70351   26.09329  
3479       82.59669   36.37769   27.45569  
3479.5     93.91594   39.47903   28.1212   
3480       102.3037   41.20732   28.38292  
3480.5     110.4869   43.90828   28.71028  
3481       117.4715   46.18454   29.37904  
3481.5     123.9709   47.7122    30.47128  
3482       129.1451   50.0629    31.67204  
3482.5     133.0385   52.05542   33.00519  
3483       138.7297   53.29832   33.77855  
3483.5     142.6475   54.09535   34.00017  
3484       145.1472   54.64928   34.06688  
3484.5     146.1058   55.23445   34.01074  
3485       147.0172   55.88916   33.6478   
3485.5     148.5792   56.32251   34.04337  
3486       149.1366   56.60378   35.64397  
3486.5     148.6265   56.60378   36.97447  
3487       147.6277   56.5183    37.71967  
3487.5     145.7253   56.33366   38.4818   
3488       144.307    56.59332   39.43011  
3488.5     143.4987   56.95924   40.30338  
3489       143.7383   57.17741   41.64507  
3489.5     144.3957   56.93396   43.39029  
3490       145.3458   56.66371   44.75015  
3490.5     145.6475   57.00665   46.13292  
3491       144.8508   57.16454   47.651    
3491.5     144.2517   56.96452   49.09178  
3492       143.8061   56.42622   50.21782  
3492.5     143.4328   55.78604   50.87646  
3493       143.1922   54.76018   51.6974   
3493.5     144.3904   53.64014   52.66318  
3494       145.5887   52.83026   53.31084  
3494.5     145.9933   52.08017   53.65396  
3495       145.1365   51.17418   53.98682  
3495.5     144.1556   50.16779   54.32951  
3496       145.2451   49.37106   54.72978  
3496.5     146.0137   49.37106   55.2579   
3497       146.5667   49.06903   55.7169   
3497.5     146.9549   48.25267   55.88841  
3498       147.1869   46.39412   56.03439  
3498.5     146.6642   44.5074    56.28139  
3499       145.6654   44.04439   57.18207  
3499.5     143.3895   44.2444    58.00293  
3500       141.9152   43.83656   58.4032   
3500.5     141.9152   42.9884    58.866    
3501       140.9317   42.55193   59.47374  
3501.5     139.8012   42.45282   60.41522  
3502       138.9448   42.23061   61.26758  
3502.5     138.5092   41.77148   61.7821   
3503       138.2836   41.42856   62.35454  
3503.5     137.7231   41.09293   62.95081  
3504       136.5262   40.77292   63.51111  
3504.5     136.1575   40.65089   64.03912  
3505       136.0806   40.90659   64.36659  
3505.5     136.3802   41.06134   64.38922  
3506       136.4521   40.80414   64.28242  
3506.5     136.0833   40.54695   64.18236  
3507       135.6223   40.28975   64.48042  
3507.5     135.1087   40.25157   64.82507  
3508       134.8875   40.25157   64.92908  
3508.5     134.7377   40.12206   64.80901  
3509       134.3548   39.95059   65.08301  
3509.5     133.8755   39.62263   65.45667  
3510       133.5543   39.69887   65.71393  
3510.5     133.288    39.6239    65.92754  
3511       133.0157   39.59706   66.06093  
3511.5     132.7337   39.57777   66.19432  
3512       132.4296   39.45911   66.19496  
3512.5     132.0066   39.22952   66.19496  
3513       131.5837   39.08551   66.35915  
3513.5     131.3312   39.09497   66.61642  
3514       131.0916   39.0934    66.66667  
3514.5     130.8436   38.92633   66.66667  
3515       130.5773   38.49051   66.66667  
3515.5     130.311    38.1132    66.66667  
3516       130.1462   38.16504   66.66667  
3516.5     129.9864   38.33963   66.72476  
3517       130.1321   38.46748   66.85815  
3517.5     130.2819   38.44209   66.98634  
3518       130.052    38.28177   67.05305  
3518.5     129.7754   38.13292   67.11977  
3519       129.4988   38.03688   67.18929  
3519.5     129.1627   37.98741   67.2599   
3520       128.7633   38.02339   67.14713  
3520.5     128.0723   38.16234   66.84695  
3521       127.3739   38.09904   66.66667  
3521.5     126.6891   37.9073    66.69316  
3522       126.1359   37.47253   66.81323  
3522.5     125.6223   37.42451   67.02281  
3523       124.8995   37.36531   67.09489  
3523.5     124.2901   37.12639   67.00255  
3524       124.1058   36.86232   67.23265  
3524.5     123.7266   36.72354   67.45284  
3525       123.1736   36.9462    67.44319  
3525.5     123.0769   37.26622   66.90961  
3526       122.9554   37.23331   66.19386  
3526.5     122.4761   36.75676   66.03773  
3527       120.8664   36.25157   66.03773  
3527.5     119.4235   36.32494   66.12625  
3528       118.2523   36.39835   66.17448  
3528.5     117.6531   36.09438   66.09444  
3529       116.9301   35.61435   66.03773  
3529.5     116.1313   35.39896   66.03773  
3530       114.9995   35.18706   66.05916  
3530.5     113.6129   34.93434   66.16832  
