~Version
 VERS              .         3.0                           : CWLS LOG ASCII STANDARD - VERSION 3.0
 WRAP              .         NO                            : ONE LINE PER DEPTH STEP
 DLM               .         SPACE                         : DELIMITING CHARACTER(SPACE TAB OR COMMA)
~Well Information
#_______________________________________________________________________________
#
#PARAMETER_NAME    .UNIT     VALUE                         : DESCRIPTION
#_______________________________________________________________________________
STRT               .ft       3440                          : First reference value
STOP               .ft       8976                          : Last reference value
STEP               .ft       0.5                           : Step increment
NULL               .         -9999                         : Missing value
COMP               .                                       : Company
WELL               .         EGBM-005                      : Well name
FLD                .         EGBEMA                        : Field
LOC                .                                       : Location
SRVC               .                                       : Service Company
CTRY               .                                       : Country
DATE               .         1966/04/03                    : Service Date
X                  .                                       : X or East-West coordinate
Y                  .                                       : Y or North South coordinate
GDAT               .                                       : Geodetic Datum
HZCS               .                                       : Horizontal Co-ordinate System
APIN               .         10803/01                      : 
BHT                .degF     177                           : 
BLI                .ft       5700                          : 
BS                 .in       9.625                         : 
CREATION-TIME      .         2066/4/3 0_0                  : 
CSIZ               .in       10.75                         : 
DFD                .g/cm3    1.2                           : 
DFT                .         BENT. Q-BROXIN                : 
DFV                .s        0                             : 
ELZ                .         -999.25                       : 
FIELD-NAME         .         EGBEMA                        : 
FILE-ID            .         SOH5  .5                      : 
FILE-NUMBER        .         101                           : 
FILE-SET-NAME      .                                       : 
FILE-SET-NUMBER    .         0                             : 
FILE-TYPE          .         PTF                           : 
HIDE               .         Well/Hole_ EGBM-5  Service Name_ ML  Run Number_ 1: 
LCC                .         0                             : 
LMF                .         1                             : 
MFST               .degF     77                            : 
MST                .degF     87                            : 
NAME-SPACE-NAME    .         LIS                           : 
NAME-SPACE-VERSION .         0                             : 
PRODUC             .         SHELL(PARASOL)                : 
PRODUCER-CODE      .         0                             : 
PRODUCER-NAME      .         Schlumberger                  : 
PRODUCT            .                                       : 
PROGRAMS           .                                       : 
R1                 .         REMARKS_<_techsia_br_>        : 
R2                 .         SHELL LAB. MEASUREMENTS<_techsia_br_>: 
R3                 .         MUD      1.62 OHMS AT 77 DEGF<_techsia_br_>: 
R4                 .         FILTRATE 1.55 OHMS AT 77 DEGF<_techsia_br_>: 
RMCS               .ohm.m    -999.25                       : 
RMFS               .ohm.m    1.55                          : 
RMS                .ohm.m    1.56                          : 
TCS                .h        -999.25                       : 
TDD                .ft       9000                          : 
TDL                .ft       8977                          : 
TLI                .ft       3437                          : 
VERSION            .         2P01                          : 
WELL-ID            .         10803/01                      : 
WELL-NAME          .         EGBM-005                      : 
WN                 .         EGBM-005                      : 
~Parameter Information Block
#_______________________________________________________________________________
#
#PARAMETER_NAME    .UNIT     VALUE                         : DESCRIPTION
#_______________________________________________________________________________
SET                .         SOH3  _1_1                    : 
ACQUISITION-PRODUCT .         DLIS/U                        : 
CREATION-TIME      .         2026/5/13 10_35               : 
DLIS_FRAME_DIRECTION .         INCREASING                    : 
DLIS_FRAME_NAME    .         1                             : 
DLIS_FRAME_SPACING .ft       0.5                           : 
FIELD-NAME         .         EGBEMA                        : 
FILE-ID            .         SOH3  .1                      : 
FILE-NUMBER        .         1                             : 
FILE-SET-NAME      .         LIS-TO-DLIS-CONVERSION        : 
FILE-SET-NUMBER    .         7647                          : 
FILE-TYPE          .         PTF                           : 
INDEX-TYPE         .         BOREHOLE-DEPTH                : 
NAME-SPACE-NAME    .                                       : 
NAME-SPACE-VERSION .         0                             : 
OriginalDatasetName .         1                             : 
PRODUCER-CODE      .         440                           : 
PRODUCER-NAME      .         Schlumberger                  : 
PRODUCT            .         DLIS/U                        : 
PROGRAMS           .         LIS-TO-DLIS                   : 
TLFamily_DEPT      .         Measured Depth                : 
TLFamily_LN        .                                       : 
TLFamily_SN        .         Resistivity - Shallow         : 
TLFamily_SP        .         Spontaneous Potential         : 
VERSION            .         0.1                           : 
WELL-ID            .         10803/01                      : 
WELL-NAME          .         EGBM-005                      : 
~Curve Information
#_______________________________________________________________________________
#
#LOGNAME           .UNIT     LOG_ID                        : DESCRIPTION
#_______________________________________________________________________________
DEPT               .ft                                     :  {F}
LN                 .ohm.m                                  :  {F}
SN                 .ohm.m                                  :  {F}
SP                 .mV                                     :  {F}
~Ascii
# ...
6352       7.601562   7.26462    8.066769  
6352.5     7.511737   7.161673   8.281633  
6353       7.354179   6.975773   8.854273  
6353.5     7.199423   6.605884   10.05482  
6354       7.039194   6.249091   11.82916  
6354.5     6.897637   6.071362   14.19847  
6355       6.897637   6.164318   17.91435  
6355.5     6.914475   6.870247   16.28062  
6356       6.950272   7.39146    13.77888  
6356.5     7.094576   7.674129   12.00494  
6357       7.376821   7.848972   10.63695  
6357.5     7.542378   7.952926   9.556376  
6358       7.708495   8.018421   8.467651  
6358.5     7.888785   8.0487     7.291816  
6359       8.014589   7.823102   6.088177  
6359.5     8.054461   7.504068   5.345917  
6360       8.000019   7.248427   5.345917  
6360.5     7.907499   7.20777    5.295251  
6361       7.764308   7.164929   5.215188  
6361.5     7.704165   7.124047   4.94791   
6362       7.685672   7.092038   4.747723  
6362.5     7.629731   7.075471   4.833502  
6363       7.572465   7.075471   4.926756  
6363.5     7.514588   7.075471   5.02676   
6364       7.454492   7.075471   4.745324  
6364.5     7.456886   7.097462   4.605597  
6365       7.493895   7.172523   4.72566   
6365.5     7.557775   7.232704   4.845722  
6366       7.590551   7.232704   4.981934  
6366.5     7.590551   7.224193   5.123168  
6367       7.590551   7.207037   5.096753  
6367.5     7.590551   7.211211   4.828836  
6368       7.590551   7.226224   4.462749  
6368.5     7.590551   7.187215   3.916965  
6369       7.569753   7.09159    3.532142  
6369.5     7.522182   6.979724   3.593343  
6370       7.369225   6.969113   4.575087  
6370.5     7.180162   6.997373   5.401809  
6371       7.036406   7.026441   6.017487  
6371.5     6.991319   7.056451   6.167537  
6372       6.947078   7.068142   6.345887  
6372.5     6.904641   7.048129   6.646089  
6373       6.863517   6.996268   7.316499  
6373.5     6.835226   6.959492   8.230038  
6374       6.806934   7.003155   9.430681  
6374.5     6.803149   7.098177   9.83672   
6375       6.852801   7.156052   9.473272  
6375.5     7.021155   7.116026   8.45775   
6376       7.2174     7.032722   7.466157  
6376.5     7.367476   6.882255   6.497478  
6377       7.478498   6.592654   5.61518   
6377.5     7.496062   6.162918   5.178554  
6378       7.496062   5.974842   4.742124  
6378.5     7.496062   5.999108   4.364509  
6379       7.467447   6.018701   4.22089   
6379.5     7.401895   5.9442     4.140827  
6380       7.109081   5.81761    4.088051  
6380.5     6.606459   5.835064   4.088051  
6381       6.183445   6.039905   4.549343  
6381.5     5.909339   6.099925   5.582013  
6382       5.728267   6.047853   6.304154  
6382.5     5.51181    5.843163   7.104384  
6383       5.259373   5.522634   8.055     
6383.5     5.055407   5.210403   12.05823  
6384       4.907462   4.936169   16.81418  
6384.5     4.839274   4.86227    20.06711  
6385       4.787754   4.786445   22.8163   
6385.5     4.777451   4.706342   24.32028  
6386       4.767431   4.753912   23.30811  
6386.5     4.757412   4.846925   24.30368  
6387       4.841939   4.95608    24.50017  
6387.5     4.9432     4.999999   23.19922  
6388       5.060015   4.907583   20.93658  
6388.5     5.203073   4.756782   20.39279  
6389       5.321989   4.660659   21.71123  
6389.5     5.105533   4.691378   24.52771  
6390       4.928051   4.813118   24.05844  
6390.5     4.81319    5.096893   21.07231  
6391       4.750076   5.457206   20.65334  
6391.5     4.721785   5.817518   20.14836  
6392       4.693494   6.324274   16.16193  
6392.5     4.692913   6.414391   15.41795  
6393       4.693996   6.441565   15.30542  
6393.5     4.767969   6.61392    15.40548  
6394       4.877167   6.443725   15.64096  
6394.5     5.042032   6.072981   16.22511  
6395       5.062077   5.699703   16.88147  
6395.5     5.018945   5.405676   17.16806  
6396       4.926479   5.058564   17.96843  
6396.5     4.865735   4.727121   20.14221  
6397       4.818897   4.588651   21.70813  
6397.5     4.818897   4.474627   22.58667  
6398       4.82702    4.345305   23.86557  
6398.5     4.869457   4.248528   22.81143  
6399       4.911894   4.188487   24.29163  
6399.5     4.913385   4.28046    24.9425   
6400       4.913385   4.477201   25.31471  
6400.5     4.913385   4.809177   24.75443  
6401       4.913385   5.152673   22.10065  
6401.5     4.924794   5.333504   19.0058   
6402       4.970607   5.405499   16.40396  
6402.5     5.016418   5.381485   15.28627  
6403       5.064636   5.244798   16.89027  
6403.5     5.115267   4.965737   19.01862  
6404       5.165928   4.768547   21.67955  
6404.5     5.21937    4.775991   24.59529  
6405       5.272811   5.032825   26.03937  
6405.5     5.307589   5.409378   25.09242  
6406       5.332461   5.729137   22.32919  
6406.5     5.357334   6.029522   18.92542  
6407       5.382207   6.196183   17.62152  
6407.5     5.361651   6.218015   16.90736  
6408       5.333361   6.241188   16.3522   
6408.5     5.294523   6.248679   16.70535  
6409       5.249436   6.182041   17.95265  
6409.5     5.155186   5.959667   18.18652  
6410       5.017724   5.650559   19.11977  
6410.5     4.860002   5.421634   21.84503  
6411       4.693563   5.314465   23.34708  
6411.5     4.553148   5.314465   23.45906  
6412       4.414077   5.273926   23.03595  
6412.5     4.276689   5.11207    22.38588  
6413       4.167196   4.798648   22.769    
6413.5     4.077023   4.487389   23.03253  
6414       4.017488   4.297441   25.8512   
6414.5     3.989197   4.168118   28.01065  
6415       3.964705   4.046812   28.85999  
6415.5     3.950559   3.9196     28.54752  
6416       3.937969   3.775414   30.76128  
6416.5     3.960867   3.700624   31.54465  
6417       3.983766   3.688883   31.65004  
6417.5     4.013998   3.83296    31.32256  
6418       4.062099   4.145646   31.1545   
6418.5     4.110201   4.591039   30.36627  
6419       4.156764   4.988422   28.74324  
6419.5     4.202577   5.281611   24.55638  
6420       4.248389   5.449702   22.57814  
6420.5     4.321241   5.412086   21.98146  
6421       4.396386   5.122793   21.76219  
6421.5     4.409449   4.768327   22.16579  
6422       4.386553   4.308376   23.312    
6422.5     4.29638    4.009467   24.90103  
6423       4.206206   3.780941   27.49365  
6423.5     4.116034   3.65603    28.9438   
6424       4.024479   3.585776   29.69518  
6424.5     3.912215   3.654399   30.39565  
6425       3.803118   3.726394   30.76703  
6425.5     3.722969   3.813778   30.60594  
6426       3.648718   3.875975   30.35594  
6426.5     3.612656   3.878623   30.43097  
6427       3.576593   3.841674   30.50851  
6427.5     3.532029   3.759107   30.64975  
6428       3.479416   3.644703   30.79099  
6428.5     3.426803   3.481514   31.33713  
6429       3.374188   3.295757   31.97731  
6429.5     3.329437   3.252389   32.86606  
6430       3.301147   3.273597   33.11443  
6430.5     3.27559    3.305606   33.02211  
6431       3.27559    3.327974   33.01886  
6431.5     3.27559    3.287923   33.01886  
6432       3.261266   3.236609   33.09514  
6432.5     3.231208   3.176569   33.25519  
6433       3.20115    3.195957   33.5224   
6433.5     3.16966    3.232818   33.89189  
6434       3.135301   3.292857   33.87389  
6434.5     3.100942   3.331038   33.61514  
6435       3.066589   3.363716   33.10074  
6435.5     3.032242   3.299665   33.03293  
6436       2.997895   3.234773   33.35303  
6436.5     2.967116   3.154737   33.53084  
6437       2.937058   3.0747     33.60146  
6437.5     2.907001   2.97324    33.70161  
6438       2.878534   2.862392   33.85818  
6438.5     2.850786   2.810519   34.01476  
6439       2.823039   2.772104   34.16365  
6439.5     2.790175   2.802128   34.29704  
6440       2.744363   2.832152   34.43044  
6440.5     2.69855    2.862177   34.48071  
6441       2.653125   2.892201   34.52873  
6441.5     2.608038   2.839281   34.57675  
6442       2.572155   2.780313   34.55121  
6442.5     2.548104   2.71169    34.49403  
