~Version
 VERS              .         3.0                           : CWLS LOG ASCII STANDARD - VERSION 3.0
 WRAP              .         NO                            : ONE LINE PER DEPTH STEP
 DLM               .         SPACE                         : DELIMITING CHARACTER(SPACE TAB OR COMMA)
~Well Information
#_______________________________________________________________________________
#
#PARAMETER_NAME    .UNIT     VALUE                         : DESCRIPTION
#_______________________________________________________________________________
STRT               .ft       3440                          : First reference value
STOP               .ft       8976                          : Last reference value
STEP               .ft       0.5                           : Step increment
NULL               .         -9999                         : Missing value
COMP               .                                       : Company
WELL               .         EGBM-005                      : Well name
FLD                .         EGBEMA                        : Field
LOC                .                                       : Location
SRVC               .                                       : Service Company
CTRY               .                                       : Country
DATE               .         1966/04/03                    : Service Date
X                  .                                       : X or East-West coordinate
Y                  .                                       : Y or North South coordinate
GDAT               .                                       : Geodetic Datum
HZCS               .                                       : Horizontal Co-ordinate System
APIN               .         10803/01                      : 
BHT                .degF     177                           : 
BLI                .ft       5700                          : 
BS                 .in       9.625                         : 
CREATION-TIME      .         2066/4/3 0_0                  : 
CSIZ               .in       10.75                         : 
DFD                .g/cm3    1.2                           : 
DFT                .         BENT. Q-BROXIN                : 
DFV                .s        0                             : 
ELZ                .         -999.25                       : 
FIELD-NAME         .         EGBEMA                        : 
FILE-ID            .         SOH5  .5                      : 
FILE-NUMBER        .         101                           : 
FILE-SET-NAME      .                                       : 
FILE-SET-NUMBER    .         0                             : 
FILE-TYPE          .         PTF                           : 
HIDE               .         Well/Hole_ EGBM-5  Service Name_ ML  Run Number_ 1: 
LCC                .         0                             : 
LMF                .         1                             : 
MFST               .degF     77                            : 
MST                .degF     87                            : 
NAME-SPACE-NAME    .         LIS                           : 
NAME-SPACE-VERSION .         0                             : 
PRODUC             .         SHELL(PARASOL)                : 
PRODUCER-CODE      .         0                             : 
PRODUCER-NAME      .         Schlumberger                  : 
PRODUCT            .                                       : 
PROGRAMS           .                                       : 
R1                 .         REMARKS_<_techsia_br_>        : 
R2                 .         SHELL LAB. MEASUREMENTS<_techsia_br_>: 
R3                 .         MUD      1.62 OHMS AT 77 DEGF<_techsia_br_>: 
R4                 .         FILTRATE 1.55 OHMS AT 77 DEGF<_techsia_br_>: 
RMCS               .ohm.m    -999.25                       : 
RMFS               .ohm.m    1.55                          : 
RMS                .ohm.m    1.56                          : 
TCS                .h        -999.25                       : 
TDD                .ft       9000                          : 
TDL                .ft       8977                          : 
TLI                .ft       3437                          : 
VERSION            .         2P01                          : 
WELL-ID            .         10803/01                      : 
WELL-NAME          .         EGBM-005                      : 
WN                 .         EGBM-005                      : 
~Parameter Information Block
#_______________________________________________________________________________
#
#PARAMETER_NAME    .UNIT     VALUE                         : DESCRIPTION
#_______________________________________________________________________________
SET                .         SOH3  _1_1                    : 
ACQUISITION-PRODUCT .         DLIS/U                        : 
CREATION-TIME      .         2026/5/13 10_35               : 
DLIS_FRAME_DIRECTION .         INCREASING                    : 
DLIS_FRAME_NAME    .         1                             : 
DLIS_FRAME_SPACING .ft       0.5                           : 
FIELD-NAME         .         EGBEMA                        : 
FILE-ID            .         SOH3  .1                      : 
FILE-NUMBER        .         1                             : 
FILE-SET-NAME      .         LIS-TO-DLIS-CONVERSION        : 
FILE-SET-NUMBER    .         7647                          : 
FILE-TYPE          .         PTF                           : 
INDEX-TYPE         .         BOREHOLE-DEPTH                : 
NAME-SPACE-NAME    .                                       : 
NAME-SPACE-VERSION .         0                             : 
OriginalDatasetName .         1                             : 
PRODUCER-CODE      .         440                           : 
PRODUCER-NAME      .         Schlumberger                  : 
PRODUCT            .         DLIS/U                        : 
PROGRAMS           .         LIS-TO-DLIS                   : 
TLFamily_DEPT      .         Measured Depth                : 
TLFamily_LN        .                                       : 
TLFamily_SN        .         Resistivity - Shallow         : 
TLFamily_SP        .         Spontaneous Potential         : 
VERSION            .         0.1                           : 
WELL-ID            .         10803/01                      : 
WELL-NAME          .         EGBM-005                      : 
~Curve Information
#_______________________________________________________________________________
#
#LOGNAME           .UNIT     LOG_ID                        : DESCRIPTION
#_______________________________________________________________________________
DEPT               .ft                                     :  {F}
LN                 .ohm.m                                  :  {F}
SN                 .ohm.m                                  :  {F}
SP                 .mV                                     :  {F}
~Ascii
# ...
4532       18.96098   12.42934   18.56644  
4532.5     19.19135   12.77266   18.3336   
4533       19.33737   12.8504    18.19215  
4533.5     19.39352   12.86304   18.0018   
4534       19.33253   12.94165   17.7442   
4534.5     19.17293   13.09743   17.59077  
4535       18.89252   13.2035    17.51067  
4535.5     18.44342   13.22755   17.57986  
4536       17.88342   13.15864   17.74016  
4536.5     17.2274    13.01111   17.72357  
4537       16.44701   12.88789   17.58038  
4537.5     15.43901   12.8504    17.34213  
4538       14.47963   12.83449   17.8761   
4538.5     13.89657   12.701     18.26172  
4539       13.41869   12.24117   18.53474  
4539.5     13.20087   11.75713   18.73506  
4540       12.99403   11.23173   19.09175  
4540.5     12.62522   10.28584   19.2126   
4541       12.46132   9.382334   19.31911  
4541.5     12.40945   8.524172   19.6196   
4542       12.40945   8.017097   19.84174  
4542.5     12.44936   7.933839   18.48747  
4543       12.55399   7.905512   18.6427   
4543.5     12.75186   7.905512   17.93867  
4544       12.99215   7.932117   18.08043  
4544.5     13.23265   8.503374   20.44722  
4545       13.5107    9.807911   22.74249  
4545.5     13.9384    11.16073   22.95137  
4546       14.74486   12.76178   22.90677  
4546.5     15.76404   13.53308   23.03593  
4547       16.67867   14.24185   23.23627  
4547.5     16.97429   14.60224   23.33945  
4548       17.28374   14.72886   23.38954  
4548.5     17.69019   14.77165   23.43962  
4549       18.07092   14.7469    23.58525  
4549.5     18.37692   14.55504   23.8257   
4550       18.61162   14.0987    23.93701  
4550.5     18.81195   13.45246   23.89098  
4551       18.97787   12.88792   23.40996  
4551.5     19.1181    12.61428   23.1353   
4552       19.25833   12.46583   23.11052  
4552.5     19.42081   12.53628   23.45399  
4553       19.61311   12.9208    23.82668  
4553.5     19.67726   13.38494   23.35614  
4554       19.59242   14.24894   22.7735   
4554.5     19.73978   14.9101    22.69583  
4555       20.64581   15.26212   23.16197  
4555.5     21.57047   15.52172   23.38049  
4556       21.95766   15.99592   23.14758  
4556.5     21.77274   16.41458   22.70477  
4557       21.2316    16.53484   22.76804  
4557.5     20.59071   16.66454   22.8313   
4558       19.98224   16.63274   22.83464  
4558.5     19.76651   16.33867   22.8542   
4559       19.6675    16.0674    22.93431  
4559.5     19.04994   15.90662   22.89653  
4560       17.75806   15.68569   22.64096  
4560.5     16.27194   15.4119    22.5408   
4561       15.14709   15.27559   22.41426  
4561.5     14.35992   15.20645   22.30576  
4562       13.44338   14.79698   22.2133   
4562.5     12.48183   13.43416   22.12682  
4563       11.05239   11.53477   22.04724  
4563.5     9.751112   10.40567   22.04724  
4564       9.071102   9.707783   21.9803   
4564.5     8.835567   9.314188   21.50252  
4565       8.704367   8.933622   20.4343   
4565.5     8.783678   7.831049   20.31496  
4566       8.903288   6.642502   20.91554  
4566.5     9.228012   5.811757   21.88791  
4567       9.438351   5.773945   23.30708  
4567.5     9.647108   6.789678   23.17561  
4568       10.28511   7.982371   22.1472   
4568.5     11.51675   8.937841   19.41162  
4569       12.97058   10.07311   17.77129  
4569.5     14.29054   11.11403   16.89215  
4570       15.4741    11.71895   16.55186  
4570.5     16.37802   11.91466   16.85234  
4571       17.10313   12.1764    17.1239   
4571.5     17.24042   12.54874   17.35251  
4572       17.24567   12.70938   17.52425  
4572.5     17.31004   12.78336   17.71184  
4573       17.3625    12.95789   17.93034  
4573.5     17.24545   12.95479   17.95276  
4574       16.76393   12.9247    17.95276  
4574.5     16.15019   12.89037   17.95276  
4575       15.50414   12.9       18.02237  
4575.5     14.79149   12.92404   18.11484  
4576       14.05036   12.93576   18.20731  
4576.5     13.63445   12.7989    18.3056   
4577       13.33273   12.0291    18.41493  
4577.5     12.82601   11.28099   18.30421  
4578       11.85064   10.84109   17.87054  
4578.5     10.75588   10.19861   17.3084   
4579       10.16825   9.114258   16.70758  
4579.5     9.875294   8.787088   16.45845  
4580       9.751657   8.646776   16.77811  
4580.5     9.77112    8.418596   18.33809  
4581       9.880375   7.499174   19.07132  
4581.5     9.933731   5.974756   19.43208  
4582       9.863325   5.208589   19.96948  
4582.5     9.71538    4.787401   22.3954   
4583       9.592449   4.871927   23.32687  
4583.5     9.51972    5.32382    23.26028  
4584       9.546778   5.983045   22.08498  
4584.5     9.733824   6.839145   20.72742  
4585       10.08109   8.288958   19.77426  
4585.5     10.55512   9.392279   18.26419  
4586       11.346     10.51036   17.66302  
4586.5     12.23855   11.29723   17.73375  
4587       13.04558   11.63472   17.53029  
4587.5     13.75402   12.04636   16.94003  
4588       14.18144   12.3584    16.53543  
4588.5     14.38253   12.53045   16.53543  
4589       14.36482   12.76592   16.53543  
4589.5     14.11621   12.92611   16.67529  
4590       13.63283   13.04133   16.82559  
4590.5     12.9639    13.19333   17.01765  
4591       12.26508   13.29134   17.16534  
4591.5     11.57331   13.15126   17.16534  
4592       10.62262   12.79456   17.08899  
4592.5     9.649389   12.28987   17.00888  
4593       9.005695   11.49462   16.75354  
4593.5     8.5676     10.70705   16.49593  
4594       8.191639   9.9114     16.23833  
4594.5     7.79442    9.016041   15.87108  
4595       7.361727   7.497705   14.94967  
4595.5     6.979069   6.398627   14.08429  
4596       6.6277     5.570432   14.09843  
4596.5     6.245525   5.184473   14.97925  
4597       5.899148   4.9259     16.65138  
4597.5     5.613909   4.74269    14.46238  
4598       5.358476   4.605301   13.06206  
4598.5     5.126033   4.436993   12.78541  
4599       4.92571    4.250755   13.60143  
4599.5     4.723452   4.0304     14.58488  
4600       4.520028   3.867755   15.35609  
4600.5     4.331687   3.747718   16.06847  
4601       4.149613   3.667569   18.32913  
4601.5     4.017446   3.583723   21.84492  
4602       3.906487   3.408916   24.0258   
4602.5     3.837421   3.234036   24.89748  
4603       3.770079   3.048842   25.41269  
4603.5     3.709982   2.817266   26.00459  
4604       3.661603   2.656941   26.53438  
4604.5     3.622046   2.600961   26.50714  
4605       3.622046   2.552872   26.34692  
4605.5     3.622046   2.510254   26.46808  
4606       3.666122   2.467835   26.61417  
4606.5     3.714188   2.456693   26.49997  
4607       3.820525   2.456693   25.98425  
4607.5     3.949577   2.535646   25.98425  
4608       4.097522   2.656734   25.98425  
4608.5     4.2715     2.832192   25.97852  
4609       4.406162   3.061276   25.71152  
4609.5     4.292483   3.430017   25.0619   
4610       4.158986   3.942374   24.00519  
4610.5     4.037735   4.632425   21.9109   
4611       4.136264   5.353533   19.13913  
4611.5     4.376591   5.917477   16.19817  
4612       4.617074   5.819203   15.8581   
4612.5     4.890842   4.905171   16.45427  
4613       5.230289   4.184477   18.46111  
4613.5     5.542915   4.020841   20.98146  
4614       5.841329   4.452537   21.7092   
4614.5     6.299635   5.280206   21.0939   
4615       7.549596   6.29564    20.2218   
4615.5     8.853954   6.994379   19.19455  
4616       9.895634   7.722875   17.8826   
4616.5     10.60098   8.525764   16.43924  
4617       11.08156   9.427105   15.13083  
4617.5     11.40762   9.999348   15.95853  
4618       11.52025   10.5002    17.23105  
4618.5     11.04055   11.00504   17.61732  
4619       10.23491   11.27559   17.53146  
4619.5     8.823179   11.22302   17.44994  
4620       7.945498   11.03076   17.37479  
4620.5     7.442396   10.64737   17.49141  
4621       7.244094   9.829357   18.03767  
4621.5     7.244094   8.699722   18.67152  
4622       7.342573   7.463783   19.36603  
4622.5     7.468698   6.157598   20.30125  
