~Version
 VERS              .         3.0                           : CWLS LOG ASCII STANDARD - VERSION 3.0
 WRAP              .         NO                            : ONE LINE PER DEPTH STEP
 DLM               .         SPACE                         : DELIMITING CHARACTER(SPACE TAB OR COMMA)
~Well Information
#_______________________________________________________________________________
#
#PARAMETER_NAME    .UNIT     VALUE                         : DESCRIPTION
#_______________________________________________________________________________
STRT               .ft       3440                          : First reference value
STOP               .ft       8976                          : Last reference value
STEP               .ft       0.5                           : Step increment
NULL               .         -9999                         : Missing value
COMP               .                                       : Company
WELL               .         EGBM-005                      : Well name
FLD                .         EGBEMA                        : Field
LOC                .                                       : Location
SRVC               .                                       : Service Company
CTRY               .                                       : Country
DATE               .         1966/04/03                    : Service Date
X                  .                                       : X or East-West coordinate
Y                  .                                       : Y or North South coordinate
GDAT               .                                       : Geodetic Datum
HZCS               .                                       : Horizontal Co-ordinate System
APIN               .         10803/01                      : 
BHT                .degF     177                           : 
BLI                .ft       5700                          : 
BS                 .in       9.625                         : 
CREATION-TIME      .         2066/4/3 0_0                  : 
CSIZ               .in       10.75                         : 
DFD                .g/cm3    1.2                           : 
DFT                .         BENT. Q-BROXIN                : 
DFV                .s        0                             : 
ELZ                .         -999.25                       : 
FIELD-NAME         .         EGBEMA                        : 
FILE-ID            .         SOH5  .5                      : 
FILE-NUMBER        .         101                           : 
FILE-SET-NAME      .                                       : 
FILE-SET-NUMBER    .         0                             : 
FILE-TYPE          .         PTF                           : 
HIDE               .         Well/Hole_ EGBM-5  Service Name_ ML  Run Number_ 1: 
LCC                .         0                             : 
LMF                .         1                             : 
MFST               .degF     77                            : 
MST                .degF     87                            : 
NAME-SPACE-NAME    .         LIS                           : 
NAME-SPACE-VERSION .         0                             : 
PRODUC             .         SHELL(PARASOL)                : 
PRODUCER-CODE      .         0                             : 
PRODUCER-NAME      .         Schlumberger                  : 
PRODUCT            .                                       : 
PROGRAMS           .                                       : 
R1                 .         REMARKS_<_techsia_br_>        : 
R2                 .         SHELL LAB. MEASUREMENTS<_techsia_br_>: 
R3                 .         MUD      1.62 OHMS AT 77 DEGF<_techsia_br_>: 
R4                 .         FILTRATE 1.55 OHMS AT 77 DEGF<_techsia_br_>: 
RMCS               .ohm.m    -999.25                       : 
RMFS               .ohm.m    1.55                          : 
RMS                .ohm.m    1.56                          : 
TCS                .h        -999.25                       : 
TDD                .ft       9000                          : 
TDL                .ft       8977                          : 
TLI                .ft       3437                          : 
VERSION            .         2P01                          : 
WELL-ID            .         10803/01                      : 
WELL-NAME          .         EGBM-005                      : 
WN                 .         EGBM-005                      : 
~Parameter Information Block
#_______________________________________________________________________________
#
#PARAMETER_NAME    .UNIT     VALUE                         : DESCRIPTION
#_______________________________________________________________________________
SET                .         SOH3  _1_1                    : 
ACQUISITION-PRODUCT .         DLIS/U                        : 
CREATION-TIME      .         2026/5/13 10_35               : 
DLIS_FRAME_DIRECTION .         INCREASING                    : 
DLIS_FRAME_NAME    .         1                             : 
DLIS_FRAME_SPACING .ft       0.5                           : 
FIELD-NAME         .         EGBEMA                        : 
FILE-ID            .         SOH3  .1                      : 
FILE-NUMBER        .         1                             : 
FILE-SET-NAME      .         LIS-TO-DLIS-CONVERSION        : 
FILE-SET-NUMBER    .         7647                          : 
FILE-TYPE          .         PTF                           : 
INDEX-TYPE         .         BOREHOLE-DEPTH                : 
NAME-SPACE-NAME    .                                       : 
NAME-SPACE-VERSION .         0                             : 
OriginalDatasetName .         1                             : 
PRODUCER-CODE      .         440                           : 
PRODUCER-NAME      .         Schlumberger                  : 
PRODUCT            .         DLIS/U                        : 
PROGRAMS           .         LIS-TO-DLIS                   : 
TLFamily_DEPT      .         Measured Depth                : 
TLFamily_LN        .                                       : 
TLFamily_SN        .         Resistivity - Shallow         : 
TLFamily_SP        .         Spontaneous Potential         : 
VERSION            .         0.1                           : 
WELL-ID            .         10803/01                      : 
WELL-NAME          .         EGBM-005                      : 
~Curve Information
#_______________________________________________________________________________
#
#LOGNAME           .UNIT     LOG_ID                        : DESCRIPTION
#_______________________________________________________________________________
DEPT               .ft                                     :  {F}
LN                 .ohm.m                                  :  {F}
SN                 .ohm.m                                  :  {F}
SP                 .mV                                     :  {F}
~Ascii
# ...
5988       12.33129   9.829975   22.38385  
5988.5     12.31021   10.29749   22.11043  
5989       12.39098   10.50315   21.94783  
5989.5     12.65777   10.42108   22.1665   
5990       12.88274   10.21781   22.42522  
5990.5     13.04931   9.865932   22.00165  
5991       13.16934   9.380915   21.48111  
5991.5     13.27576   9.049236   22.50359  
5992       13.37361   8.987774   24.22697  
5992.5     13.45361   9.198156   25.08809  
5993       13.61977   9.58296    24.93117  
5993.5     13.8944    10.07435   23.41257  
5994       14.2351    10.65417   21.64539  
5994.5     14.66196   11.05784   20.34467  
5995       15.04234   11.23901   19.38264  
5995.5     15.3789    11.39342   18.50569  
5996       15.67843   11.55553   18.42519  
5996.5     15.84787   11.66756   18.33083  
5997       15.97591   11.67956   17.8685   
5997.5     16.1665    11.69156   17.47717  
5998       16.22641   11.7065    17.15659  
5998.5     16.22659   11.72496   16.85905  
5999       16.24071   11.75729   16.5815   
5999.5     16.25484   11.79475   16.28474  
6000       16.31683   11.84278   15.98418  
6000.5     16.41379   11.8432    15.99275  
6001       16.54305   11.82015   16.08656  
6001.5     16.66518   11.71352   16.31245  
6002       16.8298    11.83505   16.11679  
6002.5     17.04391   12.00491   15.63502  
6003       17.24701   12.15721   15.15325  
6003.5     17.47885   12.23726   15.14196  
6004       17.70097   12.24822   15.11891  
6004.5     17.80386   12.2327    14.95836  
6005       17.86974   12.24739   14.78736  
6005.5     17.8882    12.29541   14.56836  
6006       17.76053   12.16521   14.77781  
6006.5     17.56673   12.07732   15.13187  
6007       17.30258   12.0365    15.26539  
6007.5     17.03618   12.0165    15.19848  
6008       16.85234   12.0608    15.18872  
6008.5     16.7083    12.0958    15.48986  
6009       16.44724   12.04778   15.65912  
6009.5     16.05006   11.77371   15.73442  
6010       15.36319   11.58469   15.84652  
6010.5     14.15859   11.41763   15.99705  
6011       12.53752   11.21763   16.36487  
6011.5     10.87326   11.03221   17.06754  
6012       9.268021   10.8286    18.11224  
6012.5     7.842902   10.47334   19.23088  
6013       6.649889   9.768579   20.33524  
6013.5     6.045372   8.65789    21.63235  
6014       5.578929   7.188276   23.24051  
6014.5     5.410655   6.030548   25.28563  
6015       5.35623    5.220125   28.51816  
6015.5     5.419532   4.637486   30.76944  
6016       5.667803   4.568108   31.86969  
6016.5     6.128321   4.808139   32.289    
6017       6.961027   5.095667   31.94481  
6017.5     7.879354   5.550079   31.47441  
6018       8.605362   6.235366   30.7079   
6018.5     9.14381    6.664195   29.43646  
6019       9.768322   6.620562   29.01707  
6019.5     10.23047   6.67093    28.84377  
6020       10.30245   6.802974   28.75771  
6020.5     10.237     7.055225   28.21741  
6021       10.24559   7.391155   27.0128   
6021.5     10.2799    7.613239   25.80768  
6022       10.41732   7.819153   24.80339  
6022.5     10.56923   8.040722   25.05328  
6023       10.73732   8.413172   24.68034  
6023.5     10.99389   8.861952   22.47597  
6024       11.24153   9.333521   20.73962  
6024.5     11.46544   9.614393   21.80057  
6025       11.67552   9.753674   23.13982  
6025.5     11.41995   9.712271   23.34384  
6026       10.57977   9.640863   23.13371  
6026.5     9.653992   9.7129     22.61769  
6027       8.687183   9.705593   22.29881  
6027.5     8.089407   9.255798   22.12672  
6028       7.633162   8.751413   22.63914  
6028.5     7.235377   8.012703   23.98338  
6029       6.78794    6.409987   24.81529  
6029.5     6.230792   5.261963   26.38991  
6030       5.559507   4.895178   28.884    
6030.5     4.744717   5.013339   30.81763  
6031       3.907444   5.104295   31.70882  
6031.5     3.452338   5.090246   32.21559  
6032       3.400898   5.034854   32.48323  
6032.5     3.375785   5.006409   32.75085  
6033       3.412734   4.858112   32.86691  
6033.5     3.556317   4.795363   32.9422   
6034       3.837953   4.875582   32.81795  
6034.5     4.385288   5.035687   32.60542  
6035       5.413499   5.306291   32.17979  
6035.5     6.527477   5.451402   31.13921  
6036       7.860088   5.51322    29.2381   
6036.5     9.025721   5.56121    28.62282  
6037       9.946756   5.828527   30.90826  
6037.5     10.48243   6.531178   31.36436  
6038       10.87128   7.383053   30.39969  
6038.5     11.30075   8.422228   27.93752  
6039       12.19105   9.424889   25.6873   
6039.5     13.32166   10.72112   25.01385  
6040       14.19483   11.43586   24.86327  
6040.5     14.99203   12.01227   24.67648  
6041       15.95058   12.4016    24.41847  
6041.5     16.69075   12.64462   24.38112  
6042       17.20508   12.8411    24.56184  
6042.5     17.51218   12.97886   24.74258  
6043       17.73035   13.20286   24.45903  
6043.5     17.93613   13.45095   24.0968   
6044       18.15625   13.67693   23.39413  
6044.5     18.52974   13.85946   22.92644  
6045       18.97504   14.00632   22.71384  
6045.5     19.37186   14.1116    22.66312  
6046       19.66106   14.07467   23.08815  
6046.5     19.81131   14.08489   23.48785  
6047       19.81131   14.14029   22.98595  
6047.5     19.81131   14.15094   22.5952   
6048       19.81131   14.0604    22.33705  
6048.5     19.81131   13.93678   22.36481  
6049       19.75349   13.87824   22.56552  
6049.5     19.64908   13.9521    22.78822  
6050       19.54468   14.09852   23.07172  
6050.5     19.60095   14.3161    23.35107  
6051       19.79303   14.46882   23.53174  
6051.5     19.98511   14.58398   23.7124   
6052       20.17336   14.63965   23.79289  
6052.5     20.35117   14.55776   23.73553  
6053       20.52898   14.33548   23.67818  
6053.5     20.70679   14.17873   23.44377  
6054       20.69208   14.30191   23.12251  
6054.5     20.60631   14.36411   23.0284   
6055       20.52055   14.22007   23.0284   
6055.5     20.44533   14.07121   23.30782  
6056       20.52534   14.05557   23.68431  
6056.5     20.60538   14.16079   23.85602  
6057       20.68539   14.20882   23.91624  
6057.5     20.76416   14.15523   23.96826  
6058       20.83478   14.14674   23.73883  
6058.5     20.9054    14.20675   23.50941  
6059       20.97601   14.37257   23.29091  
6059.5     21.04663   14.52659   23.10075  
6060       21.12366   14.62264   22.91058  
6060.5     21.2037    14.55719   22.82056  
6061       21.28374   14.5842    22.75714  
6061.5     21.36378   14.68427   22.71294  
6062       21.21953   14.86315   22.71294  
6062.5     21.0013    14.91928   22.71294  
6063       20.78305   14.98355   22.67398  
6063.5     20.91547   15.05741   22.54018  
6064       21.10277   15.18639   22.40636  
6064.5     21.30278   15.15493   22.34392  
6065       21.44867   15.0291    22.28658  
6065.5     21.55783   14.82338   22.27878  
6066       21.66698   14.67066   22.49139  
6066.5     21.79907   14.43456   22.70399  
6067       21.94031   14.292     23.09752  
6067.5     21.96373   14.39933   22.90453  
6068       21.86369   14.4536    22.53882  
6068.5     21.76366   14.40981   22.16817  
6069       21.65674   14.1697    22.18474  
6069.5     21.53671   14.12036   22.47614  
6070       21.41669   14.3405    22.71294  
6070.5     21.31673   14.50992   22.71294  
6071       21.22438   14.44979   22.24574  
6071.5     21.13203   14.20067   22.19569  
6072       21.01805   14.00376   22.50862  
6072.5     20.85797   14.18468   22.86995  
6073       20.69789   14.35269   23.19769  
6073.5     20.5378    14.44261   23.29036  
6074       20.47258   14.50263   23.34384  
6074.5     20.55536   14.66559   23.34384  
6075       20.63814   14.87731   22.98917  
6075.5     20.72092   15.03145   22.38785  
6076       20.75471   15.03145   21.84035  
6076.5     20.75471   14.7947    21.67834  
6077       20.75471   14.46513   21.90086  
6077.5     20.80437   14.07535   22.40277  
6078       20.89012   13.78741   22.68425  
6078.5     20.97589   13.56509   22.86957  
