~Version
 VERS              .         3.0                           : CWLS LOG ASCII STANDARD - VERSION 3.0
 WRAP              .         NO                            : ONE LINE PER DEPTH STEP
 DLM               .         SPACE                         : DELIMITING CHARACTER(SPACE TAB OR COMMA)
~Well Information
#_______________________________________________________________________________
#
#PARAMETER_NAME    .UNIT     VALUE                         : DESCRIPTION
#_______________________________________________________________________________
STRT               .ft       3440                          : First reference value
STOP               .ft       8976                          : Last reference value
STEP               .ft       0.5                           : Step increment
NULL               .         -9999                         : Missing value
COMP               .                                       : Company
WELL               .         EGBM-005                      : Well name
FLD                .         EGBEMA                        : Field
LOC                .                                       : Location
SRVC               .                                       : Service Company
CTRY               .                                       : Country
DATE               .         1966/04/03                    : Service Date
X                  .                                       : X or East-West coordinate
Y                  .                                       : Y or North South coordinate
GDAT               .                                       : Geodetic Datum
HZCS               .                                       : Horizontal Co-ordinate System
APIN               .         10803/01                      : 
BHT                .degF     177                           : 
BLI                .ft       5700                          : 
BS                 .in       9.625                         : 
CREATION-TIME      .         2066/4/3 0_0                  : 
CSIZ               .in       10.75                         : 
DFD                .g/cm3    1.2                           : 
DFT                .         BENT. Q-BROXIN                : 
DFV                .s        0                             : 
ELZ                .         -999.25                       : 
FIELD-NAME         .         EGBEMA                        : 
FILE-ID            .         SOH5  .5                      : 
FILE-NUMBER        .         101                           : 
FILE-SET-NAME      .                                       : 
FILE-SET-NUMBER    .         0                             : 
FILE-TYPE          .         PTF                           : 
HIDE               .         Well/Hole_ EGBM-5  Service Name_ ML  Run Number_ 1: 
LCC                .         0                             : 
LMF                .         1                             : 
MFST               .degF     77                            : 
MST                .degF     87                            : 
NAME-SPACE-NAME    .         LIS                           : 
NAME-SPACE-VERSION .         0                             : 
PRODUC             .         SHELL(PARASOL)                : 
PRODUCER-CODE      .         0                             : 
PRODUCER-NAME      .         Schlumberger                  : 
PRODUCT            .                                       : 
PROGRAMS           .                                       : 
R1                 .         REMARKS_<_techsia_br_>        : 
R2                 .         SHELL LAB. MEASUREMENTS<_techsia_br_>: 
R3                 .         MUD      1.62 OHMS AT 77 DEGF<_techsia_br_>: 
R4                 .         FILTRATE 1.55 OHMS AT 77 DEGF<_techsia_br_>: 
RMCS               .ohm.m    -999.25                       : 
RMFS               .ohm.m    1.55                          : 
RMS                .ohm.m    1.56                          : 
TCS                .h        -999.25                       : 
TDD                .ft       9000                          : 
TDL                .ft       8977                          : 
TLI                .ft       3437                          : 
VERSION            .         2P01                          : 
WELL-ID            .         10803/01                      : 
WELL-NAME          .         EGBM-005                      : 
WN                 .         EGBM-005                      : 
~Parameter Information Block
#_______________________________________________________________________________
#
#PARAMETER_NAME    .UNIT     VALUE                         : DESCRIPTION
#_______________________________________________________________________________
SET                .         SOH3  _1_1                    : 
ACQUISITION-PRODUCT .         DLIS/U                        : 
CREATION-TIME      .         2026/5/13 10_35               : 
DLIS_FRAME_DIRECTION .         INCREASING                    : 
DLIS_FRAME_NAME    .         1                             : 
DLIS_FRAME_SPACING .ft       0.5                           : 
FIELD-NAME         .         EGBEMA                        : 
FILE-ID            .         SOH3  .1                      : 
FILE-NUMBER        .         1                             : 
FILE-SET-NAME      .         LIS-TO-DLIS-CONVERSION        : 
FILE-SET-NUMBER    .         7647                          : 
FILE-TYPE          .         PTF                           : 
INDEX-TYPE         .         BOREHOLE-DEPTH                : 
NAME-SPACE-NAME    .                                       : 
NAME-SPACE-VERSION .         0                             : 
OriginalDatasetName .         1                             : 
PRODUCER-CODE      .         440                           : 
PRODUCER-NAME      .         Schlumberger                  : 
PRODUCT            .         DLIS/U                        : 
PROGRAMS           .         LIS-TO-DLIS                   : 
TLFamily_DEPT      .         Measured Depth                : 
TLFamily_LN        .                                       : 
TLFamily_SN        .         Resistivity - Shallow         : 
TLFamily_SP        .         Spontaneous Potential         : 
VERSION            .         0.1                           : 
WELL-ID            .         10803/01                      : 
WELL-NAME          .         EGBM-005                      : 
~Curve Information
#_______________________________________________________________________________
#
#LOGNAME           .UNIT     LOG_ID                        : DESCRIPTION
#_______________________________________________________________________________
DEPT               .ft                                     :  {F}
LN                 .ohm.m                                  :  {F}
SN                 .ohm.m                                  :  {F}
SP                 .mV                                     :  {F}
~Ascii
# ...
6716       8.43652    7.197324   11.72248  
6716.5     8.540293   7.151049   12.0232   
6717       8.63637    7.091009   11.73042  
6717.5     8.687067   7.075471   11.18654  
6718       8.701189   7.075471   11.24986  
6718.5     8.704149   7.125778   11.31317  
6719       8.684149   7.199358   11.45856  
6719.5     8.649038   7.343435   11.65896  
6720       8.60902    7.457755   11.79169  
6720.5     8.579294   7.589736   11.71154  
6721       8.56517    7.809881   11.51505  
6721.5     8.537045   8.042446   11.01393  
6722       8.440994   8.274336   10.95093  
6722.5     8.258438   8.495903   11.07118  
6723       8.098742   8.677885   11.18736  
6723.5     7.989658   8.909355   11.26025  
6724       8.023613   9.224611   11.33314  
6724.5     8.091282   9.528028   11.40602  
6725       8.238995   9.635214   11.47891  
6725.5     8.396667   9.419821   11.70818  
6726       8.561726   9.167587   11.92534  
6726.5     8.736204   9.067154   11.22378  
6727       8.92095    8.971809   10.81255  
6727.5     9.125359   8.793064   10.70866  
6728       9.214178   8.616079   10.70866  
6728.5     9.240976   8.496075   10.70866  
6729       9.225969   8.50489    10.53021  
6729.5     9.211285   8.519901   10.27247  
6730       9.197945   8.474411   10.23622  
6730.5     9.184605   8.425327   10.19559  
6731       9.142328   8.410315   10.05407  
6731.5     9.09429    8.39992    9.917149  
6732       9.032349   8.45994    9.850348  
6732.5     8.96833    8.519962   9.783546  
6733       8.945551   8.606354   9.962978  
6733.5     8.930819   8.658314   10.24589  
6734       8.930819   8.678328   10.46125  
6734.5     8.938419   8.660151   10.60271  
6735       8.970444   8.633663   10.72544  
6735.5     9.004074   8.596735   10.79226  
6736       9.041973   8.547235   10.85909  
6736.5     9.079872   8.491812   11.11922  
6737       9.11944    8.349726   11.40213  
6737.5     9.144556   8.248415   11.99046  
6738       9.114546   8.170298   12.73061  
6738.5     9.088051   8.110277   12.75591  
6739       9.088051   8.050314   12.23006  
6739.5     9.088051   8.050314   11.4748   
6740       9.118244   8.050314   11.22165  
6740.5     9.166252   8.050314   10.96849  
6741       9.214317   8.050314   10.83203  
6741.5     9.268896   8.087957   10.77477  
6742       9.323475   8.156544   10.7175   
6742.5     9.375166   8.261929   10.60162  
6743       9.407175   8.361145   10.47504  
6743.5     9.429613   8.429768   10.37221  
6744       9.402933   8.468279   10.31208  
6744.5     9.192421   8.484283   10.25196  
6745       8.893122   8.51301    10.23622  
6745.5     8.545893   8.549959   10.23622  
6746       8.109264   8.573223   10.599    
6746.5     7.689948   8.517933   10.99975  
6747       7.32972    8.352749   11.77774  
6747.5     7.06971    8.043139   12.57963  
6748       6.893338   7.686525   13.89021  
6748.5     6.798728   7.38712    15.13285  
6749       6.817192   7.161459   16.38968  
6749.5     6.938584   7.074193   17.45729  
6750       7.119775   7.101162   16.97635  
6750.5     7.316257   7.177149   16.49541  
6751       7.52501    7.21146    16.01447  
6751.5     7.683282   7.265373   15.828    
6752       7.716018   7.351152   15.57123  
6752.5     7.748754   7.455702   14.6966   
6753       7.811133   7.515723   14.36609  
6753.5     7.912236   7.466368   14.20579  
6754       8.01334    7.357887   13.9935   
6754.5     8.067495   7.306448   13.76797  
6755       8.119148   7.264151   13.70079  
6755.5     8.172506   7.264151   13.70079  
6756       8.225864   7.352699   13.57923  
6756.5     8.318182   7.472797   13.35295  
6757       8.42322    7.599836   12.41772  
6757.5     8.483427   7.704402   11.92002  
6758       8.520355   7.704402   11.49565  
6758.5     8.502899   7.68279    11.18706  
6759       8.426056   7.648479   10.94649  
6759.5     8.255869   7.601226   10.81276  
6760       8.059519   7.550674   10.73261  
6760.5     7.865856   7.501831   10.81866  
6761       7.672338   7.456816   10.97552  
6761.5     7.475856   7.392985   11.13239  
6762       7.240815   7.256856   11.54376  
6762.5     6.994473   7.043426   12.06977  
6763       6.734463   6.930409   12.61675  
6763.5     6.472999   6.85764    13.17807  
6764       6.21245    6.691437   13.82773  
6764.5     5.955252   6.240299   14.55865  
6765       5.705969   5.815626   15.76108  
6765.5     5.465798   5.383225   18.32321  
6766       5.262398   4.943045   21.52078  
6766.5     5.107878   4.623243   23.77512  
6767       5          4.395949   25.37964  
6767.5     5          4.315913   26.53204  
6768       5.034279   4.416633   26.70023  
6768.5     5.094281   4.498298   26.64197  
6769       5.334214   4.553689   27.04286  
6769.5     5.552438   4.666694   26.90196  
6770       5.650933   4.808064   26.4529   
6770.5     5.685226   5.009822   26.17534  
6771       5.716072   5.303288   25.75737  
6771.5     5.746097   5.747882   24.9847   
6772       5.816929   6.263017   22.88535  
6772.5     5.89861    6.635728   19.4041   
6773       5.965307   6.553482   18.06987  
6773.5     6.032004   6.255803   17.32709  
6774       6.037736   5.894937   17.72076  
6774.5     6.02812    5.548672   19.03709  
6775       5.90803    5.367479   21.78682  
6775.5     5.774113   5.497664   22.84366  
6776       5.598063   5.807485   23.21353  
6776.5     5.432984   5.980938   20.33301  
6777       5.295812   5.956409   18.91113  
6777.5     5.155528   5.772412   19.21172  
6778       5.011415   5.505488   20.56123  
6778.5     4.856615   5.145363   20.83746  
6779       4.690439   4.789485   21.55717  
6779.5     4.616577   4.480428   23.9192   
6780       4.568563   4.333694   26.63658  
6780.5     4.527071   4.265108   27.72987  
6781       4.503779   4.245283   28.37923  
6781.5     4.532026   4.245283   28.82935  
6782       4.560776   4.317039   30.03197  
6782.5     4.616168   4.465619   30.91911  
6783       4.674281   4.666375   30.72412  
6783.5     4.738299   4.762427   29.97502  
6784       4.790401   4.836002   28.67975  
6784.5     4.820425   4.904589   26.78409  
6785       4.853603   4.964762   25.3084   
6785.5     4.895955   5.009919   25.08318  
6786       4.938153   5.020146   25.45326  
6786.5     4.975102   4.91099    27.10204  
6787       4.964396   4.845262   26.9899   
6787.5     4.85524    4.79528    25.48813  
6788       4.651487   4.723242   26.48343  
6788.5     4.467675   4.716981   27.76961  
6789       4.353758   4.77373    28.71416  
6789.5     4.310095   4.869319   29.46796  
6790       4.308176   4.819057   29.94815  
6790.5     4.308176   4.615976   30.0575   
6791       4.320684   4.567487   28.8679   
6791.5     4.337831   4.633897   27.59293  
6792       4.429233   4.681923   28.21046  
6792.5     4.566053   4.581043   29.14061  
6793       4.764311   4.468057   30.04262  
6793.5     4.873467   4.350118   31.37718  
6794       4.923474   4.228874   31.98351  
6794.5     4.94874    4.099626   32.26169  
6795       4.980332   4.003344   32.4386   
6795.5     5.034911   3.951877   32.36342  
6796       5.089489   3.959191   32.28822  
6796.5     5.145891   4.073531   32.09586  
6797       5.205912   4.357339   31.74948  
6797.5     5.264338   4.771404   31.08237  
6798       5.317697   5.192199   28.98647  
6798.5     5.371054   5.707605   25.21283  
6799       5.377358   6.259551   21.97412  
6799.5     5.366738   6.821321   19.97182  
6800       5.332434   6.87997    18.72307  
6800.5     5.298128   6.792645   18.50441  
6801       5.23824    6.709968   18.4949   
6801.5     5.158217   6.568706   18.58267  
6802       5.125786   6.291615   18.82347  
6802.5     5.125786   5.772285   19.6826   
6803       5.125786   5.146359   21.44928  
6803.5     5.125786   4.843065   24.87434  
6804       5.155591   4.886728   26.87978  
6804.5     5.229489   5.022203   27.62495  
6805       5.389247   5.250399   26.91638  
6805.5     5.596972   5.375248   25.05638  
6806       5.837118   5.455824   23.53372  
6806.5     6.0379     5.52441    22.69196  
