~Version
 VERS              .         3.0                           : CWLS LOG ASCII STANDARD - VERSION 3.0
 WRAP              .         NO                            : ONE LINE PER DEPTH STEP
 DLM               .         SPACE                         : DELIMITING CHARACTER(SPACE TAB OR COMMA)
~Well Information
#_______________________________________________________________________________
#
#PARAMETER_NAME    .UNIT     VALUE                         : DESCRIPTION
#_______________________________________________________________________________
STRT               .ft       3000                          : First reference value
STOP               .ft       8496                          : Last reference value
STEP               .ft       0.5                           : Step increment
NULL               .         -9999                         : Missing value
COMP               .                                       : Company
WELL               .         EGBM-007                      : Well name
FLD                .         EGBEMA                        : Field
LOC                .                                       : Location
SRVC               .                                       : Service Company
CTRY               .                                       : Country
DATE               .         1967/02/19                    : Service Date
X                  .                                       : X or East-West coordinate
Y                  .                                       : Y or North South coordinate
GDAT               .                                       : Geodetic Datum
HZCS               .                                       : Horizontal Co-ordinate System
APIN               .         10805/01                      : 
BHT                .degF     162                           : 
BLI                .ft       8250                          : 
BS                 .in       9.625                         : 
CREATION-TIME      .         2067/2/19 0_0                 : 
CSIZ               .in       10.75                         : 
DFD                .g/cm3    1.18                          : 
DFT                .         BENT. SPERSENE                : 
DFV                .s        0                             : 
ELZ                .         -999.25                       : 
FIELD-NAME         .         EGBEMA                        : 
FILE-ID            .         SOH18 .4                      : 
FILE-NUMBER        .         0                             : 
FILE-SET-NAME      .                                       : 
FILE-SET-NUMBER    .         0                             : 
FILE-TYPE          .         PTF                           : 
HIDE               .         4540_300_185_7_1_DATE_67/02/19_SOH_18_SEQ_4: 
LCC                .         0                             : 
LMF                .         1                             : 
MST                .degF     96                            : 
NAME-SPACE-NAME    .         LIS                           : 
NAME-SPACE-VERSION .         0                             : 
PRODUC             .         SHELL(PARASOL)                : 
PRODUCER-CODE      .         0                             : 
PRODUCER-NAME      .         Schlumberger                  : 
PRODUCT            .                                       : 
PROGRAMS           .         INC                           : 
R1                 .         SHELL LAB. MEASUREMENTS       : 
R2                 .         MUD 1.14 OHMS AT 77 DEGF      : 
R3                 .         FILTRATE 1.09 OHMS AT 77 DEGF : 
R4                 .         FROM 7700 TO CASING SHOE REPEATED FREE OF CHARGE.: 
R5                 .         RAN "NO CURRENT SP" GOING DOWN (STILL NOISE ON SP WITH  IN: 
R6                 .         HOLE AND TRUCK AND RIG GENERATORS OFF.): 
RMCS               .ohm.m    -999.25                       : 
RMFS               .ohm.m    -999.25                       : 
RMS                .ohm.m    0.9100001                     : 
TCS                .h        -999.25                       : 
TDD                .ft       8500                          : 
TDL                .ft       8499                          : 
TLI                .ft       7600                          : 
VERSION            .         2P01                          : 
WELL-ID            .         10805/01                      : 
WELL-NAME          .         EGBM-007                      : 
WN                 .         EGBM-007                      : 
~Parameter Information Block
#_______________________________________________________________________________
#
#PARAMETER_NAME    .UNIT     VALUE                         : DESCRIPTION
#_______________________________________________________________________________
SET                .         SOH15 _1_1                    : 
ACQUISITION-PRODUCT .         DLIS/U                        : 
CREATION-TIME      .         2026/5/13 11_54               : 
DLIS_FRAME_DIRECTION .         INCREASING                    : 
DLIS_FRAME_NAME    .         1                             : 
DLIS_FRAME_SPACING .ft       0.5                           : 
FIELD-NAME         .         EGBEMA                        : 
FILE-ID            .         SOH15 .1                      : 
FILE-NUMBER        .         1                             : 
FILE-SET-NAME      .         LIS-TO-DLIS-CONVERSION        : 
FILE-SET-NUMBER    .         946                           : 
FILE-TYPE          .         PTF                           : 
INDEX-TYPE         .         BOREHOLE-DEPTH                : 
NAME-SPACE-NAME    .                                       : 
NAME-SPACE-VERSION .         0                             : 
OriginalDatasetName .         1                             : 
PRODUCER-CODE      .         440                           : 
PRODUCER-NAME      .         Schlumberger                  : 
PRODUCT            .         DLIS/U                        : 
PROGRAMS           .         LIS-TO-DLIS                   : 
TLFamily_DEPT      .         Measured Depth                : 
TLFamily_LN        .                                       : 
TLFamily_SN        .         Resistivity - Shallow         : 
TLFamily_SP        .         Spontaneous Potential         : 
VERSION            .         0.1                           : 
WELL-ID            .         10805/01                      : 
WELL-NAME          .         EGBM-007                      : 
~Curve Information
#_______________________________________________________________________________
#
#LOGNAME           .UNIT     LOG_ID                        : DESCRIPTION
#_______________________________________________________________________________
DEPT               .ft                                     :  {F}
LN                 .ohm.m                                  :  {F}
SN                 .ohm.m                                  :  {F}
SP                 .mV                                     :  {F}
~Ascii
# ...
3364       95.56111   37.53081   85.48895  
3364.5     96.67645   37.31389   85.48895  
3365       97.41904   37.08398   84.68106  
3365.5     97.79179   36.93573   83.89549  
3366       97.79179   37.05067   83.49203  
3366.5     97.3109    37.1656    83.85405  
3367       96.80011   37.43362   84.16539  
3367.5     96.34747   37.8596    84.22713  
3368       95.90224   38.12369   84.22713  
3368.5     96.24709   37.95122   84.22713  
3369       96.46799   37.58853   84.22713  
3369.5     96.12315   36.98512   84.14496  
3370       95.44394   36.79144   84.28891  
3370.5     94.14403   36.65735   84.79175  
3371       93.207     36.7187    85.06757  
3371.5     92.46419   36.96008   84.9704   
3372       91.85414   37.20146   84.48576  
3372.5     91.25069   36.826     83.64078  
3373       90.5246    36.28807   83.59621  
3373.5     89.51918   35.63811   83.61617  
3374       87.29076   34.98816   83.69662  
3374.5     84.85439   34.37573   83.81902  
3375       82.00156   34.2487    84.04527  
3375.5     79.34525   34.12169   84.24403  
3376       76.81264   33.75374   84.33023  
3376.5     74.19667   33.21725   84.38486  
3377       70.44054   32.66495   84.38486  
3377.5     65.93546   32.06149   84.38486  
3378       61.57713   31.45805   84.38486  
3378.5     57.93338   30.87669   84.09178  
3379       54.80493   30.30873   83.43259  
3379.5     51.78784   29.32339   82.62804  
3380       48.52965   27.71428   81.80977  
3380.5     45.75737   26.29645   80.71252  
3381       43.6451    24.9183    79.18114  
3381.5     41.42737   23.78378   76.86089  
3382       39.01349   22.33524   73.92607  
3382.5     36.85051   21.26309   71.01414  
3383       34.9191    20.46606   69.53976  
3383.5     33.13362   19.5481    69.00339  
3384       31.46278   18.75905   69.39838  
3384.5     29.31197   18.08121   69.33524  
3385       27.15134   17.11681   68.31708  
3385.5     25.34108   16.13501   67.32713  
3386       23.433     15.83095   66.77869  
3386.5     21.0408    15.55429   66.2709   
3387       18.19676   14.61793   65.57593  
3387.5     16.39545   13.48606   64.47868  
3388       15.00604   12.45236   63.40314  
3388.5     13.78204   11.81682   62.6158   
3389       12.92279   11.22799   62.41005  
3389.5     12.30973   10.52075   62.61113  
3390       11.77383   9.637108   63.10321  
3390.5     11.29179   8.677811   63.61934  
3391       11.00746   7.77547    64.19693  
3391.5     10.82557   6.982455   64.92094  
3392       10.65084   6.4019     65.076    
3392.5     10.40937   6.00858    64.97574  
3393       10.11425   5.720098   64.5186   
3393.5     9.8351     5.603434   64.71968  
3394       9.656664   5.583596   64.95706  
3394.5     9.516918   5.594001   65.23563  
3395       9.463722   5.612195   65.22821  
3395.5     9.48427    5.53174    65.13585  
3396       9.653267   5.488958   65.04967  
3396.5     9.900967   5.517157   65.06346  
3397       10.23085   5.613727   65.39264  
3397.5     10.65254   5.967393   65.56511  
3398       11.19699   6.536706   65.6992   
3398.5     12.06238   7.261001   65.88164  
3399       13.29581   8.169798   66.00838  
3399.5     15.04304   9.184879   65.45143  
3400       16.93788   10.16809   65.01822  
3400.5     18.83272   11.33241   64.73975  
3401       22.20053   12.54148   64.84859  
3401.5     25.04404   13.80676   65.20447  
3402       26.56264   15.02456   65.70731  
3402.5     27.76947   16.63403   67.03258  
3403       28.78139   17.80853   68.59955  
3403.5     29.58618   18.84709   69.97267  
3404       29.02055   19.6469    71.07893  
3404.5     28.27608   20.65982   72.28046  
3405       26.95938   21.29507   73.1431   
3405.5     24.48195   21.57211   73.29095  
3406       21.11375   20.8179    72.69054  
3406.5     17.3663    20.12395   71.87202  
3407       15.56873   19.66222   71.15546  
3407.5     13.75882   18.57803   70.73573  
3408       12.38637   16.95863   70.31601  
3408.5     11.21645   14.92044   69.72034  
3409       10.30013   12.53381   68.74458  
3409.5     9.469681   10.28864   67.13614  
3410       8.704031   8.37047    65.61151  
3410.5     7.993709   7.082821   64.11205  
3411       7.643056   6.206968   62.7002   
3411.5     7.290366   5.578881   61.89565  
3412       7.025271   5.185243   61.91486  
3412.5     6.864361   4.919014   62.09737  
3413       6.845426   4.808074   62.60022  
3413.5     6.816794   4.845462   62.25275  
3414       6.75243    4.953553   61.4482   
3414.5     6.660781   5.118087   61.05179  
3415       6.540088   5.312299   60.83881  
3415.5     6.419381   5.478705   60.62282  
3416       6.312683   5.469465   60.40765  
3416.5     6.232228   5.343558   60.32719  
3417       6.214511   4.981428   60.25938  
3417.5     6.214511   4.722079   60.35995  
3418       6.228646   4.673052   60.4101   
3418.5     6.245888   4.855639   60.4101   
3419       6.378839   5.124683   60.4101   
3419.5     6.723088   5.503339   60.4101   
3420       7.161752   5.986147   60.01901  
3420.5     7.661019   6.359827   59.34599  
3421       8.066868   6.6024     58.39252  
3421.5     8.292086   6.662742   57.84389  
3422       8.267004   6.667469   57.91937  
3422.5     8.10117    6.593784   57.99933  
3423       7.866412   6.50096    57.90651  
3423.5     7.569253   6.381003   57.88643  
3424       7.328118   6.276582   57.88643  
3424.5     7.257334   6.214511   58.23183  
3425       7.275904   6.214511   58.59383  
3425.5     7.348347   6.414713   58.94217  
3426       7.50196    6.554073   59.26399  
3426.5     7.848666   6.494922   59.50949  
3427       8.34749    6.461652   59.56912  
3427.5     8.825382   7.042499   58.84512  
3428       9.230928   7.842111   57.28978  
3428.5     9.713861   8.843824   55.81723  
3429       10.27668   9.689106   54.31059  
3429.5     10.56641   10.09806   52.68289  
3430       10.52618   10.30049   51.20848  
3430.5     10.44839   10.40458   50.50015  
3431       10.32769   10.37413   50        
3431.5     10.18257   10.22325   50        
3432       9.996918   9.768789   50.34781  
3432.5     9.827976   8.841711   51.05922  
3433       9.610077   7.875989   52.26578  
3433.5     8.962099   7.038874   54.02617  
3434       8.38884    6.699934   55.3102   
3434.5     7.872054   6.700103   55.60355  
3435       7.540124   6.974862   55.98877  
3435.5     7.237162   7.254843   57.15648  
3436       7.108401   7.261635   57.88048  
3436.5     6.987411   6.658978   58.15405  
3437       6.901201   6.24138    58.29604  
3437.5     6.760243   6.087104   58.39882  
3438       6.525085   5.99428    58.4698   
3438.5     6.303764   5.922681   58.57426  
3439       6.149987   5.869236   58.74667  
3439.5     6.023423   5.88935    58.90829  
3440       5.978161   5.84909    59.05914  
3440.5     5.932898   5.7277     59.20313  
3441       5.895345   5.507955   59.19357  
3441.5     5.844255   5.14595    58.71089  
3442       5.751431   4.666844   59.09412  
3442.5     5.670641   4.351914   59.78566  
3443       5.599646   4.191041   60.22043  
3443.5     5.55205    4.172471   60.4101   
3444       5.55205    4.17345    60.4101   
3444.5     5.574357   4.190692   60.4101   
3445       5.634708   4.184057   60.49754  
3445.5     5.704113   4.167967   60.63161  
3446       5.796937   4.192111   60.74562  
3446.5     5.93283    4.235905   60.81267  
3447       6.099961   4.389519   60.87971  
3447.5     6.313177   4.622433   60.88327  
3448       6.625574   4.905061   60.88327  
3448.5     7.133428   5.207875   60.88327  
3449       7.843431   5.73345    60.88327  
3449.5     8.481812   6.828026   60.9212   
3450       9.16942    7.893148   60.99663  
3450.5     9.832644   9.278009   61.16521  
3451       10.50194   10.66287   61.46696  
3451.5     11.24696   11.91828   61.5945   
3452       11.8049    12.11426   61.35355  
3452.5     11.93143   11.95541   61.14061  
3453       11.9144    11.53374   60.92767  
3453.5     11.74879   10.57336   60.47386  
3454       11.4566    9.469288   59.9566   
3454.5     11.08808   8.714931   58.44463  
