~Version
 VERS              .         3.0                           : CWLS LOG ASCII STANDARD - VERSION 3.0
 WRAP              .         NO                            : ONE LINE PER DEPTH STEP
 DLM               .         SPACE                         : DELIMITING CHARACTER(SPACE TAB OR COMMA)
~Well Information
#_______________________________________________________________________________
#
#PARAMETER_NAME    .UNIT     VALUE                         : DESCRIPTION
#_______________________________________________________________________________
STRT               .ft       3000                          : First reference value
STOP               .ft       8496                          : Last reference value
STEP               .ft       0.5                           : Step increment
NULL               .         -9999                         : Missing value
COMP               .                                       : Company
WELL               .         EGBM-007                      : Well name
FLD                .         EGBEMA                        : Field
LOC                .                                       : Location
SRVC               .                                       : Service Company
CTRY               .                                       : Country
DATE               .         1967/02/19                    : Service Date
X                  .                                       : X or East-West coordinate
Y                  .                                       : Y or North South coordinate
GDAT               .                                       : Geodetic Datum
HZCS               .                                       : Horizontal Co-ordinate System
APIN               .         10805/01                      : 
BHT                .degF     162                           : 
BLI                .ft       8250                          : 
BS                 .in       9.625                         : 
CREATION-TIME      .         2067/2/19 0_0                 : 
CSIZ               .in       10.75                         : 
DFD                .g/cm3    1.18                          : 
DFT                .         BENT. SPERSENE                : 
DFV                .s        0                             : 
ELZ                .         -999.25                       : 
FIELD-NAME         .         EGBEMA                        : 
FILE-ID            .         SOH18 .4                      : 
FILE-NUMBER        .         0                             : 
FILE-SET-NAME      .                                       : 
FILE-SET-NUMBER    .         0                             : 
FILE-TYPE          .         PTF                           : 
HIDE               .         4540_300_185_7_1_DATE_67/02/19_SOH_18_SEQ_4: 
LCC                .         0                             : 
LMF                .         1                             : 
MST                .degF     96                            : 
NAME-SPACE-NAME    .         LIS                           : 
NAME-SPACE-VERSION .         0                             : 
PRODUC             .         SHELL(PARASOL)                : 
PRODUCER-CODE      .         0                             : 
PRODUCER-NAME      .         Schlumberger                  : 
PRODUCT            .                                       : 
PROGRAMS           .         INC                           : 
R1                 .         SHELL LAB. MEASUREMENTS       : 
R2                 .         MUD 1.14 OHMS AT 77 DEGF      : 
R3                 .         FILTRATE 1.09 OHMS AT 77 DEGF : 
R4                 .         FROM 7700 TO CASING SHOE REPEATED FREE OF CHARGE.: 
R5                 .         RAN "NO CURRENT SP" GOING DOWN (STILL NOISE ON SP WITH  IN: 
R6                 .         HOLE AND TRUCK AND RIG GENERATORS OFF.): 
RMCS               .ohm.m    -999.25                       : 
RMFS               .ohm.m    -999.25                       : 
RMS                .ohm.m    0.9100001                     : 
TCS                .h        -999.25                       : 
TDD                .ft       8500                          : 
TDL                .ft       8499                          : 
TLI                .ft       7600                          : 
VERSION            .         2P01                          : 
WELL-ID            .         10805/01                      : 
WELL-NAME          .         EGBM-007                      : 
WN                 .         EGBM-007                      : 
~Parameter Information Block
#_______________________________________________________________________________
#
#PARAMETER_NAME    .UNIT     VALUE                         : DESCRIPTION
#_______________________________________________________________________________
SET                .         SOH15 _1_1                    : 
ACQUISITION-PRODUCT .         DLIS/U                        : 
CREATION-TIME      .         2026/5/13 11_54               : 
DLIS_FRAME_DIRECTION .         INCREASING                    : 
DLIS_FRAME_NAME    .         1                             : 
DLIS_FRAME_SPACING .ft       0.5                           : 
FIELD-NAME         .         EGBEMA                        : 
FILE-ID            .         SOH15 .1                      : 
FILE-NUMBER        .         1                             : 
FILE-SET-NAME      .         LIS-TO-DLIS-CONVERSION        : 
FILE-SET-NUMBER    .         946                           : 
FILE-TYPE          .         PTF                           : 
INDEX-TYPE         .         BOREHOLE-DEPTH                : 
NAME-SPACE-NAME    .                                       : 
NAME-SPACE-VERSION .         0                             : 
OriginalDatasetName .         1                             : 
PRODUCER-CODE      .         440                           : 
PRODUCER-NAME      .         Schlumberger                  : 
PRODUCT            .         DLIS/U                        : 
PROGRAMS           .         LIS-TO-DLIS                   : 
TLFamily_DEPT      .         Measured Depth                : 
TLFamily_LN        .                                       : 
TLFamily_SN        .         Resistivity - Shallow         : 
TLFamily_SP        .         Spontaneous Potential         : 
VERSION            .         0.1                           : 
WELL-ID            .         10805/01                      : 
WELL-NAME          .         EGBM-007                      : 
~Curve Information
#_______________________________________________________________________________
#
#LOGNAME           .UNIT     LOG_ID                        : DESCRIPTION
#_______________________________________________________________________________
DEPT               .ft                                     :  {F}
LN                 .ohm.m                                  :  {F}
SN                 .ohm.m                                  :  {F}
SP                 .mV                                     :  {F}
~Ascii
# ...
7641       1.927708   2.139422   82.90091  
7641.5     1.947822   2.13721    82.79979  
7642       1.972915   2.110276   83.79922  
7642.5     2.001307   2.106348   84.27646  
7643       2.029698   2.163043   84.28824  
7643.5     2.05809    2.222103   84.13744  
7644       2.084548   2.232844   83.98663  
7644.5     2.100635   2.250656   83.96686  
7645       2.116722   2.272886   84.07434  
7645.5     2.132809   2.306688   84.14973  
7646       2.14511    2.342264   84.22513  
7646.5     2.14511    2.386391   84.01346  
7647       2.14511    2.428342   83.91167  
7647.5     2.149675   2.400987   83.91167  
7648       2.162377   2.349194   83.68732  
7648.5     2.17508    2.296671   82.70021  
7649       2.154401   2.255982   81.28687  
7649.5     2.128996   2.259687   80.65503  
7650       2.098996   2.27048    82.0871   
7650.5     2.061888   2.287477   83.57788  
7651       2.032883   2.302526   83.94322  
7651.5     2.007477   2.308967   84.12886  
7652       1.98912    2.287555   84.31451  
7652.5     1.997441   2.234839   84.50015  
7653       2.005763   2.129557   84.01065  
7653.5     2.014084   2.103937   83.4525   
7654       2.027699   2.129271   83.65366  
7654.5     2.04869    2.151166   84.11809  
7655       2.069679   2.145179   84.31909  
7655.5     2.078336   2.139011   84.16338  
7656       2.0694     2.136638   83.75394  
7656.5     2.060464   2.147753   83.12303  
7657       2.051529   2.152364   83.45413  
7657.5     2.050472   2.148472   84.09708  
7658       2.050472   2.152851   83.67897  
7658.5     2.057988   2.177526   82.23041  
7659       2.072187   2.214517   79.17416  
7659.5     2.086658   2.258308   81.97751  
7660       2.101738   2.322309   83.12303  
7660.5     2.38573    2.347331   65.49339  
7661       2.360743   2.418944   65.87231  
7661.5     2.352139   2.425197   66.17242  
7662       2.343537   2.396476   66.29286  
7662.5     2.334934   2.362466   65.66374  
7663       2.325994   2.324995   65.56313  
7663.5     2.31673    2.31031    66.00104  
7664       2.307464   2.335325   66.29033  
7664.5     2.301408   2.363145   66.521    
7665       2.321484   2.371903   66.75635  
7665.5     2.34156    2.394123   66.77884  
7666       2.361636   2.424171   67.33261  
7666.5     2.362205   2.457767   68.55055  
7667       2.362205   2.488298   71.69563  
7667.5     2.362205   2.45643    76.19814  
7668       2.368208   2.404137   82.06064  
7668.5     2.387481   2.42765    79.34814  
7669       2.406753   2.466266   71.86046  
7669.5     2.426676   2.442283   66.05199  
7670       2.461096   2.401202   65.62476  
7670.5     2.488189   2.39221    65.51181  
7671       2.488189   2.411533   65.76784  
7671.5     2.48156    2.435251   67.2196   
7672       2.426822   2.456693   68.81889  
7672.5     2.372083   2.452105   67.80396  
7673       2.311102   2.424264   65.89786  
7673.5     2.230793   2.415506   66.12021  
7674       2.167541   2.412598   66.24437  
7674.5     2.147458   2.414708   66.29921  
7675       2.154028   2.436103   66.29921  
7675.5     2.171229   2.422376   66.62593  
7676       2.232389   2.408072   67.42889  
7676.5     2.29933    2.429408   69.03075  
7677       2.376399   2.440991   71.49472  
7677.5     2.462404   2.43514    71.21085  
7678       2.5557     2.493947   69.27664  
7678.5     2.6521     2.569325   66.4561   
7679       2.74847    2.589691   65.85382  
7679.5     2.809279   2.599326   65.99496  
7680       2.82345    2.632364   66.26262  
7680.5     2.834645   2.699675   66.03925  
7681       2.834645   2.734993   65.50781  
7681.5     2.834645   2.758078   65.38737  
7682       2.834645   2.780792   65.45143  
7682.5     2.854785   2.834119   65.69206  
7683       2.90297    2.840944   65.92728  
7683.5     2.943815   2.810764   65.4782   
7684       2.975939   2.791455   65.38248  
7684.5     2.997818   2.774525   65.48288  
7685       3.009291   2.716814   65.869    
7685.5     3.020764   2.6421     66.38509  
7686       3.044905   2.627853   66.92914  
7686.5     3.073246   2.699451   66.92914  
7687       3.102524   2.792795   66.7527   
7687.5     3.132637   2.836214   66.50854  
7688       3.156617   2.857626   66.31906  
7688.5     3.172679   2.913836   66.77077  
7689       3.173467   3.029403   67.99406  
7689.5     3.157413   3.117283   69.07744  
7690       3.161393   3.205005   67.26524  
7690.5     3.18434    3.283283   66.76067  
7691       3.207287   3.304547   66.77165  
7691.5     3.230234   3.32487    66.15248  
7692       3.253181   3.35238    66.49738  
7692.5     3.276587   3.343493   66.98462  
7693       3.319098   3.292294   67.51199  
7693.5     3.361609   3.259466   67.97539  
7694       3.381426   3.313134   68.65285  
7694.5     3.395597   3.409803   69.07033  
7695       3.355164   3.432468   69.2209   
7695.5     3.274939   3.552709   69.93263  
7696       3.200796   3.778742   72.58507  
7696.5     3.139662   3.952145   75.6825   
7697       3.107538   3.989172   78.72916  
7697.5     3.086614   3.952803   80.98816  
7698       3.086614   3.854423   80.81636  
7698.5     3.086614   3.641568   78.24445  
7699       3.074367   3.365095   74.22493  
7699.5     3.060196   3.204766   68.58687  
7700       3.027015   3.016201   68.27867  
7700.5     2.983214   2.884438   69.11504  
7701       2.939414   2.812436   70.96251  
7701.5     2.895613   2.765108   72.59795  
7702       2.866141   2.740631   73.92252  
7702.5     2.866141   2.73031    71.32994  
7703       2.866141   2.724347   69.11766  
7703.5     2.866141   2.711787   70.61002  
7704       2.856842   2.682515   71.45876  
7704.5     2.833895   2.674488   71.89665  
7705       2.810947   2.654054   72.97557  
7705.5     2.795578   2.624663   75.73625  
7706       2.784108   2.605394   79.25444  
7706.5     2.772639   2.610486   83.18016  
7707       2.747182   2.619385   82.71129  
7707.5     2.720408   2.608679   77.3499   
7708       2.693636   2.585601   72.80673  
7708.5     2.680475   2.568521   73.53577  
7709       2.689077   2.564143   70.13173  
7709.5     2.69768    2.55887    68.97638  
7710       2.706284   2.537118   69.00945  
7710.5     2.716241   2.533441   69.30309  
7711       2.726716   2.562345   71.48766  
7711.5     2.73719    2.57243    71.10588  
7712       2.74879    2.575641   70.65469  
7712.5     2.760833   2.573727   71.19312  
7713       2.771653   2.570287   71.91624  
7713.5     2.771653   2.570079   73.22565  
7714       2.771653   2.60682    75.3156   
7714.5     2.765475   2.667175   79.41339  
7715       2.752798   2.745077   84.27077  
7715.5     2.740128   2.828711   81.48267  
7716       2.730089   2.893221   75.42838  
7716.5     2.720052   2.921154   71.74414  
7717       2.710013   2.909917   69.64531  
7717.5     2.697687   2.906477   69.33041  
7718       2.685005   2.903936   69.78465  
7718.5     2.682275   2.903936   70.69522  
7719       2.695658   2.932427   72.04407  
7719.5     2.709463   3.016746   72.46681  
7720       2.737804   3.118008   73.17276  
7720.5     2.766146   3.176818   75.20164  
7721       2.781867   3.156878   77.99442  
7721.5     2.794545   3.056519   74.94217  
7722       2.795407   2.91945    69.77673  
7722.5     2.771312   2.823158   70.43654  
7723       2.747216   2.77351    73.57014  
7723.5     2.740157   2.706279   76.75716  
7724       2.740157   2.654574   80.78905  
7724.5     2.740157   2.611218   80.30594  
7725       2.746895   2.583174   76.94385  
7725.5     2.768798   2.586644   74.3307   
7726       2.790701   2.600406   73.80725  
7726.5     2.798424   2.596676   68.77182  
7727       2.787477   2.590197   67.85725  
7727.5     2.776528   2.583317   67.55905  
7728       2.757828   2.576438   67.63762  
7728.5     2.732903   2.573194   68.11935  
7729       2.707979   2.570352   68.48343  
7729.5     2.683055   2.579382   69.46715  
7730       2.677165   2.588411   69.53014  
7730.5     2.677165   2.611557   68.71202  
7731       2.677165   2.613729   68.38336  
7731.5     2.677165   2.609693   68.18201  
