~Version
 VERS              .         3.0                           : CWLS LOG ASCII STANDARD - VERSION 3.0
 WRAP              .         NO                            : ONE LINE PER DEPTH STEP
 DLM               .         SPACE                         : DELIMITING CHARACTER(SPACE TAB OR COMMA)
~Well Information
#_______________________________________________________________________________
#
#PARAMETER_NAME    .UNIT     VALUE                         : DESCRIPTION
#_______________________________________________________________________________
STRT               .ft       3000                          : First reference value
STOP               .ft       8496                          : Last reference value
STEP               .ft       0.5                           : Step increment
NULL               .         -9999                         : Missing value
COMP               .                                       : Company
WELL               .         EGBM-007                      : Well name
FLD                .         EGBEMA                        : Field
LOC                .                                       : Location
SRVC               .                                       : Service Company
CTRY               .                                       : Country
DATE               .         1967/02/19                    : Service Date
X                  .                                       : X or East-West coordinate
Y                  .                                       : Y or North South coordinate
GDAT               .                                       : Geodetic Datum
HZCS               .                                       : Horizontal Co-ordinate System
APIN               .         10805/01                      : 
BHT                .degF     162                           : 
BLI                .ft       8250                          : 
BS                 .in       9.625                         : 
CREATION-TIME      .         2067/2/19 0_0                 : 
CSIZ               .in       10.75                         : 
DFD                .g/cm3    1.18                          : 
DFT                .         BENT. SPERSENE                : 
DFV                .s        0                             : 
ELZ                .         -999.25                       : 
FIELD-NAME         .         EGBEMA                        : 
FILE-ID            .         SOH18 .4                      : 
FILE-NUMBER        .         0                             : 
FILE-SET-NAME      .                                       : 
FILE-SET-NUMBER    .         0                             : 
FILE-TYPE          .         PTF                           : 
HIDE               .         4540_300_185_7_1_DATE_67/02/19_SOH_18_SEQ_4: 
LCC                .         0                             : 
LMF                .         1                             : 
MST                .degF     96                            : 
NAME-SPACE-NAME    .         LIS                           : 
NAME-SPACE-VERSION .         0                             : 
PRODUC             .         SHELL(PARASOL)                : 
PRODUCER-CODE      .         0                             : 
PRODUCER-NAME      .         Schlumberger                  : 
PRODUCT            .                                       : 
PROGRAMS           .         INC                           : 
R1                 .         SHELL LAB. MEASUREMENTS       : 
R2                 .         MUD 1.14 OHMS AT 77 DEGF      : 
R3                 .         FILTRATE 1.09 OHMS AT 77 DEGF : 
R4                 .         FROM 7700 TO CASING SHOE REPEATED FREE OF CHARGE.: 
R5                 .         RAN "NO CURRENT SP" GOING DOWN (STILL NOISE ON SP WITH  IN: 
R6                 .         HOLE AND TRUCK AND RIG GENERATORS OFF.): 
RMCS               .ohm.m    -999.25                       : 
RMFS               .ohm.m    -999.25                       : 
RMS                .ohm.m    0.9100001                     : 
TCS                .h        -999.25                       : 
TDD                .ft       8500                          : 
TDL                .ft       8499                          : 
TLI                .ft       7600                          : 
VERSION            .         2P01                          : 
WELL-ID            .         10805/01                      : 
WELL-NAME          .         EGBM-007                      : 
WN                 .         EGBM-007                      : 
~Parameter Information Block
#_______________________________________________________________________________
#
#PARAMETER_NAME    .UNIT     VALUE                         : DESCRIPTION
#_______________________________________________________________________________
SET                .         SOH15 _1_1                    : 
ACQUISITION-PRODUCT .         DLIS/U                        : 
CREATION-TIME      .         2026/5/13 11_54               : 
DLIS_FRAME_DIRECTION .         INCREASING                    : 
DLIS_FRAME_NAME    .         1                             : 
DLIS_FRAME_SPACING .ft       0.5                           : 
FIELD-NAME         .         EGBEMA                        : 
FILE-ID            .         SOH15 .1                      : 
FILE-NUMBER        .         1                             : 
FILE-SET-NAME      .         LIS-TO-DLIS-CONVERSION        : 
FILE-SET-NUMBER    .         946                           : 
FILE-TYPE          .         PTF                           : 
INDEX-TYPE         .         BOREHOLE-DEPTH                : 
NAME-SPACE-NAME    .                                       : 
NAME-SPACE-VERSION .         0                             : 
OriginalDatasetName .         1                             : 
PRODUCER-CODE      .         440                           : 
PRODUCER-NAME      .         Schlumberger                  : 
PRODUCT            .         DLIS/U                        : 
PROGRAMS           .         LIS-TO-DLIS                   : 
TLFamily_DEPT      .         Measured Depth                : 
TLFamily_LN        .                                       : 
TLFamily_SN        .         Resistivity - Shallow         : 
TLFamily_SP        .         Spontaneous Potential         : 
VERSION            .         0.1                           : 
WELL-ID            .         10805/01                      : 
WELL-NAME          .         EGBM-007                      : 
~Curve Information
#_______________________________________________________________________________
#
#LOGNAME           .UNIT     LOG_ID                        : DESCRIPTION
#_______________________________________________________________________________
DEPT               .ft                                     :  {F}
LN                 .ohm.m                                  :  {F}
SN                 .ohm.m                                  :  {F}
SP                 .mV                                     :  {F}
~Ascii
# ...
8369       1.135646   1.278448   86.86302  
8369.5     1.135646   1.267448   86.14172  
8370       1.13144    1.264237   84.50856  
8370.5     1.117272   1.265112   80.78328  
8371       1.103105   1.278243   76.57492  
8371.5     1.088937   1.276432   75.76244  
8372       1.074768   1.263077   76.42059  
8372.5     1.080681   1.239956   76.50656  
8373       1.090312   1.223974   77.116    
8373.5     1.099943   1.223974   83.52098  
8374       1.1041     1.223974   86.47392  
8374.5     1.1041     1.223587   86.40977  
8375       1.1041     1.220579   85.59055  
8375.5     1.1041     1.217464   85.35432  
8376       1.096684   1.211042   85.28998  
8376.5     1.087048   1.204482   85.85162  
8377       1.077411   1.195982   87.10629  
8377.5     1.067777   1.187481   86.06416  
8378       1.058146   1.180339   82.75473  
8378.5     1.048514   1.173456   78.14771  
8379       1.041009   1.166922   81.14467  
8379.5     1.041009   1.163911   83.01181  
8380       1.041009   1.1609     80.61816  
8380.5     1.041009   1.154573   79.76378  
8381       1.039332   1.154573   82.35927  
8381.5     1.028865   1.154573   82.04724  
8382       1.018397   1.154573   81.74638  
8382.5     1.008106   1.146499   79.29105  
8383       0.9988459  1.144263   73.98283  
8383.5     0.9895848  1.147968   73.61147  
8384       0.9803237  1.148265   75.65622  
8384.5     0.9779179  1.147023   77.44427  
8385       0.9779179  1.132581   77.79527  
8385.5     0.9779179  1.13221    78.6955   
8386       0.984035   1.136299   80.13123  
8386.5     1.014149   1.14533    80.5807   
8387       1.044264   1.154362   81.20607  
8387.5     1.073162   1.164652   80.97856  
8388       1.083194   1.175218   84.41023  
8388.5     1.093226   1.187256   86.35655  
8389       1.103258   1.209614   85.04799  
8389.5     1.1041     1.238364   81.72057  
8390       1.1041     1.256509   79.68504  
8390.5     1.094333   1.255855   83.10077  
8391       1.080165   1.239079   85.76566  
8391.5     1.067709   1.214172   85.42181  
8392       1.057241   1.19664    84.98935  
8392.5     1.046774   1.18511    82.43883  
8393       1.041009   1.175477   75.05289  
8393.5     1.041009   1.176236   73.11909  
8394       1.041009   1.179676   73.78656  
8394.5     1.041009   1.182896   72.68303  
8395       1.041009   1.186107   73.12492  
8395.5     1.041009   1.192516   76.32977  
8396       1.041009   1.198953   80.20331  
8396.5     1.041009   1.205833   84.91412  
8397       1.041009   1.211356   85.72179  
8397.5     1.041009   1.211356   86.42581  
8398       1.037034   1.208857   85.73216  
8398.5     1.026091   1.201977   82.34575  
8399       1.015148   1.198738   73.80867  
8399.5     1.014493   1.198738   73.11229  
8400       1.024961   1.198738   72.4668   
8400.5     1.035428   1.211186   73.68633  
8401       1.052845   1.231173   77.67952  
8401.5     1.0782     1.253019   84.55518  
8402       1.103556   1.27709    85.22075  
8402.5     1.1041     1.280757   81.41731  
8403       1.1041     1.257184   81.77115  
8403.5     1.098691   1.228905   79.11623  
8404       1.083638   1.205941   72.23997  
8404.5     1.070968   1.178066   72.45219  
8405       1.064947   1.164935   71.11137  
8405.5     1.058928   1.163909   69.75378  
8406       1.052908   1.173219   73.10423  
8406.5     1.046887   1.19855    78.30923  
8407       1.041855   1.224526   83.18016  
8407.5     1.077961   1.248599   83.74838  
8408       1.114067   1.272705   80.68242  
8408.5     1.149492   1.302351   75.42836  
8409       1.183906   1.337774   71.71877  
8409.5     1.218319   1.348853   71.18111  
8410       1.222426   1.342635   70.40866  
8410.5     1.210382   1.32106    70.51425  
8411       1.197976   1.281386   73.14372  
8411.5     1.175051   1.26213    76.04774  
8412       1.152124   1.247243   79.70619  
8412.5     1.138726   1.239055   82.43976  
8413       1.149676   1.247809   86.22635  
8413.5     1.160626   1.256573   87.08661  
8414       1.173213   1.250822   83.9276   
8414.5     1.188251   1.226624   80.86026  
8415       1.194687   1.215567   77.39334  
8415.5     1.181305   1.211863   74.17323  
8416       1.167924   1.20158    73.05794  
8416.5     1.141892   1.190255   72.04936  
8417       1.115129   1.179998   72.44376  
8417.5     1.079113   1.170361   74.21083  
8418       1.03661    1.160883   74.81215  
8418.5     1.009463   1.160883   74.50259  
8419       1.009463   1.132915   76.22047  
8419.5     1.009463   1.133593   78.58267  
8420       1.009463   1.150103   76.82924  
8420.5     1.009463   1.171495   78.22893  
8421       1.009463   1.153117   79.53925  
8421.5     1.009463   1.142653   77.31483  
8422       1.009463   1.152295   78.40796  
8422.5     1.009463   1.174994   83.79123  
8423       1.009463   1.198186   79.6862   
8423.5     1.009463   1.197011   76.08101  
8424       1.019567   1.183487   77.87048  
8424.5     1.031039   1.161598   76.03149  
8425       1.041009   1.121977   72.69949  
8425.5     1.041009   1.116719   77.00505  
8426       1.041009   1.114659   79.04414  
8426.5     1.031228   1.107019   75.39677  
8427       1.018551   1.080344   80.71689  
8427.5     1.005873   1.070682   84.40944  
8428       0.9931957  1.078864   81.88695  
8428.5     0.9805179  1.078864   75.77435  
8429       0.9688058  1.077724   73.1449   
8429.5     0.9573427  1.074894   78.07733  
8430       0.9468898  1.07628    82.3622   
8430.5     0.9589341  1.097708   81.14325  
8431       0.9709784  1.11041    80.19978  
8431.5     0.9864216  1.11041    81.77271  
8432       1.006485   1.114474   84.40944  
8432.5     1.026549   1.131611   82.82407  
8433       1.044373   1.147268   79.64586  
8433.5     1.056417   1.175983   79.33957  
8434       1.068461   1.218437   79.29016  
8434.5     1.090208   1.257308   79.26712  
8435       1.1041     1.296444   81.25749  
8435.5     1.1041     1.32278    85.15749  
8436       1.1041     1.318682   86.4567   
8436.5     1.1041     1.310325   85.98425  
8437       1.1041     1.300682   85.91878  
8437.5     1.106874   1.291836   84.37663  
8438       1.132229   1.283082   82.11916  
8438.5     1.157584   1.274328   81.58302  
8439       1.173694   1.265574   83.22775  
8439.5     1.184161   1.264338   81.86719  
8440       1.194629   1.270269   78.33588  
8440.5     1.198738   1.286314   76.1147   
8441       1.198738   1.313016   76.13048  
8441.5     1.18053    1.322625   73.75     
8442       1.152194   1.307135   72.69244  
8442.5     1.131289   1.269237   71.33858  
8443       1.120814   1.225133   72.21109  
8443.5     1.11034    1.173878   75.28734  
8444       1.108333   1.129874   81.62494  
8444.5     1.1188     1.10928    85.39764  
8445       1.129268   1.109594   86.82649  
8445.5     1.135646   1.119227   87.02707  
8446       1.135646   1.135176   87.19218  
8446.5     1.135646   1.155155   85.96457  
8447       1.135646   1.172664   83.42535  
8447.5     1.135646   1.196904   78.95111  
8448       1.135646   1.223089   74.33037  
8448.5     1.124239   1.242374   72.3701   
8449       1.109186   1.239555   72.1147   
8449.5     1.084167   1.236592   71.45616  
8450       1.054063   1.236592   70.59819  
8450.5     1.031266   1.251537   71.64178  
8451       1.014066   1.295786   73.31908  
8451.5     1.019264   1.292418   71.77446  
8452       1.032645   1.257615   74.48819  
8452.5     1.049216   1.212296   83.25037  
8453       1.071101   1.192429   83.33647  
8453.5     1.092987   1.220136   80.6694   
8454       1.118047   1.266632   77.15129  
8454.5     1.146383   1.276619   77.53673  
8455       1.167192   1.289231   79.74301  
8455.5     1.167192   1.29865    78.74171  
8456       1.167192   1.286612   77.24809  
8456.5     1.160007   1.264246   77.01962  
8457       1.150741   1.226323   72.78008  
8457.5     1.141474   1.198738   72.54593  
8458       1.132337   1.198738   69.62119  
8458.5     1.123418   1.211578   72.02022  
8459       1.1145     1.224127   76.43828  
8459.5     1.105581   1.230284   75.81418  
