~Version
 VERS              .         3.0                           : CWLS LOG ASCII STANDARD - VERSION 3.0
 WRAP              .         NO                            : ONE LINE PER DEPTH STEP
 DLM               .         SPACE                         : DELIMITING CHARACTER(SPACE TAB OR COMMA)
~Well Information
#_______________________________________________________________________________
#
#PARAMETER_NAME    .UNIT     VALUE                         : DESCRIPTION
#_______________________________________________________________________________
STRT               .ft       3000                          : First reference value
STOP               .ft       8496                          : Last reference value
STEP               .ft       0.5                           : Step increment
NULL               .         -9999                         : Missing value
COMP               .                                       : Company
WELL               .         EGBM-007                      : Well name
FLD                .         EGBEMA                        : Field
LOC                .                                       : Location
SRVC               .                                       : Service Company
CTRY               .                                       : Country
DATE               .         1967/02/19                    : Service Date
X                  .                                       : X or East-West coordinate
Y                  .                                       : Y or North South coordinate
GDAT               .                                       : Geodetic Datum
HZCS               .                                       : Horizontal Co-ordinate System
APIN               .         10805/01                      : 
BHT                .degF     162                           : 
BLI                .ft       8250                          : 
BS                 .in       9.625                         : 
CREATION-TIME      .         2067/2/19 0_0                 : 
CSIZ               .in       10.75                         : 
DFD                .g/cm3    1.18                          : 
DFT                .         BENT. SPERSENE                : 
DFV                .s        0                             : 
ELZ                .         -999.25                       : 
FIELD-NAME         .         EGBEMA                        : 
FILE-ID            .         SOH18 .4                      : 
FILE-NUMBER        .         0                             : 
FILE-SET-NAME      .                                       : 
FILE-SET-NUMBER    .         0                             : 
FILE-TYPE          .         PTF                           : 
HIDE               .         4540_300_185_7_1_DATE_67/02/19_SOH_18_SEQ_4: 
LCC                .         0                             : 
LMF                .         1                             : 
MST                .degF     96                            : 
NAME-SPACE-NAME    .         LIS                           : 
NAME-SPACE-VERSION .         0                             : 
PRODUC             .         SHELL(PARASOL)                : 
PRODUCER-CODE      .         0                             : 
PRODUCER-NAME      .         Schlumberger                  : 
PRODUCT            .                                       : 
PROGRAMS           .         INC                           : 
R1                 .         SHELL LAB. MEASUREMENTS       : 
R2                 .         MUD 1.14 OHMS AT 77 DEGF      : 
R3                 .         FILTRATE 1.09 OHMS AT 77 DEGF : 
R4                 .         FROM 7700 TO CASING SHOE REPEATED FREE OF CHARGE.: 
R5                 .         RAN "NO CURRENT SP" GOING DOWN (STILL NOISE ON SP WITH  IN: 
R6                 .         HOLE AND TRUCK AND RIG GENERATORS OFF.): 
RMCS               .ohm.m    -999.25                       : 
RMFS               .ohm.m    -999.25                       : 
RMS                .ohm.m    0.9100001                     : 
TCS                .h        -999.25                       : 
TDD                .ft       8500                          : 
TDL                .ft       8499                          : 
TLI                .ft       7600                          : 
VERSION            .         2P01                          : 
WELL-ID            .         10805/01                      : 
WELL-NAME          .         EGBM-007                      : 
WN                 .         EGBM-007                      : 
~Parameter Information Block
#_______________________________________________________________________________
#
#PARAMETER_NAME    .UNIT     VALUE                         : DESCRIPTION
#_______________________________________________________________________________
SET                .         SOH15 _1_1                    : 
ACQUISITION-PRODUCT .         DLIS/U                        : 
CREATION-TIME      .         2026/5/13 11_54               : 
DLIS_FRAME_DIRECTION .         INCREASING                    : 
DLIS_FRAME_NAME    .         1                             : 
DLIS_FRAME_SPACING .ft       0.5                           : 
FIELD-NAME         .         EGBEMA                        : 
FILE-ID            .         SOH15 .1                      : 
FILE-NUMBER        .         1                             : 
FILE-SET-NAME      .         LIS-TO-DLIS-CONVERSION        : 
FILE-SET-NUMBER    .         946                           : 
FILE-TYPE          .         PTF                           : 
INDEX-TYPE         .         BOREHOLE-DEPTH                : 
NAME-SPACE-NAME    .                                       : 
NAME-SPACE-VERSION .         0                             : 
OriginalDatasetName .         1                             : 
PRODUCER-CODE      .         440                           : 
PRODUCER-NAME      .         Schlumberger                  : 
PRODUCT            .         DLIS/U                        : 
PROGRAMS           .         LIS-TO-DLIS                   : 
TLFamily_DEPT      .         Measured Depth                : 
TLFamily_LN        .                                       : 
TLFamily_SN        .         Resistivity - Shallow         : 
TLFamily_SP        .         Spontaneous Potential         : 
VERSION            .         0.1                           : 
WELL-ID            .         10805/01                      : 
WELL-NAME          .         EGBM-007                      : 
~Curve Information
#_______________________________________________________________________________
#
#LOGNAME           .UNIT     LOG_ID                        : DESCRIPTION
#_______________________________________________________________________________
DEPT               .ft                                     :  {F}
LN                 .ohm.m                                  :  {F}
SN                 .ohm.m                                  :  {F}
SP                 .mV                                     :  {F}
~Ascii
# ...
4092       30.05836   15.50882   89.73125  
4092.5     30.27785   15.60088   89.51207  
4093       30.49733   15.62925   90.19899  
4093.5     30.59937   15.66739   91.31308  
4094       30.59937   15.7638    89.30402  
4094.5     30.59937   15.85236   88.68816  
4095       30.36044   15.90593   87.42606  
4095.5     30.05859   15.95951   90.01869  
4096       29.75674   15.9685    90.62267  
4096.5     29.65298   15.9685    89.646    
4097       29.65298   16.00821   89.54906  
4097.5     29.65298   16.07344   90.07874  
4098       29.78528   16.14761   90.07874  
4098.5     30.03943   16.12761   90.73354  
4099       30.28902   16.08923   91.43515  
4099.5     30.42316   15.95149   90.457    
4100       30.55731   15.81732   89.34846  
4100.5     30.43361   15.69675   88.85091  
4101       30.19218   15.59731   90.0898   
4101.5     29.99637   15.50705   88.21663  
4102       30.37759   15.40658   87.32137  
4102.5     30.75882   15.33938   86.59509  
4103       30.91481   15.24745   83.70631  
4103.5     30.91481   14.86114   82.33255  
4104       30.72227   13.94113   84.20877  
4104.5     29.91753   13.48712   82.63129  
4105       29.25322   13.59427   80.4901   
4105.5     28.95132   13.92726   78.11023  
4106       28.76898   14.45214   80.84656  
4106.5     29.09816   15.34301   83.25217  
4107       29.42732   16.19017   83.72299  
4107.5     29.75653   16.50394   86.17781  
4108       30.08582   16.50394   87.1983   
4108.5     30.4151    16.61478   86.19824  
4109       30.59937   16.76898   86.84517  
4109.5     30.59937   17.03685   88.35352  
4110       30.59937   17.07086   90.69394  
4110.5     30.59937   17.08005   91.33858  
4111       30.59937   17.17389   90.62897  
4111.5     30.59937   17.4005    89.63731  
4112       30.60298   17.52344   88.11888  
4112.5     30.69583   17.59232   90.07874  
4113       30.7887    17.65964   89.87373  
4113.5     30.88155   17.72395   90.27679  
4114       30.70355   17.78537   90.79773  
4114.5     30.37427   17.84207   91.17033  
4115       30.04498   17.90256   92.17142  
4115.5     29.96844   17.98291   89.66298  
4116       29.96844   18.06328   92.02852  
4116.5     29.96844   18.13182   90.28748  
4117       30.11147   18.12115   88.95909  
4117.5     30.49786   17.9805    93.84042  
4118       30.88426   17.83177   95.39671  
4118.5     31.23027   17.76918   93.43748  
4119       31.23027   17.89923   89.80411  
4119.5     31.23027   18.06529   90.89128  
4120       31.07671   18.18564   92.37567  
4120.5     30.65054   18.09714   92.71469  
4121       30.13641   17.73651   91.9473   
4121.5     29.08028   17.43758   91.90143  
4122       28.05426   17.24409   92.25552  
4122.5     27.61507   17.19684   90.20798  
4123       26.95203   17.14764   88.30627  
4123.5     26.14728   16.99721   87.92696  
4124       25.34253   16.73276   88.19212  
4124.5     24.53777   16.43214   86.51874  
4125       24.06734   16.23547   87.40393  
4125.5     23.74544   15.8135    85.22684  
4126       22.77502   15.57139   83.96214  
4126.5     21.56769   15.3153    85.66676  
4127       19.73936   15.07123   87.4257   
4127.5     18.43916   14.86951   88.52454  
4128       17.36351   14.44644   88.62502  
4128.5     16.21701   13.71642   88.0211   
4129       15.01426   12.71051   85.37685  
4129.5     13.9037    12.01404   83.76073  
4130       13.08479   11.16462   77.84482  
4130.5     12.23751   10.38896   80.31378  
4131       11.58796   9.435543   78.82701  
4131.5     10.99685   8.626389   77.59471  
4132       10.47602   7.970356   76.67375  
4132.5     10.00531   7.139016   74.2636   
4133       9.628902   6.455751   72.31148  
4133.5     9.425632   5.926522   73.72784  
4134       9.324478   5.535913   76.33937  
4134.5     9.276192   5.374789   77.66174  
4135       9.31678    5.460199   76.03726  
4135.5     9.43939    5.670292   76.12228  
4136       9.66983    5.985169   78.01277  
4136.5     10.03197   6.359141   76.26929  
4137       10.47702   6.765274   71.97298  
4137.5     11.00265   7.149041   70.0051   
4138       11.62727   7.438296   74.16193  
4138.5     12.17394   7.749467   72.33469  
4139       12.62777   8.048304   73.67465  
4139.5     13.06362   8.299538   74.36681  
4140       13.50252   8.460295   73.0894   
4140.5     14.00225   8.631634   70.58179  
4141       14.56695   8.826071   70.7249   
4141.5     15.13948   9.067173   74.57977  
4142       15.72862   9.415499   74.14989  
4142.5     16.45891   9.910032   74.57434  
4143       17.37291   10.52167   75.57291  
4143.5     18.23523   11.44838   74.66534  
4144       19.33951   12.3631    76.43784  
4144.5     21.72321   13.26667   79.26437  
4145       22.46622   14.07643   83.10065  
4145.5     23.19672   14.4252    84.1407   
4146       23.33205   14.4252    81.82956  
4146.5     21.77802   14.50314   81.32976  
4147       20.13959   14.63847   83.10771  
4147.5     18.68071   14.83959   85.11929  
4148       17.53937   14.89125   86.40236  
4148.5     16.20802   14.92913   86.25774  
4149       15.05463   14.92913   84.79686  
4149.5     14.37395   14.72937   85.24652  
4150       14.14681   13.95276   86.38913  
4150.5     14.01514   13.09361   84.36089  
4151       13.92693   12.08206   81.69484  
4151.5     13.85794   10.17502   81.47572  
4152       13.80042   8.985792   81.19626  
4152.5     13.72844   8.299707   81.30988  
4153       13.57483   8.005182   80.38339  
4153.5     13.35717   8.129515   78.63853  
4154       13.17757   8.475946   75.16557  
4154.5     13.14506   8.792864   73.73116  
4155       13.17955   9.052086   74.3307   
4155.5     13.31639   9.229708   73.23985  
4156       13.52324   9.283281   71.37979  
4156.5     13.87459   9.188904   71.19095  
4157       14.3315    8.842293   72.46567  
4157.5     14.84798   8.560425   73.67136  
4158       15.30576   8.490015   73.27328  
4158.5     15.66803   8.63361    73.6265   
4159       16.10318   8.957388   73.5985   
4159.5     16.67964   9.341263   73.76794  
4160       17.31451   9.817112   74.44005  
4160.5     17.95842   10.49184   75.29912  
4161       18.67905   11.43829   76.64984  
4161.5     19.23022   12.05417   77.75392  
4162       20.11754   12.27034   79.35561  
4162.5     21.34204   12.61172   84.26315  
4163       21.91002   13.41125   87.59909  
4163.5     22.34364   14.29548   86.99232  
4164       23.55048   14.82293   83.99681  
4164.5     24.52744   15.18004   85.33784  
4165       25.37975   15.45366   85.73174  
4165.5     26.19019   15.93664   88.39485  
4166       26.94456   16.4901    89.73421  
4166.5     27.63623   16.69582   88.42271  
4167       28.20444   16.73708   87.36333  
4167.5     28.7222    16.75563   90.68304  
4168       28.85635   16.89438   92.33904  
4168.5     28.99051   17.06966   93.00842  
4169       29.28578   17.23573   90.71353  
4169.5     29.63065   17.39471   88.47746  
4170       29.97092   17.52866   88.75252  
4170.5     30.09167   17.60771   90.09366  
4171       30.21243   17.63779   89.77342  
4171.5     30.14313   17.63779   90.95219  
4172       29.79826   17.63779   92.16161  
4172.5     29.45338   17.63779   91.85602  
4173       29.33752   17.64537   93.27795  
4173.5     29.33752   17.69894   93.24013  
4174       29.33752   17.75252   90.57236  
4174.5     29.45351   17.76378   86.24799  
4175       29.67303   17.66508   86.45303  
4175.5     29.89256   17.3932    88.08948  
4176       30.09482   17.19272   91.18404  
4176.5     30.28796   17.02374   90.73325  
4177       30.48109   16.92546   88.89999  
4177.5     30.64006   16.98297   86.62306  
4178       30.74504   17.16978   83.3775   
4178.5     30.85002   17.5322    85.73291  
4179       30.81752   17.91786   90.19739  
4179.5     30.56337   17.87782   90.35974  
4180       30.30922   17.89642   88.67101  
4180.5     30.11665   17.98979   87.24821  
4181       29.93089   17.97845   88.15439  
4181.5     29.74515   17.83017   89.50351  
4182       29.4502    17.69691   89.0014   
4182.5     29.04774   17.5683    90.08168  
