~Version
 VERS              .         3.0                           : CWLS LOG ASCII STANDARD - VERSION 3.0
 WRAP              .         NO                            : ONE LINE PER DEPTH STEP
 DLM               .         SPACE                         : DELIMITING CHARACTER(SPACE TAB OR COMMA)
~Well Information
#_______________________________________________________________________________
#
#PARAMETER_NAME    .UNIT     VALUE                         : DESCRIPTION
#_______________________________________________________________________________
STRT               .ft       3000                          : First reference value
STOP               .ft       8496                          : Last reference value
STEP               .ft       0.5                           : Step increment
NULL               .         -9999                         : Missing value
COMP               .                                       : Company
WELL               .         EGBM-007                      : Well name
FLD                .         EGBEMA                        : Field
LOC                .                                       : Location
SRVC               .                                       : Service Company
CTRY               .                                       : Country
DATE               .         1967/02/19                    : Service Date
X                  .                                       : X or East-West coordinate
Y                  .                                       : Y or North South coordinate
GDAT               .                                       : Geodetic Datum
HZCS               .                                       : Horizontal Co-ordinate System
APIN               .         10805/01                      : 
BHT                .degF     162                           : 
BLI                .ft       8250                          : 
BS                 .in       9.625                         : 
CREATION-TIME      .         2067/2/19 0_0                 : 
CSIZ               .in       10.75                         : 
DFD                .g/cm3    1.18                          : 
DFT                .         BENT. SPERSENE                : 
DFV                .s        0                             : 
ELZ                .         -999.25                       : 
FIELD-NAME         .         EGBEMA                        : 
FILE-ID            .         SOH18 .4                      : 
FILE-NUMBER        .         0                             : 
FILE-SET-NAME      .                                       : 
FILE-SET-NUMBER    .         0                             : 
FILE-TYPE          .         PTF                           : 
HIDE               .         4540_300_185_7_1_DATE_67/02/19_SOH_18_SEQ_4: 
LCC                .         0                             : 
LMF                .         1                             : 
MST                .degF     96                            : 
NAME-SPACE-NAME    .         LIS                           : 
NAME-SPACE-VERSION .         0                             : 
PRODUC             .         SHELL(PARASOL)                : 
PRODUCER-CODE      .         0                             : 
PRODUCER-NAME      .         Schlumberger                  : 
PRODUCT            .                                       : 
PROGRAMS           .         INC                           : 
R1                 .         SHELL LAB. MEASUREMENTS       : 
R2                 .         MUD 1.14 OHMS AT 77 DEGF      : 
R3                 .         FILTRATE 1.09 OHMS AT 77 DEGF : 
R4                 .         FROM 7700 TO CASING SHOE REPEATED FREE OF CHARGE.: 
R5                 .         RAN "NO CURRENT SP" GOING DOWN (STILL NOISE ON SP WITH  IN: 
R6                 .         HOLE AND TRUCK AND RIG GENERATORS OFF.): 
RMCS               .ohm.m    -999.25                       : 
RMFS               .ohm.m    -999.25                       : 
RMS                .ohm.m    0.9100001                     : 
TCS                .h        -999.25                       : 
TDD                .ft       8500                          : 
TDL                .ft       8499                          : 
TLI                .ft       7600                          : 
VERSION            .         2P01                          : 
WELL-ID            .         10805/01                      : 
WELL-NAME          .         EGBM-007                      : 
WN                 .         EGBM-007                      : 
~Parameter Information Block
#_______________________________________________________________________________
#
#PARAMETER_NAME    .UNIT     VALUE                         : DESCRIPTION
#_______________________________________________________________________________
SET                .         SOH15 _1_1                    : 
ACQUISITION-PRODUCT .         DLIS/U                        : 
CREATION-TIME      .         2026/5/13 11_54               : 
DLIS_FRAME_DIRECTION .         INCREASING                    : 
DLIS_FRAME_NAME    .         1                             : 
DLIS_FRAME_SPACING .ft       0.5                           : 
FIELD-NAME         .         EGBEMA                        : 
FILE-ID            .         SOH15 .1                      : 
FILE-NUMBER        .         1                             : 
FILE-SET-NAME      .         LIS-TO-DLIS-CONVERSION        : 
FILE-SET-NUMBER    .         946                           : 
FILE-TYPE          .         PTF                           : 
INDEX-TYPE         .         BOREHOLE-DEPTH                : 
NAME-SPACE-NAME    .                                       : 
NAME-SPACE-VERSION .         0                             : 
OriginalDatasetName .         1                             : 
PRODUCER-CODE      .         440                           : 
PRODUCER-NAME      .         Schlumberger                  : 
PRODUCT            .         DLIS/U                        : 
PROGRAMS           .         LIS-TO-DLIS                   : 
TLFamily_DEPT      .         Measured Depth                : 
TLFamily_LN        .                                       : 
TLFamily_SN        .         Resistivity - Shallow         : 
TLFamily_SP        .         Spontaneous Potential         : 
VERSION            .         0.1                           : 
WELL-ID            .         10805/01                      : 
WELL-NAME          .         EGBM-007                      : 
~Curve Information
#_______________________________________________________________________________
#
#LOGNAME           .UNIT     LOG_ID                        : DESCRIPTION
#_______________________________________________________________________________
DEPT               .ft                                     :  {F}
LN                 .ohm.m                                  :  {F}
SN                 .ohm.m                                  :  {F}
SP                 .mV                                     :  {F}
~Ascii
# ...
5821       85.50215   39.57903   76.52979  
5821.5     85.98502   40.50726   76.34413  
5822       86.11987   41.28659   75.94563  
5822.5     86.09818   41.89038   75.70978  
5823       85.13248   42.22179   75.80563  
5823.5     83.12956   42.08769   76.20792  
5824       80.59679   41.9449    76.61035  
5824.5     78.00841   41.2861    76.99814  
5825       75.81392   40.72937   77.25684  
5825.5     73.07114   39.64128   77.46837  
5826       70.26053   38.50536   77.5546   
5826.5     67.81601   37.12256   77.43755  
5827       65.85704   35.63618   77.06624  
5827.5     64.40848   34.10004   76.85913  
5828       63.19215   32.0632    76.70818  
5828.5     61.89699   29.72803   76.89345  
5829       60.5555    27.91779   77.28722  
5829.5     59.33952   25.76572   77.63306  
5830       58.41129   23.979     77.73363  
5830.5     57.3631    22.82095   77.65579  
5831       56.23645   22.21754   77.51373  
5831.5     55.31706   22.20682   77.48621  
5832       54.54309   22.36777   77.56668  
5832.5     54.14081   23.10063   77.64436  
5833       54.51027   23.96297   77.7198   
5833.5     55.6248    25.76137   77.96384  
5834       57.19102   27.35863   78.40854  
5834.5     58.97081   28.65891   79.06732  
5835       61.6042    30.24005   79.49013  
5835.5     64.09033   31.89627   79.74883  
5836       66.41898   33.31407   79.87633  
5836.5     68.02875   34.11913   79.96255  
5837       69.03848   34.50929   79.96844  
5837.5     69.50842   34.69505   79.95297  
5838       69.68088   34.07474   79.80211  
5838.5     69.56833   33.4276    79.65063  
5839       69.21906   32.49883   79.44949  
5839.5     67.34099   31.60892   79.09413  
5840       64.74681   30.80417   78.54417  
5840.5     62.12497   29.94252   77.8764   
5841       59.5244    28.97681   77.42357  
5841.5     57.38934   27.91614   76.97142  
5842       55.29698   26.70912   76.8786   
5842.5     52.89687   25.50192   76.9183   
5843       50.4826    24.29434   77.26323  
5843.5     47.83179   23.0871    77.57677  
5844       44.7274    21.98346   77.85539  
5844.5     41.8002    21.02711   78.13638  
5845       39.04076   20.07349   78.41805  
5845.5     36.16324   19.1492    78.69971  
5846       33.23132   18.27806   78.98137  
5846.5     30.74091   17.39435   79.36642  
5847       27.44348   16.51944   79.81528  
5847.5     24.09117   15.73184   80.37862  
5848       20.61516   14.99889   80.88086  
5848.5     17.87387   14.22625   81.25806  
5849       15.94839   13.18101   81.64687  
5849.5     14.45879   11.95779   82.07303  
5850       13.31457   10.80052   82.50305  
5850.5     12.27707   9.534113   83.16139  
5851       11.44199   7.975883   83.99773  
5851.5     10.63705   6.582874   85.07047  
5852       9.823822   5.650846   86.2572   
5852.5     9.312794   5.21172    86.86076  
5853       8.778486   4.919654   87.27905  
5853.5     8.485039   4.737873   87.68144  
5854       8.334862   4.661715   87.84213  
5854.5     8.267637   4.507996   87.99301  
5855       8.28775    4.319292   88.01262  
5855.5     8.341892   4.172633   88.01262  
5856       8.422398   4.237313   88.06078  
5856.5     8.575727   4.35719    88.15366  
5857       8.759201   4.453203   88.24109  
5857.5     8.877249   4.520105   88.32732  
5858       8.90691    4.594365   88.40784  
5858.5     8.922005   4.729102   88.48579  
5859       9.023909   4.949196   88.48579  
5859.5     9.292265   5.190662   88.48579  
5860       9.634069   5.534833   88.07277  
5860.5     9.914322   6.199209   87.75352  
5861       10.11669   6.972364   87.5524   
5861.5     10.45115   8.032759   86.40968  
5862       10.92229   9.01685    85.20311  
5862.5     11.72275   9.98147    84.78914  
5863       12.3085    10.45939   84.52084  
5863.5     12.61169   10.2289    84.38486  
5864       12.70063   9.471786   84.38486  
5864.5     12.48334   8.779106   84.34698  
5865       12.36319   8.220766   84.27596  
5865.5     12.31793   7.593162   84.34322  
5866       12.36684   6.835194   84.71474  
5866.5     12.52206   6.329375   85.41385  
5867       12.67282   5.922048   86.06836  
5867.5     12.80285   5.662313   86.53275  
5868       12.94768   5.545081   86.59306  
5868.5     13.10863   5.488958   86.59966  
5869       13.27716   5.542421   86.7606   
5869.5     13.45805   5.696702   86.89961  
5870       13.69945   6.020051   86.78989  
5870.5     14.07692   6.462556   86.51169  
5871       14.6199    7.073793   86.14018  
5871.5     15.22767   7.59612    85.83463  
5872       16.02339   8.500252   85.53287  
5872.5     16.9227    9.757051   84.67842  
5873       18.22227   11.09724   83.7233   
5873.5     21.16785   12.74458   83.02145  
5874       24.6243    14.77968   83.36993  
5874.5     27.08946   16.86966   84.05359  
5875       29.28395   19.00584   84.55643  
5875.5     31.47844   21.25258   85.09222  
5876       33.79118   22.61598   85.64111  
5876.5     36.05328   23.02838   86.18973  
5877       37.81006   23.02838   86.57585  
5877.5     38.90822   22.88081   86.93098  
5878       39.76047   22.63589   87.15965  
5878.5     39.89461   21.83101   87.31053  
5879       40.02876   21.12857   87.3817   
5879.5     39.85167   20.50813   87.3817   
5880       39.56757   20.08878   87.3817   
5880.5     39.17943   19.70547   87.3817   
5881       38.69658   19.55835   87.40115  
5881.5     38.21371   19.55835   87.62747  
5882       38.08244   19.48819   87.85378  
5882.5     37.98587   19.35876   88.03514  
5883       37.88931   19.37337   88.21628  
5883.5     37.64297   19.49408   88.39738  
5884       37.31369   19.5484    88.57846  
5884.5     36.98441   19.57802   88.75952  
5885       36.41309   19.63589   88.91736  
5885.5     35.76929   19.62869   89.06824  
5886       34.99518   19.43246   89.15984  
5886.5     34.19043   19.16304   89.22339  
5887       34.0694    18.9135    89.28693  
5887.5     34.0694    18.51546   89.35045  
5888       34.00226   18.08618   89.41399  
5888.5     33.71814   17.59854   89.36588  
5889       33.43163   17.01384   89.26187  
5889.5     32.99272   16.42554   88.45699  
5890       32.55383   15.89656   87.86032  
5890.5     32.04085   15.6139    87.27362  
5891       31.07513   15.50835   86.50502  
5891.5     29.90797   15.45917   85.67076  
5892       28.70465   15.53404   85.40237  
5892.5     28.30212   15.90725   85.38116  
5893       28.13782   16.49304   85.52322  
5893.5     28.27982   16.71924   85.66425  
5894       28.39116   16.5079    85.79839  
5894.5     28.39116   15.82366   85.93253  
5895       28.39116   14.98871   86.02934  
5895.5     28.16237   14.16867   86.11557  
5896       27.93245   13.67065   85.86494  
5896.5     27.65924   13.4094    84.98691  
5897       27.25679   12.89289   83.82057  
5897.5     26.85435   12.35405   83.3353   
5898       26.08995   11.96159   83.70879  
5898.5     25.28505   11.66504   84.46794  
5899       24.855     11.54881   85.15636  
5899.5     24.73428   11.66952   85.04663  
5900       24.61357   11.89876   84.9369   
5900.5     24.91341   12.44091   85.08432  
5901       25.24269   12.92574   86.61993  
5901.5     25.57861   13.10684   87.12347  
5902       26.01752   13.18541   87.51428  
5902.5     26.45641   13.13713   88.15207  
5903       26.88109   13.00896   88.75586  
5903.5     27.24336   12.83826   89.21385  
5904       27.60564   12.75042   89.4144   
5904.5     27.62845   12.67142   89.22876  
5905       27.39853   12.55397   89.04308  
5905.5     27.16862   12.33546   88.85732  
5906       26.8213    12.23975   88.63269  
5906.5     26.43523   12.23975   88.39127  
5907       25.95238   12.23975   88.23895  
5907.5     25.55205   12.32345   88.32666  
5908       25.55205   12.4908    88.62675  
5908.5     25.55205   12.66392   88.49261  
5909       25.62811   12.59149   88.39764  
5909.5     25.72098   12.54999   88.42908  
5910       25.81383   12.638     88.87387  
5910.5     25.8212    12.74657   89.65855  
5911       25.71144   12.81556   89.8934   
5911.5     25.60167   12.88494   88.55299  
