~Version
 VERS              .         3.0                           : CWLS LOG ASCII STANDARD - VERSION 3.0
 WRAP              .         NO                            : ONE LINE PER DEPTH STEP
 DLM               .         SPACE                         : DELIMITING CHARACTER(SPACE TAB OR COMMA)
~Well Information
#_______________________________________________________________________________
#
#PARAMETER_NAME    .UNIT     VALUE                         : DESCRIPTION
#_______________________________________________________________________________
STRT               .ft       3000                          : First reference value
STOP               .ft       8496                          : Last reference value
STEP               .ft       0.5                           : Step increment
NULL               .         -9999                         : Missing value
COMP               .                                       : Company
WELL               .         EGBM-007                      : Well name
FLD                .         EGBEMA                        : Field
LOC                .                                       : Location
SRVC               .                                       : Service Company
CTRY               .                                       : Country
DATE               .         1967/02/19                    : Service Date
X                  .                                       : X or East-West coordinate
Y                  .                                       : Y or North South coordinate
GDAT               .                                       : Geodetic Datum
HZCS               .                                       : Horizontal Co-ordinate System
APIN               .         10805/01                      : 
BHT                .degF     162                           : 
BLI                .ft       8250                          : 
BS                 .in       9.625                         : 
CREATION-TIME      .         2067/2/19 0_0                 : 
CSIZ               .in       10.75                         : 
DFD                .g/cm3    1.18                          : 
DFT                .         BENT. SPERSENE                : 
DFV                .s        0                             : 
ELZ                .         -999.25                       : 
FIELD-NAME         .         EGBEMA                        : 
FILE-ID            .         SOH18 .4                      : 
FILE-NUMBER        .         0                             : 
FILE-SET-NAME      .                                       : 
FILE-SET-NUMBER    .         0                             : 
FILE-TYPE          .         PTF                           : 
HIDE               .         4540_300_185_7_1_DATE_67/02/19_SOH_18_SEQ_4: 
LCC                .         0                             : 
LMF                .         1                             : 
MST                .degF     96                            : 
NAME-SPACE-NAME    .         LIS                           : 
NAME-SPACE-VERSION .         0                             : 
PRODUC             .         SHELL(PARASOL)                : 
PRODUCER-CODE      .         0                             : 
PRODUCER-NAME      .         Schlumberger                  : 
PRODUCT            .                                       : 
PROGRAMS           .         INC                           : 
R1                 .         SHELL LAB. MEASUREMENTS       : 
R2                 .         MUD 1.14 OHMS AT 77 DEGF      : 
R3                 .         FILTRATE 1.09 OHMS AT 77 DEGF : 
R4                 .         FROM 7700 TO CASING SHOE REPEATED FREE OF CHARGE.: 
R5                 .         RAN "NO CURRENT SP" GOING DOWN (STILL NOISE ON SP WITH  IN: 
R6                 .         HOLE AND TRUCK AND RIG GENERATORS OFF.): 
RMCS               .ohm.m    -999.25                       : 
RMFS               .ohm.m    -999.25                       : 
RMS                .ohm.m    0.9100001                     : 
TCS                .h        -999.25                       : 
TDD                .ft       8500                          : 
TDL                .ft       8499                          : 
TLI                .ft       7600                          : 
VERSION            .         2P01                          : 
WELL-ID            .         10805/01                      : 
WELL-NAME          .         EGBM-007                      : 
WN                 .         EGBM-007                      : 
~Parameter Information Block
#_______________________________________________________________________________
#
#PARAMETER_NAME    .UNIT     VALUE                         : DESCRIPTION
#_______________________________________________________________________________
SET                .         SOH15 _1_1                    : 
ACQUISITION-PRODUCT .         DLIS/U                        : 
CREATION-TIME      .         2026/5/13 11_54               : 
DLIS_FRAME_DIRECTION .         INCREASING                    : 
DLIS_FRAME_NAME    .         1                             : 
DLIS_FRAME_SPACING .ft       0.5                           : 
FIELD-NAME         .         EGBEMA                        : 
FILE-ID            .         SOH15 .1                      : 
FILE-NUMBER        .         1                             : 
FILE-SET-NAME      .         LIS-TO-DLIS-CONVERSION        : 
FILE-SET-NUMBER    .         946                           : 
FILE-TYPE          .         PTF                           : 
INDEX-TYPE         .         BOREHOLE-DEPTH                : 
NAME-SPACE-NAME    .                                       : 
NAME-SPACE-VERSION .         0                             : 
OriginalDatasetName .         1                             : 
PRODUCER-CODE      .         440                           : 
PRODUCER-NAME      .         Schlumberger                  : 
PRODUCT            .         DLIS/U                        : 
PROGRAMS           .         LIS-TO-DLIS                   : 
TLFamily_DEPT      .         Measured Depth                : 
TLFamily_LN        .                                       : 
TLFamily_SN        .         Resistivity - Shallow         : 
TLFamily_SP        .         Spontaneous Potential         : 
VERSION            .         0.1                           : 
WELL-ID            .         10805/01                      : 
WELL-NAME          .         EGBM-007                      : 
~Curve Information
#_______________________________________________________________________________
#
#LOGNAME           .UNIT     LOG_ID                        : DESCRIPTION
#_______________________________________________________________________________
DEPT               .ft                                     :  {F}
LN                 .ohm.m                                  :  {F}
SN                 .ohm.m                                  :  {F}
SP                 .mV                                     :  {F}
~Ascii
# ...
6913       4.398158   4.322238   82.31137  
6913.5     4.386674   4.229267   82.83633  
6914       4.354396   4.158727   82.91162  
6914.5     4.318209   4.126517   82.98691  
6915       4.287344   4.145285   83.06218  
6915.5     4.274646   4.238256   83.13747  
6916       4.261948   4.276096   83.1496   
6916.5     4.265836   4.291202   83.1496   
6917       4.275484   4.2651     83.20828  
6917.5     4.285132   4.213333   83.27519  
6918       4.299341   4.176909   83.47523  
6918.5     4.318638   4.144685   83.79646  
6919       4.337934   4.13902    83.89183  
6919.5     4.358757   4.13902    83.81152  
6920       4.385565   4.148461   83.62431  
6920.5     4.412372   4.269314   83.3663   
6921       4.471047   4.420135   83.24521  
6921.5     4.535363   4.637376   83.1649   
6922       4.62289    4.75819    82.52921  
6922.5     4.713353   4.81416    81.68944  
6923       4.803816   4.862486   80.81325  
6923.5     4.894279   4.919811   81.23691  
6924       4.956833   5.00036    81.71864  
6924.5     5.007604   5.08091    80.6783   
6925       5.053156   5.191304   80.13696  
6925.5     5.079964   5.304091   80.23521  
6926       5.106771   5.541189   80.36397  
6926.5     5.199747   5.723284   78.88541  
6927       5.3014     5.634277   76.85039  
6927.5     5.353085   5.398732   77.24965  
6928       5.379086   5.17713    78.56427  
6928.5     5.303718   5.104818   79.60939  
6929       5.228345   5.095387   80.41246  
6929.5     5.152942   5.337111   80.74089  
6930       5.077922   5.564038   79.75328  
6930.5     5.024329   5.761721   77.8385   
6931       4.970737   5.843967   76.15135  
6931.5     4.902682   5.528714   75.75896  
6932       4.827278   5.219877   76.87613  
6932.5     4.771985   4.938203   79.13062  
6933       4.731861   4.736637   80.79112  
6933.5     4.731861   4.691323   81.29286  
6934       4.734008   4.646009   81.92047  
6934.5     4.787622   4.644549   82.34326  
6935       4.841236   4.644549   82.49666  
6935.5     4.904034   4.661695   82.4106   
6936       4.971025   4.684707   82.28111  
6936.5     5.034843   4.707718   82.09575  
6937       5.092281   4.778748   81.80476  
6937.5     5.149718   4.849824   81.47166  
6938       5.211186   4.968103   81.12764  
6938.5     5.275502   5.086779   80.30966  
6939       5.324777   5.179696   78.71214  
6939.5     5.364987   5.24576    78.79747  
6940       5.404106   5.296631   79.10345  
6940.5     5.44028    5.363627   78.44383  
6941       5.476454   5.519009   77.91052  
6941.5     5.471418   5.68276    78.39227  
6942       5.444612   5.863958   77.85645  
6942.5     5.412045   5.893165   76.37991  
6943       5.366096   5.863903   75.76814  
6943.5     5.320146   5.794882   76.12944  
6944       5.272927   5.698848   77.35385  
6944.5     5.22469    5.553835   78.21291  
6945       5.183597   5.338919   78.58469  
6945.5     5.147409   5.034268   79.70705  
6946       5.111222   4.792641   81.67587  
6946.5     5.082674   4.633457   82.51709  
6947       5.0543     4.578154   82.92262  
6947.5     5.036618   4.566532   83.18079  
6948       5.022426   4.623393   83.20457  
6948.5     5.029259   4.686625   83.00388  
6949       5.054644   4.831637   82.84091  
6949.5     5.082555   4.977622   82.6803   
6950       5.162977   5.131374   81.73251  
6950.5     5.243399   5.211252   80.47147  
6951       5.319525   5.212377   80.43388  
6951.5     5.393742   5.074334   80.90134  
6952       5.349454   4.999619   80.72142  
6952.5     5.304233   5.018213   81.00333  
6953       5.289351   5.137259   81.51143  
6953.5     5.277864   5.323841   81.4111   
6954       5.270314   5.672887   79.99471  
6954.5     5.284507   5.943003   78.1516   
6955       5.298699   5.968113   77.48032  
6955.5     5.243561   5.69072    77.87447  
6956       5.165427   5.352441   79.12128  
6956.5     5.055778   5.182796   81.03157  
6957       4.936084   5.086888   82.12399  
6957.5     4.872489   5.086888   82.3622   
6958       4.844649   5.086888   81.95131  
6958.5     4.816811   5.007692   81.67752  
6959       4.784589   4.860437   81.58485  
6959.5     4.736351   4.651096   81.97755  
6960       4.692181   4.497239   82.95265  
6960.5     4.660023   4.419109   83.70998  
6961       4.632834   4.408514   84.02039  
6961.5     4.617754   4.435364   84.05867  
6962       4.615974   4.466471   83.97839  
6962.5     4.667659   4.509116   84.0148   
6963       4.741301   4.553095   84.17542  
6963.5     4.852626   4.62417    84.25197  
6964       4.909727   4.695247   84.25197  
6964.5     4.939874   4.823899   84.07504  
6965       4.952681   4.976303   83.78352  
6965.5     4.952681   5.162245   83.18135  
6966       4.952681   5.419408   82.11256  
6966.5     5.014422   5.679582   81.09778  
6967       5.078738   5.776234   79.75108  
6967.5     5.167574   5.600204   77.96634  
6968       5.256457   5.291355   78.50165  
6968.5     5.353885   4.965673   79.74985  
6969       5.4594     4.731365   81.38718  
6969.5     5.577631   4.677666   82.37587  
6970       5.713357   4.871896   82.18211  
6970.5     5.87057    5.199035   81.5473   
6971       6.071583   5.802096   79.79269  
6971.5     6.357973   6.627704   77.51913  
6972       6.6872     7.236487   75.32089  
6972.5     7.006269   7.469772   73.82811  
6973       7.23811    7.49886    72.7076   
6973.5     7.382857   7.383137   72.03003  
6974       7.397367   7.302574   71.42316  
6974.5     7.339108   7.235387   71.07913  
6975       7.146111   7.235387   70.83336  
6975.5     6.989169   7.235387   70.74731  
6976       6.816987   7.216394   70.85085  
6976.5     6.620547   7.143527   71.10899  
6977       6.406089   6.982402   71.50665  
6977.5     6.318569   6.804668   71.95836  
6978       6.25369    6.603337   72.34233  
6978.5     6.301938   6.368007   72.68636  
6979       6.437422   6.100355   73.27998  
6979.5     6.588228   5.843531   74.13367  
6980       6.704669   5.931725   75.52756  
6980.5     6.810184   6.192043   76.52736  
6981       6.877552   6.647332   75.11143  
6981.5     6.925789   6.985661   73.30421  
6982       7.03151    7.093122   71.86382  
6982.5     7.161009   7.176255   71.48763  
6983       7.193182   7.224593   71.38728  
6983.5     7.224549   7.259986   71.33858  
6984       7.237948   7.203125   71.33858  
6984.5     7.251347   7.146264   71.35812  
6985       7.301661   7.097089   71.42503  
6985.5     7.368679   7.155529   71.49194  
6986       7.440178   7.290707   71.33455  
6986.5     7.520574   7.444459   71.13364  
6987       7.604716   7.5314     70.69572  
6987.5     7.695158   7.591818   70.55118  
6988       7.781385   7.638342   70.55118  
6988.5     7.856789   7.676496   70.69727  
6989       7.926002   7.705769   70.84776  
6989.5     7.968562   7.680333   70.86613  
6990       8.011122   7.654898   70.86613  
6990.5     7.998067   7.621119   70.86613  
6991       7.982986   7.582951   70.86613  
6991.5     7.924921   7.549266   70.57832  
6992       7.860604   7.537185   70.27721  
6992.5     7.796288   7.525104   69.97598  
6993       7.731972   7.501809   69.83914  
6993.5     7.742175   7.469584   69.84557  
6994       7.756365   7.355799   70.174    
6994.5     7.770555   7.246094   70.51521  
6995       7.784744   7.283261   70.85942  
6995.5     7.809127   7.363186   70.98422  
6996       7.843583   7.46867    70.84352  
6996.5     7.887306   7.549219   70.57588  
6997       7.935555   7.65591    70.39369  
6997.5     7.984325   7.701786   70.39369  
6998       8.041763   7.731981   70.39369  
6998.5     8.099201   7.70088    70.16101  
6999       8.156424   7.644019   69.92252  
6999.5     8.213171   7.605581   70.18066  
7000       8.269823   7.586987   70.39369  
7000.5     8.325485   7.655621   70.39369  
7001       8.372953   7.752578   70.30254  
7001.5     8.407429   7.89473    70.15196  
7002       8.431664   8.036882   70.03456  
7002.5     8.447742   8.108795   69.94856  
7003       8.447084   8.169212   69.7278   
7003.5     8.435022   8.183254   69.44438  
