~Version
 VERS              .         3.0                           : CWLS LOG ASCII STANDARD - VERSION 3.0
 WRAP              .         NO                            : ONE LINE PER DEPTH STEP
 DLM               .         SPACE                         : DELIMITING CHARACTER(SPACE TAB OR COMMA)
~Well Information
#_______________________________________________________________________________
#
#PARAMETER_NAME    .UNIT     VALUE                         : DESCRIPTION
#_______________________________________________________________________________
STRT               .ft       3000                          : First reference value
STOP               .ft       8496                          : Last reference value
STEP               .ft       0.5                           : Step increment
NULL               .         -9999                         : Missing value
COMP               .                                       : Company
WELL               .         EGBM-007                      : Well name
FLD                .         EGBEMA                        : Field
LOC                .                                       : Location
SRVC               .                                       : Service Company
CTRY               .                                       : Country
DATE               .         1967/02/19                    : Service Date
X                  .                                       : X or East-West coordinate
Y                  .                                       : Y or North South coordinate
GDAT               .                                       : Geodetic Datum
HZCS               .                                       : Horizontal Co-ordinate System
APIN               .         10805/01                      : 
BHT                .degF     162                           : 
BLI                .ft       8250                          : 
BS                 .in       9.625                         : 
CREATION-TIME      .         2067/2/19 0_0                 : 
CSIZ               .in       10.75                         : 
DFD                .g/cm3    1.18                          : 
DFT                .         BENT. SPERSENE                : 
DFV                .s        0                             : 
ELZ                .         -999.25                       : 
FIELD-NAME         .         EGBEMA                        : 
FILE-ID            .         SOH18 .4                      : 
FILE-NUMBER        .         0                             : 
FILE-SET-NAME      .                                       : 
FILE-SET-NUMBER    .         0                             : 
FILE-TYPE          .         PTF                           : 
HIDE               .         4540_300_185_7_1_DATE_67/02/19_SOH_18_SEQ_4: 
LCC                .         0                             : 
LMF                .         1                             : 
MST                .degF     96                            : 
NAME-SPACE-NAME    .         LIS                           : 
NAME-SPACE-VERSION .         0                             : 
PRODUC             .         SHELL(PARASOL)                : 
PRODUCER-CODE      .         0                             : 
PRODUCER-NAME      .         Schlumberger                  : 
PRODUCT            .                                       : 
PROGRAMS           .         INC                           : 
R1                 .         SHELL LAB. MEASUREMENTS       : 
R2                 .         MUD 1.14 OHMS AT 77 DEGF      : 
R3                 .         FILTRATE 1.09 OHMS AT 77 DEGF : 
R4                 .         FROM 7700 TO CASING SHOE REPEATED FREE OF CHARGE.: 
R5                 .         RAN "NO CURRENT SP" GOING DOWN (STILL NOISE ON SP WITH  IN: 
R6                 .         HOLE AND TRUCK AND RIG GENERATORS OFF.): 
RMCS               .ohm.m    -999.25                       : 
RMFS               .ohm.m    -999.25                       : 
RMS                .ohm.m    0.9100001                     : 
TCS                .h        -999.25                       : 
TDD                .ft       8500                          : 
TDL                .ft       8499                          : 
TLI                .ft       7600                          : 
VERSION            .         2P01                          : 
WELL-ID            .         10805/01                      : 
WELL-NAME          .         EGBM-007                      : 
WN                 .         EGBM-007                      : 
~Parameter Information Block
#_______________________________________________________________________________
#
#PARAMETER_NAME    .UNIT     VALUE                         : DESCRIPTION
#_______________________________________________________________________________
SET                .         SOH15 _1_1                    : 
ACQUISITION-PRODUCT .         DLIS/U                        : 
CREATION-TIME      .         2026/5/13 11_54               : 
DLIS_FRAME_DIRECTION .         INCREASING                    : 
DLIS_FRAME_NAME    .         1                             : 
DLIS_FRAME_SPACING .ft       0.5                           : 
FIELD-NAME         .         EGBEMA                        : 
FILE-ID            .         SOH15 .1                      : 
FILE-NUMBER        .         1                             : 
FILE-SET-NAME      .         LIS-TO-DLIS-CONVERSION        : 
FILE-SET-NUMBER    .         946                           : 
FILE-TYPE          .         PTF                           : 
INDEX-TYPE         .         BOREHOLE-DEPTH                : 
NAME-SPACE-NAME    .                                       : 
NAME-SPACE-VERSION .         0                             : 
OriginalDatasetName .         1                             : 
PRODUCER-CODE      .         440                           : 
PRODUCER-NAME      .         Schlumberger                  : 
PRODUCT            .         DLIS/U                        : 
PROGRAMS           .         LIS-TO-DLIS                   : 
TLFamily_DEPT      .         Measured Depth                : 
TLFamily_LN        .                                       : 
TLFamily_SN        .         Resistivity - Shallow         : 
TLFamily_SP        .         Spontaneous Potential         : 
VERSION            .         0.1                           : 
WELL-ID            .         10805/01                      : 
WELL-NAME          .         EGBM-007                      : 
~Curve Information
#_______________________________________________________________________________
#
#LOGNAME           .UNIT     LOG_ID                        : DESCRIPTION
#_______________________________________________________________________________
DEPT               .ft                                     :  {F}
LN                 .ohm.m                                  :  {F}
SN                 .ohm.m                                  :  {F}
SP                 .mV                                     :  {F}
~Ascii
# ...
6185       4.778537   3.145686   82.69295  
6185.5     4.79987    3.090127   82.87022  
6186       4.71673    3.038496   83.72118  
6186.5     4.569118   3.084915   83.70401  
6187       4.352177   3.171013   83.4453   
6187.5     4.346457   3.415006   83.52245  
6188       4.406116   3.749396   83.62527  
6188.5     4.517394   4.309038   83.82642  
6189       4.692547   5.011913   83.75113  
6189.5     5.006597   6.196752   83.47249  
6190       5.492921   8.003038   82.48468  
6190.5     6.338901   9.92108    81.19138  
6191       7.996117   11.73757   79.89371  
6191.5     9.857536   12.67958   79.01532  
6192       11.55424   12.07241   78.36465  
6192.5     12.17108   11.24628   78.0386   
6193       12.00106   10.65708   78.50301  
6193.5     11.54307   10.15459   78.99715  
6194       10.87475   9.705103   79.51456  
6194.5     9.947153   9.390556   80.14426  
6195       9.140528   9.163069   80.7776   
6195.5     8.402271   9.058731   81.19005  
6196       7.827209   9.322992   81.0291   
6196.5     7.323046   10.13515   80.66005  
6197       6.88642    10.68345   79.78166  
6197.5     6.714593   10.78476   79.21162  
6198       6.957499   10.49442   80.19939  
6198.5     7.325921   10.23463   80.71674  
6199       7.763342   9.98608    80.90248  
6199.5     8.526529   9.633904   80.65469  
6200       9.506145   9.157681   80.31252  
6200.5     10.60133   8.739899   79.7639   
6201       12.18782   8.837116   78.82738  
6201.5     14.16401   9.230112   77.79259  
6202       16.33675   9.765898   76.15172  
6202.5     18.33194   10.22396   74.27695  
6203       20.38847   10.6132    72.76747  
6203.5     22.40219   11.04709   71.54898  
6204       23.20514   11.48778   71.62135  
6204.5     23.86855   11.83573   71.71422  
6205       24.51166   12.36737   71.54706  
6205.5     25.00758   12.75419   71.0442   
6206       25.48967   13.1136    70.75333  
6206.5     25.97177   13.55429   70.50211  
6207       26.45386   14.26097   70.43503  
6207.5     26.29694   14.88312   70.36797  
6208       26.11597   15.20971   70.52486  
6208.5     25.36241   15.50823   70.78355  
6209       24.60887   16.02658   71.02744  
6209.5     23.99791   16.41943   71.26886  
6210       23.39534   16.58659   71.36118  
6210.5     22.86617   16.38335   71.43666  
6211       22.34912   15.59224   71.5262   
6211.5     21.81337   14.83174   71.67543  
6212       21.27762   14.05995   72.27899  
6212.5     21.02513   13.16521   72.53609  
6213       20.91035   11.80932   72.70856  
6213.5     20.79558   11.21366   73.62813  
6214       21.02315   10.91341   75.3317   
6214.5     21.27701   10.97142   75.90773  
6215       22.08054   11.95801   75.17003  
6215.5     23.5634    12.82817   73.6076   
6216       25.94083   13.80456   72.02869  
6216.5     27.9649    13.95276   71.40053  
6217       29.3165    13.91614   71.09212  
6217.5     29.50185   13.82941   70.98232  
6218       29.29674   13.76011   70.39867  
6218.5     28.58759   13.74003   70.07451  
6219       27.98195   13.60893   70.18423  
6219.5     27.7524    13.31766   70.3248   
6220       27.52284   13.07092   70.46686  
6220.5     27.14886   12.91894   70.50473  
6221       26.61311   12.57962   70.50473  
6221.5     26.03311   12.36805   70.0379   
6222       25.12885   12.18376   69.6597   
6222.5     24.22916   11.94224   69.70955  
6223       23.47597   11.86366   70.6478   
6223.5     22.72276   12.17415   70.81105  
6224       22.53557   12.58575   70.96199  
6224.5     22.38486   13.09527   71.28647  
6225       23.08487   13.65568   71.60883  
6225.5     23.93547   14.21552   71.60883  
6226       25.10368   14.76535   71.60883  
6226.5     26.46007   15.35635   71.8      
6227       27.69189   15.53483   72.02632  
6227.5     28.81677   15.3661    72.22206  
6228       29.84875   15.28361   72.38467  
6228.5     30.50755   15.30409   72.15475  
6229       30.34685   15.55932   71.92485  
6229.5     29.8264    16.10974   71.68298  
6230       28.51089   16.7962    71.41469  
6230.5     27.19615   17.53543   71.14639  
6231       26.10524   18.42471   70.39833  
6231.5     25.30196   18.84624   70.08891  
6232       23.41563   18.84099   70.17775  
6232.5     20.91484   18.42873   70.04359  
6233       18.2059    17.40216   69.90945  
6233.5     15.55046   16.08563   70.09538  
6234       13.50157   15.02263   70.43814  
6234.5     12.07221   14.28204   70.98714  
6235       11.02352   12.99213   71.48788  
6235.5     10.37699   11.32824   71.97073  
6236       9.741592   9.315254   72.75751  
6236.5     9.167974   7.793787   73.84503  
6237       8.624098   6.48268    75.65292  
6237.5     8.207499   5.661241   78.08588  
6238       7.834351   5.152782   79.47371  
6238.5     7.560415   5.139203   79.14432  
6239       7.381665   5.28902    78.48004  
6239.5     7.325343   5.397546   78.95227  
6240       7.306877   5.412472   80.60623  
6240.5     7.293484   5.393936   81.04512  
6241       7.280089   5.331632   81.16681  
6241.5     7.241286   5.231919   80.99928  
6242       7.189628   5.122368   80.48189  
6242.5     7.147567   5.076105   80.07903  
6243       7.091324   5.043982   79.92816  
6243.5     6.99085    5.03937    79.79013  
6244       6.888389   5.03937    79.69727  
6244.5     6.785072   5.008546   79.14751  
6245       6.707104   4.97375    78.42024  
6245.5     6.640796   4.933585   78.5527   
6246       6.612443   4.873482   78.64558  
6246.5     6.584089   4.793202   78.63768  
6247       6.51723    4.701421   78.43654  
6247.5     6.445463   4.626479   79.66414  
6248       6.352732   4.611415   81.23029  
6248.5     6.275223   4.600976   81.23029  
6249       6.218492   4.619501   81.23029  
6249.5     6.16437    4.636951   81.42142  
6250       6.120549   4.653022   81.74332  
6250.5     6.06414    4.661417   81.73366  
6251       6.003856   4.661417   81.53244  
6251.5     5.93908    4.645925   81.40805  
6252       5.872139   4.60576    81.47908  
6252.5     5.790911   4.55467    81.55447  
6253       5.679633   4.501141   81.69647  
6253.5     5.53754    4.407232   81.83846  
6254       5.359923   4.266657   82.25121  
6254.5     5.192528   4.055893   82.71089  
6255       5.061066   3.88618    83.14206  
6255.5     4.967483   3.774966   83.54141  
6256       4.881385   3.591526   83.87082  
6256.5     4.795288   3.401025   84.17596  
6257       4.709191   3.238153   84.34772  
6257.5     4.623094   3.166142   84.22795  
6258       4.548969   3.170211   85.07294  
6258.5     4.497312   3.235942   85.40747  
6259       4.472441   3.296868   85.33334  
6259.5     4.472441   3.311641   84.72978  
6260       4.481067   3.224059   84.80469  
6260.5     4.532725   3.114879   85.24573  
6261       4.561837   3.002446   85.64668  
6261.5     4.546765   2.973887   85.64668  
6262       4.538423   2.990414   85.62311  
6262.5     4.550475   3.078055   85.42198  
6263       4.562528   3.21702    85.18924  
6263.5     4.607731   3.482523   84.93054  
6264       4.67201    3.953638   84.27863  
6264.5     4.814953   4.698091   83.55022  
6265       5.012629   5.606495   83.24832  
6265.5     5.350093   6.442433   82.21553  
6266       5.858335   7.370078   80.1757   
6266.5     6.481919   7.622046   77.3519   
6267       7.247728   7.426483   74.72658  
6267.5     7.848246   7.189012   74.07643  
6268       8.256275   6.978848   73.27467  
6268.5     8.462988   6.79143    72.19908  
6269       8.583481   6.645669   71.11266  
6269.5     8.643677   6.645669   70.50787  
6270       8.69372    6.498722   69.97128  
6270.5     8.710939   6.343461   69.68091  
6271       8.715658   6.2181     69.61385  
6271.5     8.675468   6.157853   69.54346  
6272       8.58305    6.173805   69.45721  
6272.5     8.460577   6.198284   69.40063  
6273       8.31595    6.176373   69.40063  
6273.5     8.026375   6.135724   69.8688   
6274       7.408439   6.182169   70.32768  
6274.5     6.897932   6.291963   70.2348   
6275       6.576417   6.330709   70.55849  
6275.5     6.293823   6.330709   71.15451  
