~Version
 VERS              .         3.0                           : CWLS LOG ASCII STANDARD - VERSION 3.0
 WRAP              .         NO                            : ONE LINE PER DEPTH STEP
 DLM               .         SPACE                         : DELIMITING CHARACTER(SPACE TAB OR COMMA)
~Well Information
#_______________________________________________________________________________
#
#PARAMETER_NAME    .UNIT     VALUE                         : DESCRIPTION
#_______________________________________________________________________________
STRT               .ft       3000                          : First reference value
STOP               .ft       8496                          : Last reference value
STEP               .ft       0.5                           : Step increment
NULL               .         -9999                         : Missing value
COMP               .                                       : Company
WELL               .         EGBM-007                      : Well name
FLD                .         EGBEMA                        : Field
LOC                .                                       : Location
SRVC               .                                       : Service Company
CTRY               .                                       : Country
DATE               .         1967/02/19                    : Service Date
X                  .                                       : X or East-West coordinate
Y                  .                                       : Y or North South coordinate
GDAT               .                                       : Geodetic Datum
HZCS               .                                       : Horizontal Co-ordinate System
APIN               .         10805/01                      : 
BHT                .degF     162                           : 
BLI                .ft       8250                          : 
BS                 .in       9.625                         : 
CREATION-TIME      .         2067/2/19 0_0                 : 
CSIZ               .in       10.75                         : 
DFD                .g/cm3    1.18                          : 
DFT                .         BENT. SPERSENE                : 
DFV                .s        0                             : 
ELZ                .         -999.25                       : 
FIELD-NAME         .         EGBEMA                        : 
FILE-ID            .         SOH18 .4                      : 
FILE-NUMBER        .         0                             : 
FILE-SET-NAME      .                                       : 
FILE-SET-NUMBER    .         0                             : 
FILE-TYPE          .         PTF                           : 
HIDE               .         4540_300_185_7_1_DATE_67/02/19_SOH_18_SEQ_4: 
LCC                .         0                             : 
LMF                .         1                             : 
MST                .degF     96                            : 
NAME-SPACE-NAME    .         LIS                           : 
NAME-SPACE-VERSION .         0                             : 
PRODUC             .         SHELL(PARASOL)                : 
PRODUCER-CODE      .         0                             : 
PRODUCER-NAME      .         Schlumberger                  : 
PRODUCT            .                                       : 
PROGRAMS           .         INC                           : 
R1                 .         SHELL LAB. MEASUREMENTS       : 
R2                 .         MUD 1.14 OHMS AT 77 DEGF      : 
R3                 .         FILTRATE 1.09 OHMS AT 77 DEGF : 
R4                 .         FROM 7700 TO CASING SHOE REPEATED FREE OF CHARGE.: 
R5                 .         RAN "NO CURRENT SP" GOING DOWN (STILL NOISE ON SP WITH  IN: 
R6                 .         HOLE AND TRUCK AND RIG GENERATORS OFF.): 
RMCS               .ohm.m    -999.25                       : 
RMFS               .ohm.m    -999.25                       : 
RMS                .ohm.m    0.9100001                     : 
TCS                .h        -999.25                       : 
TDD                .ft       8500                          : 
TDL                .ft       8499                          : 
TLI                .ft       7600                          : 
VERSION            .         2P01                          : 
WELL-ID            .         10805/01                      : 
WELL-NAME          .         EGBM-007                      : 
WN                 .         EGBM-007                      : 
~Parameter Information Block
#_______________________________________________________________________________
#
#PARAMETER_NAME    .UNIT     VALUE                         : DESCRIPTION
#_______________________________________________________________________________
SET                .         SOH15 _1_1                    : 
ACQUISITION-PRODUCT .         DLIS/U                        : 
CREATION-TIME      .         2026/5/13 11_54               : 
DLIS_FRAME_DIRECTION .         INCREASING                    : 
DLIS_FRAME_NAME    .         1                             : 
DLIS_FRAME_SPACING .ft       0.5                           : 
FIELD-NAME         .         EGBEMA                        : 
FILE-ID            .         SOH15 .1                      : 
FILE-NUMBER        .         1                             : 
FILE-SET-NAME      .         LIS-TO-DLIS-CONVERSION        : 
FILE-SET-NUMBER    .         946                           : 
FILE-TYPE          .         PTF                           : 
INDEX-TYPE         .         BOREHOLE-DEPTH                : 
NAME-SPACE-NAME    .                                       : 
NAME-SPACE-VERSION .         0                             : 
OriginalDatasetName .         1                             : 
PRODUCER-CODE      .         440                           : 
PRODUCER-NAME      .         Schlumberger                  : 
PRODUCT            .         DLIS/U                        : 
PROGRAMS           .         LIS-TO-DLIS                   : 
TLFamily_DEPT      .         Measured Depth                : 
TLFamily_LN        .                                       : 
TLFamily_SN        .         Resistivity - Shallow         : 
TLFamily_SP        .         Spontaneous Potential         : 
VERSION            .         0.1                           : 
WELL-ID            .         10805/01                      : 
WELL-NAME          .         EGBM-007                      : 
~Curve Information
#_______________________________________________________________________________
#
#LOGNAME           .UNIT     LOG_ID                        : DESCRIPTION
#_______________________________________________________________________________
DEPT               .ft                                     :  {F}
LN                 .ohm.m                                  :  {F}
SN                 .ohm.m                                  :  {F}
SP                 .mV                                     :  {F}
~Ascii
# ...
3728       4.35973    3.995409   76.34373  
3728.5     4.402354   3.94375    74.74689  
3729       4.479383   3.869718   72.28761  
3729.5     4.573326   3.731926   73.06068  
3730       4.66904    3.584253   75.40259  
3730.5     4.76852    3.423546   78.7892   
3731       4.873585   3.306936   80.74069  
3731.5     5.028846   3.244094   77.28558  
3732       5.169284   3.262243   77.60666  
3732.5     5.269947   3.334558   78.18932  
3733       5.384768   3.538912   80.26775  
3733.5     5.524798   3.913935   81.04935  
3734       5.715577   4.431898   79.21718  
3734.5     6.171063   5.212622   74.96584  
3735       6.810296   6.542842   76.3407   
3735.5     7.808762   7.863595   74.49226  
3736       9.007282   8.923447   73.87544  
3736.5     10.25195   9.300533   73.84535  
3737       11.72978   9.729862   74.87949  
3737.5     12.92789   10.36848   72.93318  
3738       13.95461   10.80987   71.52213  
3738.5     14.91024   11.1514    73.88181  
3739       15.38122   11.61632   72.59637  
3739.5     15.49102   12.44152   69.68935  
3740       15.5205    13.3459    74.66954  
3740.5     15.5205    14.38393   76.65024  
3741       15.47745   15.13393   80.49898  
3741.5     15.41183   15.3232    82.93581  
3742       15.22395   15.00175   81.09682  
3742.5     14.82491   14.35633   79.91725  
3743       14.17361   13.70454   82.98712  
3743.5     13.33644   13.10913   81.76788  
3744       12.88797   12.53509   78.46704  
3744.5     12.53117   11.94525   76.34459  
3745       12.36276   11.40467   73.78549  
3745.5     12.22475   10.92245   72.38174  
3746       12.076     10.45518   70.36784  
3746.5     11.88272   10.02634   70.7635   
3747       11.61974   9.633492   70.51402  
3747.5     11.52067   9.151119   68.95891  
3748       11.45357   8.750286   70.33186  
3748.5     11.3829    8.425356   70.57095  
3749       11.30858   8.173473   71.50996  
3749.5     11.14393   7.972527   74.3596   
3750       10.92276   7.837249   75.1665   
3750.5     10.65656   7.838719   75.40984  
3751       10.2809    8.00934    75.6172   
3751.5     9.869513   8.333426   75.08017  
3752       9.406605   8.877668   75.44038  
3752.5     8.65848    9.402189   76.38779  
3753       7.712125   10.18538   74.24388  
3753.5     7.147575   10.58376   71.07036  
3754       6.857647   10.52489   71.15239  
3754.5     6.64825    10.0853    70.88509  
3755       6.467102   9.12764    70.25822  
3755.5     6.285909   7.985358   73.98172  
3756       6.053527   6.499404   73.64796  
3756.5     5.804121   6.007127   74.56555  
3757       5.652295   5.719316   75.89198  
3757.5     5.674254   5.320938   75.91151  
3758       5.694714   4.851613   76.85434  
3758.5     5.679402   4.364977   77.79622  
3759       5.558607   3.82923    77.21251  
3759.5     5.410267   3.398317   79.54877  
3760       5.249236   3.147064   80.56763  
3760.5     5.044359   2.956182   78.43483  
3761       4.825608   2.822246   77.92577  
3761.5     4.621219   2.734217   79.79791  
3762       4.418242   2.746614   81.96819  
3762.5     4.216915   2.802253   83.49741  
3763       3.958064   2.889407   81.58328  
3763.5     3.719481   3.077419   78.88359  
3764       3.505692   3.424211   79.83986  
3764.5     3.3415     3.905107   80.46275  
3765       3.31954    4.404295   83.04907  
3765.5     3.300736   4.759143   77.6431   
3766       3.283485   4.823784   75.1291   
3766.5     3.217208   4.569182   73.71793  
3767       3.141717   4.061419   73.66441  
3767.5     3.086678   3.447721   75.74911  
3768       3.038369   3.252936   77.16707  
3768.5     3.028391   3.282056   74.98772  
3769       3.037328   3.372375   74.23016  
3769.5     3.130232   3.417587   77.27527  
3770       3.272726   3.462801   79.19003  
3770.5     3.492328   3.464567   82.1619   
3771       3.733934   3.464567   83.19691  
3771.5     4.006968   3.450573   81.85638  
3772       4.248564   3.434499   79.612    
3772.5     4.49016    3.301247   79.43213  
3773       4.57894    3.214929   80.6774   
3773.5     4.630273   3.269011   82.65378  
3774       4.598066   3.57354    83.15775  
3774.5     4.598948   3.948719   80.26149  
3775       4.695566   4.396591   80.79605  
3775.5     4.828174   4.851636   83.17426  
3776       5.045619   5.195231   83.17679  
3776.5     5.313629   5.487079   80.29941  
3777       5.433256   5.728173   76.4545   
3777.5     5.519535   5.921816   76.80397  
3778       5.552349   6.033515   79.24477  
3778.5     5.584149   5.985288   79.51945  
3779       5.60273    5.291912   77.87192  
3779.5     5.559617   4.836853   77.91043  
3780       5.392389   4.535433   79.70302  
3780.5     5.213376   4.284719   82.51622  
3781       5.027567   4.067682   81.97487  
3781.5     4.925264   3.846641   81.09961  
3782       4.828621   3.631255   79.84883  
3782.5     4.790153   3.285024   81.93362  
3783       4.763407   3.060769   80.98419  
3783.5     4.763407   3.236037   82.19653  
3784       4.85605    3.51343    82.76135  
3784.5     5.008577   4.026216   82.03418  
3785       5.257524   4.816504   80.32143  
3785.5     5.642406   5.18119    79.57962  
3786       6.13652    5.229362   80.94669  
3786.5     6.566337   5.141692   81.50444  
3787       6.798546   5.119221   81.23592  
3787.5     6.876971   5.103147   79.35745  
3788       6.876971   5.140581   80.6855   
3788.5     6.809896   5.180762   82.09891  
3789       6.769096   5.157424   82.84848  
3789.5     6.75297    5.080979   82.38202  
3790       6.777126   4.949472   81.98746  
3790.5     6.801283   4.93838    81.11629  
3791       6.831662   4.972829   79.34402  
3791.5     6.868824   5.041242   78.31485  
3792       7.002708   5.248804   75.48103  
3792.5     7.183273   5.583104   75.6338   
3793       7.431269   5.765954   78.41771  
3793.5     7.775288   5.892856   79.5687   
3794       7.896046   5.956149   77.07047  
3794.5     8.004473   5.855707   74.13249  
3795       8.110161   5.72377    78.32829  
3795.5     8.332546   5.698919   76.37325  
3796       8.631826   5.891844   73.76669  
3796.5     8.791807   6.182716   73.22964  
3797       8.773228   6.591243   71.7056   
3797.5     8.720732   7.126888   71.37244  
3798       8.566978   7.907337   76.27579  
3798.5     7.994368   8.77557    75.17789  
3799       7.454397   9.643837   76.24065  
3799.5     7.548129   10.12603   76.82843  
3800       7.817019   9.54336    75        
3800.5     7.988867   8.587849   75.19882  
3801       8.055607   7.688571   72.75429  
3801.5     8.10393    6.681267   72.59979  
3802       8.360256   5.923378   72.95087  
3802.5     8.739143   5.924744   73.03169  
3803       9.526093   6.021162   72.12646  
3803.5     10.2961    5.996998   76.1989   
3804       10.99172   5.96639    78.68153  
3804.5     11.32315   5.965775   76.39664  
3805       11.42526   6.000222   74.73155  
3805.5     11.43947   6.048855   76.40205  
3806       11.4511    6.109125   77.39012  
3806.5     11.4511    6.212152   78.91194  
3807       11.4511    6.367986   79.52954  
3807.5     11.4511    6.631088   77.82973  
3808       11.95784   6.90697    77.66571  
3808.5     12.89319   7.216688   78.45528  
3809       14.20282   7.685947   78.26157  
3809.5     15.63722   8.352955   76.44952  
3810       17.51442   9.169075   77.54982  
3810.5     20.6776    10.89297   80.83293  
3811       25.53072   14.03895   79.72583  
3811.5     31.01897   17.18492   79.36609  
3812       36.39041   19.87186   78.9276   
3812.5     42.4211    21.72649   82.12958  
3813       45.59367   22.48409   82.87375  
3813.5     46.31474   22.66956   84.47462  
3814       44.55736   22.54115   86.02733  
3814.5     43.0251    22.39932   85.95662  
3815       41.645     22.46107   87.45341  
3815.5     41.32492   22.59502   89.89319  
3816       41.32492   22.55554   89.5808   
3816.5     41.09785   22.24104   87.30864  
3817       40.85629   21.92654   86.61127  
3817.5     40.52715   21.73228   84.05612  
3818       40.01865   21.73228   83.41962  
3818.5     39.51013   21.73228   85.19199  
