~Version
 VERS              .         3.0                           : CWLS LOG ASCII STANDARD - VERSION 3.0
 WRAP              .         NO                            : ONE LINE PER DEPTH STEP
 DLM               .         SPACE                         : DELIMITING CHARACTER(SPACE TAB OR COMMA)
~Well Information
#_______________________________________________________________________________
#
#PARAMETER_NAME    .UNIT     VALUE                         : DESCRIPTION
#_______________________________________________________________________________
STRT               .ft       3000                          : First reference value
STOP               .ft       8496                          : Last reference value
STEP               .ft       0.5                           : Step increment
NULL               .         -9999                         : Missing value
COMP               .                                       : Company
WELL               .         EGBM-007                      : Well name
FLD                .         EGBEMA                        : Field
LOC                .                                       : Location
SRVC               .                                       : Service Company
CTRY               .                                       : Country
DATE               .         1967/02/19                    : Service Date
X                  .                                       : X or East-West coordinate
Y                  .                                       : Y or North South coordinate
GDAT               .                                       : Geodetic Datum
HZCS               .                                       : Horizontal Co-ordinate System
APIN               .         10805/01                      : 
BHT                .degF     162                           : 
BLI                .ft       8250                          : 
BS                 .in       9.625                         : 
CREATION-TIME      .         2067/2/19 0_0                 : 
CSIZ               .in       10.75                         : 
DFD                .g/cm3    1.18                          : 
DFT                .         BENT. SPERSENE                : 
DFV                .s        0                             : 
ELZ                .         -999.25                       : 
FIELD-NAME         .         EGBEMA                        : 
FILE-ID            .         SOH18 .4                      : 
FILE-NUMBER        .         0                             : 
FILE-SET-NAME      .                                       : 
FILE-SET-NUMBER    .         0                             : 
FILE-TYPE          .         PTF                           : 
HIDE               .         4540_300_185_7_1_DATE_67/02/19_SOH_18_SEQ_4: 
LCC                .         0                             : 
LMF                .         1                             : 
MST                .degF     96                            : 
NAME-SPACE-NAME    .         LIS                           : 
NAME-SPACE-VERSION .         0                             : 
PRODUC             .         SHELL(PARASOL)                : 
PRODUCER-CODE      .         0                             : 
PRODUCER-NAME      .         Schlumberger                  : 
PRODUCT            .                                       : 
PROGRAMS           .         INC                           : 
R1                 .         SHELL LAB. MEASUREMENTS       : 
R2                 .         MUD 1.14 OHMS AT 77 DEGF      : 
R3                 .         FILTRATE 1.09 OHMS AT 77 DEGF : 
R4                 .         FROM 7700 TO CASING SHOE REPEATED FREE OF CHARGE.: 
R5                 .         RAN "NO CURRENT SP" GOING DOWN (STILL NOISE ON SP WITH  IN: 
R6                 .         HOLE AND TRUCK AND RIG GENERATORS OFF.): 
RMCS               .ohm.m    -999.25                       : 
RMFS               .ohm.m    -999.25                       : 
RMS                .ohm.m    0.9100001                     : 
TCS                .h        -999.25                       : 
TDD                .ft       8500                          : 
TDL                .ft       8499                          : 
TLI                .ft       7600                          : 
VERSION            .         2P01                          : 
WELL-ID            .         10805/01                      : 
WELL-NAME          .         EGBM-007                      : 
WN                 .         EGBM-007                      : 
~Parameter Information Block
#_______________________________________________________________________________
#
#PARAMETER_NAME    .UNIT     VALUE                         : DESCRIPTION
#_______________________________________________________________________________
SET                .         SOH15 _1_1                    : 
ACQUISITION-PRODUCT .         DLIS/U                        : 
CREATION-TIME      .         2026/5/13 11_54               : 
DLIS_FRAME_DIRECTION .         INCREASING                    : 
DLIS_FRAME_NAME    .         1                             : 
DLIS_FRAME_SPACING .ft       0.5                           : 
FIELD-NAME         .         EGBEMA                        : 
FILE-ID            .         SOH15 .1                      : 
FILE-NUMBER        .         1                             : 
FILE-SET-NAME      .         LIS-TO-DLIS-CONVERSION        : 
FILE-SET-NUMBER    .         946                           : 
FILE-TYPE          .         PTF                           : 
INDEX-TYPE         .         BOREHOLE-DEPTH                : 
NAME-SPACE-NAME    .                                       : 
NAME-SPACE-VERSION .         0                             : 
OriginalDatasetName .         1                             : 
PRODUCER-CODE      .         440                           : 
PRODUCER-NAME      .         Schlumberger                  : 
PRODUCT            .         DLIS/U                        : 
PROGRAMS           .         LIS-TO-DLIS                   : 
TLFamily_DEPT      .         Measured Depth                : 
TLFamily_LN        .                                       : 
TLFamily_SN        .         Resistivity - Shallow         : 
TLFamily_SP        .         Spontaneous Potential         : 
VERSION            .         0.1                           : 
WELL-ID            .         10805/01                      : 
WELL-NAME          .         EGBM-007                      : 
~Curve Information
#_______________________________________________________________________________
#
#LOGNAME           .UNIT     LOG_ID                        : DESCRIPTION
#_______________________________________________________________________________
DEPT               .ft                                     :  {F}
LN                 .ohm.m                                  :  {F}
SN                 .ohm.m                                  :  {F}
SP                 .mV                                     :  {F}
~Ascii
# ...
7277       3.619362   4.156093   82.00861  
7277.5     3.610085   4.074963   82.61107  
7278       3.600807   4.0193     82.83464  
7278.5     3.596214   4.052538   82.83464  
7279       3.596214   4.124723   82.77937  
7279.5     3.596214   4.229722   82.57867  
7280       3.598615   4.246959   81.91211  
7280.5     3.62159    4.23937    81.84389  
7281       3.644565   4.144273   82.86792  
7281.5     3.659306   3.964      83.53383  
7282       3.659306   3.852675   83.75967  
7282.5     3.659171   3.755592   83.91711  
7283       3.624696   3.680189   83.82448  
7283.5     3.586684   3.606763   83.68413  
7284       3.531859   3.53785    83.49878  
7284.5     3.477034   3.495232   83.85739  
7285       3.438485   3.481833   84.09448  
7285.5     3.438485   3.471181   84.09448  
7286       3.438485   3.480829   83.96893  
7286.5     3.438485   3.490478   83.78368  
7287       3.438485   3.500126   83.97575  
7287.5     3.438485   3.540015   84.1765   
7288       3.382135   3.585258   84.20184  
7288.5     3.321841   3.67147    84.12154  
7289       3.301019   3.770776   84.04123  
7289.5     3.287616   3.862523   83.96092  
7290       3.280757   3.94768    83.83755  
7290.5     3.280757   4.016327   83.69591  
7291       3.285367   4.048485   83.54518  
7291.5     3.31983    4.004534   83.38457  
7292       3.354292   3.818992   83.35162  
7292.5     3.428014   3.597294   83.43767  
7293       3.563741   3.362516   83.6107   
7293.5     3.697085   3.201706   83.82326  
7294       3.824765   3.123028   83.86238  
7294.5     3.952513   3.14046    83.70184  
7295       4.081145   3.381676   83.62204  
7295.5     4.211853   3.67344    83.62204  
7296       4.359294   4.015162   83.60635  
7296.5     4.506734   4.420738   82.80341  
7297       4.58408    4.838457   81.3577   
7297.5     4.638905   5.07175    79.82414  
7298       4.693729   5.14665    78.68018  
7298.5     4.725783   5.163878   77.97722  
7299       4.754728   5.291733   78.45895  
7299.5     4.783673   5.546782   78.66403  
7300       4.828415   5.766082   78.18964  
7300.5     4.88324    5.829306   76.65556  
7301       4.938065   5.685597   76.29813  
7301.5     4.994805   5.492649   77.40265  
7302       5.052243   5.378537   78.95984  
7302.5     5.10968    5.392712   80.40546  
7303       5.151829   5.51332    80.88443  
7303.5     5.193781   5.541128   80.64978  
7304       5.235732   5.514201   79.44536  
7304.5     5.236592   5.438798   78.29475  
7305       5.236592   5.4273     79.49901  
7305.5     5.231253   5.507706   80.62521  
7306       5.208278   5.6127     81.22212  
7306.5     5.185303   5.731137   81.1295   
7307       5.131609   5.862628   80.62927  
7307.5     5.045467   5.778128   79.88918  
7308       4.870882   5.639154   79.51207  
7308.5     4.650797   5.379508   80.54228  
7309       4.441665   5.226289   81.73273  
7309.5     4.235621   5.165994   82.33253  
7310       4.051196   5.102033   82.51968  
7310.5     3.86677    4.994803   82.51968  
7311       3.688346   4.739549   82.49045  
7311.5     3.510579   4.228946   82.40445  
7312       3.345044   3.810168   82.58508  
7312.5     3.19661    3.58467    83.02313  
7313       3.068122   3.536421   83.4612   
7313.5     2.958186   3.439487   83.77446  
7314       2.909949   3.311831   84.01534  
7314.5     2.865395   3.136392   84.25726  
7315       2.837009   2.875375   84.5584   
7315.5     2.808624   2.692888   84.85954  
7316       2.780251   2.586751   84.88188  
7316.5     2.751877   2.586751   84.88188  
7317       2.744479   2.605338   84.83955  
7317.5     2.744479   2.658953   84.77933  
7318       2.760518   2.712567   84.71196  
7318.5     2.823445   2.781375   84.57025  
7319       2.886374   2.864002   84.42854  
7319.5     2.945103   3.017511   84.53972  
7320       2.991035   3.312119   84.69029  
7320.5     3.036969   3.714864   84.84087  
7321       3.078983   4.013319   84.88188  
7321.5     3.117076   4.118589   84.88188  
7322       3.154036   4.054464   84.88188  
7322.5     3.119573   3.868826   84.88188  
7323       3.08511    3.551711   84.88188  
7323.5     3.046931   3.310465   84.88188  
7324       2.998683   3.223503   84.88188  
7324.5     2.950434   3.189047   84.88188  
7325       2.902196   3.101231   84.88188  
7325.5     2.853965   2.986927   84.88188  
7326       2.805636   2.79393    84.88188  
7326.5     2.754846   2.801777   84.88188  
7327       2.704055   2.830163   84.8855   
7327.5     2.681388   2.90988    84.96581  
7328       2.681388   3.013249   85.00325  
7328.5     2.691506   3.064716   84.57323  
7329       2.742296   3.107276   84.30573  
7329.5     2.793087   3.173693   84.51828  
7330       2.90242    3.254128   84.71832  
7330.5     3.035105   3.251417   84.51759  
7331       3.160579   3.205319   84.31685  
7331.5     3.220868   3.152756   84.36067  
7332       3.281157   3.118281   84.52129  
7332.5     3.34562    3.099745   84.40526  
7333       3.414545   3.136853   84.1794   
7333.5     3.483471   3.207085   84.04082  
7334       3.572743   3.307591   83.95482  
7334.5     3.669266   3.500421   83.6503   
7335       3.790717   3.823666   83.00899  
7335.5     3.91935    4.324713   81.61641  
7336       4.156048   4.828081   79.0719   
7336.5     4.407066   4.978313   76.69423  
7337       4.626366   4.954189   76.29343  
7337.5     4.859858   5.065765   77.87796  
7338       4.944294   5.32974    78.4252   
7338.5     5.028729   5.670516   77.38229  
7339       5.116552   5.885325   75.24809  
7339.5     5.209323   5.929186   73.5433   
7340       5.279164   5.974363   73.65143  
7340.5     5.339458   6.019585   74.54684  
7341       5.394489   6.073941   75.78706  
7341.5     5.446201   6.116629   75.2235   
7342       5.441669   6.098063   73.67456  
7342.5     5.394122   6.078768   72.29309  
7343       5.245688   6.058667   71.04221  
7343.5     5.060853   6.159636   69.95831  
7344       4.843531   6.273128   69.10704  
7344.5     4.650535   6.29085    68.81889  
7345       4.55631    6.1709     68.81889  
7345.5     4.491994   5.862972   69.87746  
7346       4.401769   5.415831   71.22906  
7346.5     4.305295   4.912189   73.36798  
7347       4.160697   4.293372   77.49677  
7347.5     4.031802   3.899079   81.11511  
7348       3.939032   3.765724   82.27269  
7348.5     3.861636   3.894881   82.81322  
7349       3.790672   4.179972   82.67938  
7349.5     3.741015   4.419582   81.84813  
7350       3.714219   4.556593   81.24925  
7350.5     3.683134   4.535164   81.21092  
7351       3.622811   4.324329   81.94942  
7351.5     3.562834   4.050874   82.93471  
7352       3.512063   3.77583    83.05734  
7352.5     3.461292   3.695425   83.10284  
7353       3.431492   3.60821    84.23479  
7353.5     3.418794   3.515438   84.66023  
7354       3.407702   3.259084   84.57423  
7354.5     3.419189   2.967185   84.0657   
7355       3.430677   2.731843   83.77953  
7355.5     3.471596   2.709273   83.77953  
7356       3.574965   2.894815   83.59224  
7356.5     3.720479   3.142088   83.35132  
7357       3.909989   3.533029   82.32355  
7357.5     4.212946   4.325067   78.97334  
7358       4.570127   4.929061   75.43576  
7358.5     4.913916   5.460171   72.02397  
7359       5.235337   5.76897    70.15723  
7359.5     5.524957   5.873616   69.60219  
7360       5.698177   5.948985   69.22575  
7360.5     5.809642   6.024354   67.91951  
7361       5.853501   6.09147    66.70387  
7361.5     5.89791    6.158488   65.66002  
7362       5.942576   6.233997   65.00121  
7362.5     5.987243   6.314393   64.55441  
7363       6.025236   6.405607   64.00703  
7363.5     6.025236   6.502081   63.26869  
7364       6.025236   6.575716   62.48619  
7364.5     6.025236   6.640064   62.02272  
7365       6.067796   6.641075   62.47453  
7365.5     6.124542   6.615268   62.80319  
7366       6.191109   6.563583   62.68947  
7366.5     6.266512   6.484561   62.52893  
7367       6.309148   6.354682   62.23589  
7367.5     6.309148   6.2569     61.12485  
