~Version
 VERS              .         3.0                           : CWLS LOG ASCII STANDARD - VERSION 3.0
 WRAP              .         NO                            : ONE LINE PER DEPTH STEP
 DLM               .         SPACE                         : DELIMITING CHARACTER(SPACE TAB OR COMMA)
~Well Information
#_______________________________________________________________________________
#
#PARAMETER_NAME    .UNIT     VALUE                         : DESCRIPTION
#_______________________________________________________________________________
STRT               .ft       3000                          : First reference value
STOP               .ft       8496                          : Last reference value
STEP               .ft       0.5                           : Step increment
NULL               .         -9999                         : Missing value
COMP               .                                       : Company
WELL               .         EGBM-007                      : Well name
FLD                .         EGBEMA                        : Field
LOC                .                                       : Location
SRVC               .                                       : Service Company
CTRY               .                                       : Country
DATE               .         1967/02/19                    : Service Date
X                  .                                       : X or East-West coordinate
Y                  .                                       : Y or North South coordinate
GDAT               .                                       : Geodetic Datum
HZCS               .                                       : Horizontal Co-ordinate System
APIN               .         10805/01                      : 
BHT                .degF     162                           : 
BLI                .ft       8250                          : 
BS                 .in       9.625                         : 
CREATION-TIME      .         2067/2/19 0_0                 : 
CSIZ               .in       10.75                         : 
DFD                .g/cm3    1.18                          : 
DFT                .         BENT. SPERSENE                : 
DFV                .s        0                             : 
ELZ                .         -999.25                       : 
FIELD-NAME         .         EGBEMA                        : 
FILE-ID            .         SOH18 .4                      : 
FILE-NUMBER        .         0                             : 
FILE-SET-NAME      .                                       : 
FILE-SET-NUMBER    .         0                             : 
FILE-TYPE          .         PTF                           : 
HIDE               .         4540_300_185_7_1_DATE_67/02/19_SOH_18_SEQ_4: 
LCC                .         0                             : 
LMF                .         1                             : 
MST                .degF     96                            : 
NAME-SPACE-NAME    .         LIS                           : 
NAME-SPACE-VERSION .         0                             : 
PRODUC             .         SHELL(PARASOL)                : 
PRODUCER-CODE      .         0                             : 
PRODUCER-NAME      .         Schlumberger                  : 
PRODUCT            .                                       : 
PROGRAMS           .         INC                           : 
R1                 .         SHELL LAB. MEASUREMENTS       : 
R2                 .         MUD 1.14 OHMS AT 77 DEGF      : 
R3                 .         FILTRATE 1.09 OHMS AT 77 DEGF : 
R4                 .         FROM 7700 TO CASING SHOE REPEATED FREE OF CHARGE.: 
R5                 .         RAN "NO CURRENT SP" GOING DOWN (STILL NOISE ON SP WITH  IN: 
R6                 .         HOLE AND TRUCK AND RIG GENERATORS OFF.): 
RMCS               .ohm.m    -999.25                       : 
RMFS               .ohm.m    -999.25                       : 
RMS                .ohm.m    0.9100001                     : 
TCS                .h        -999.25                       : 
TDD                .ft       8500                          : 
TDL                .ft       8499                          : 
TLI                .ft       7600                          : 
VERSION            .         2P01                          : 
WELL-ID            .         10805/01                      : 
WELL-NAME          .         EGBM-007                      : 
WN                 .         EGBM-007                      : 
~Parameter Information Block
#_______________________________________________________________________________
#
#PARAMETER_NAME    .UNIT     VALUE                         : DESCRIPTION
#_______________________________________________________________________________
SET                .         SOH15 _1_1                    : 
ACQUISITION-PRODUCT .         DLIS/U                        : 
CREATION-TIME      .         2026/5/13 11_54               : 
DLIS_FRAME_DIRECTION .         INCREASING                    : 
DLIS_FRAME_NAME    .         1                             : 
DLIS_FRAME_SPACING .ft       0.5                           : 
FIELD-NAME         .         EGBEMA                        : 
FILE-ID            .         SOH15 .1                      : 
FILE-NUMBER        .         1                             : 
FILE-SET-NAME      .         LIS-TO-DLIS-CONVERSION        : 
FILE-SET-NUMBER    .         946                           : 
FILE-TYPE          .         PTF                           : 
INDEX-TYPE         .         BOREHOLE-DEPTH                : 
NAME-SPACE-NAME    .                                       : 
NAME-SPACE-VERSION .         0                             : 
OriginalDatasetName .         1                             : 
PRODUCER-CODE      .         440                           : 
PRODUCER-NAME      .         Schlumberger                  : 
PRODUCT            .         DLIS/U                        : 
PROGRAMS           .         LIS-TO-DLIS                   : 
TLFamily_DEPT      .         Measured Depth                : 
TLFamily_LN        .                                       : 
TLFamily_SN        .         Resistivity - Shallow         : 
TLFamily_SP        .         Spontaneous Potential         : 
VERSION            .         0.1                           : 
WELL-ID            .         10805/01                      : 
WELL-NAME          .         EGBM-007                      : 
~Curve Information
#_______________________________________________________________________________
#
#LOGNAME           .UNIT     LOG_ID                        : DESCRIPTION
#_______________________________________________________________________________
DEPT               .ft                                     :  {F}
LN                 .ohm.m                                  :  {F}
SN                 .ohm.m                                  :  {F}
SP                 .mV                                     :  {F}
~Ascii
3000.0     0.08562493 0.2565256  73.60236  
3000.5     0.09137481 1.363161   73.91006  
3001       0.2501842  2.890538   74.93806  
3001.5     1.439655   3.838278   77.03131  
3002       3.676828   4.193168   77.91945  
3002.5     4.846155   4.361963   77.45773  
3003       5.953418   4.523452   76.3858   
3003.5     6.822719   4.725245   74.58183  
3004       7.449732   4.891212   72.34454  
3004.5     8.168013   4.988887   70.11963  
3005       8.542313   5.096081   68.6286   
3005.5     8.887983   5.253669   67.77687  
3006       9.387291   5.591206   67.20204  
3006.5     9.823433   6.221973   66.84019  
3007       10.38841   6.846548   66.23851  
3007.5     10.8668    7.251712   65.52608  
3008       11.38535   7.892732   64.88188  
3008.5     11.65565   8.460629   64.86804  
3009       11.96005   8.883564   64.26498  
3009.5     12.35416   9.271708   63.12157  
3010       12.64454   9.638432   61.08273  
3010.5     13.11072   9.60421    60.31496  
3011       13.88876   9.385431   60.31496  
3011.5     14.70442   9.100361   60.51665  
3012       14.85878   8.905651   60.84334  
3012.5     14.67429   8.969118   61.39146  
3013       14.58449   9.457623   62.37743  
3013.5     14.77907   10.58597   63.73419  
3014       15.35281   12.18827   65.98866  
3014.5     16.43491   14.00256   68.73819  
3015       18.90851   14.49266   69.56154  
3015.5     23.40826   13.64714   68.75877  
3016       24.60567   12.58958   67.00946  
3016.5     24.60567   12.38972   63.909    
3017       24.7641    12.50101   63.49002  
3017.5     25.0482    12.90397   64.32329  
3018       25.38451   14.07733   65.36041  
3018.5     25.82355   15.15102   66.90558  
3019       25.36601   15.73869   68.81517  
3019.5     24.63702   15.60489   69.36595  
3020       23.22818   15.61437   69.80948  
3020.5     22.47728   16.54855   70.10959  
3021       22.10577   16.71368   70.23015  
3021.5     21.75914   16.28174   69.77803  
3022       21.37164   15.37741   68.57117  
3022.5     20.62862   14.24625   66.86928  
3023       20.03743   13.21508   64.29376  
3023.5     19.66592   12.15296   60.67586  
3024       19.55835   11.28177   58.96681  
3024.5     19.55835   10.6389    58.37302  
3025       19.65826   10.08429   58.06215  
3025.5     19.81926   9.516905   58.26993  
3026       19.98024   8.964302   58.58267  
3026.5     20.14124   8.437664   58.58267  
3027       20.41519   8.001648   58.58267  
3027.5     20.73717   8.096889   58.58267  
3028       21.3802    8.849499   58.57407  
3028.5     22.13477   9.587217   58.49367  
3029       23.50865   10.53087   58.40282  
3029.5     25.21329   11.61908   58.25211  
3030       26.9637    12.55063   58.11023  
3030.5     28.77451   13.69358   58.11023  
3031       31.10704   15.58619   58.41289  
3031.5     33.64429   16.69461   59.35666  
3032       36.27451   17.50433   60.53485  
3032.5     38.87509   18.22746   61.47884  
3033       41.22762   18.94063   62.44337  
3033.5     43.24026   19.86365   63.63577  
3034       45.59642   20.84541   65.37625  
3034.5     47.51924   21.34543   66.18022  
3035       48.93988   21.17323   66.79825  
3035.5     49.8741    20.98413   66.89873  
3036       50.35707   20.79584   66.99922  
3036.5     50.89575   21.1976    67.13902  
3037       51.90207   21.72951   67.541    
3037.5     53.26712   22.41846   68.85451  
3038       54.93892   22.67715   70.34872  
3038.5     56.0509    22.67715   71.50023  
3039       56.90216   22.57027   72.43646  
3039.5     57.34122   22.40953   73.18628  
3040       57.21135   22.58902   74.12422  
3040.5     57.0125    22.91049   75.08772  
3041       56.8515    23.19197   75.97498  
3041.5     56.95447   23.45985   76.60909  
3042       57.25629   23.68149   76.82834  
3042.5     57.72234   23.83217   76.78261  
3043       58.36629   23.77982   76.70723  
3043.5     58.98935   23.26309   76.80783  
3044       59.59314   22.91568   76.94969  
3044.5     59.89223   22.75494   77.13719  
3045       60.17633   22.89676   77.38448  
3045.5     60.35637   23.32225   77.78648  
3046       60.4984    23.62204   78.00716  
3046.5     60.32088   23.62204   78.0999   
3047       59.78452   23.5726    78.19955  
3047.5     59.0415    23.33151   78.35393  
3048       58.36913   23.09042   78.62186  
3048.5     57.76547   22.92412   78.88979  
3049       57.28751   22.8093    78.68474  
3049.5     56.98561   22.69449   78.52896  
3050       56.58516   22.49104   78.42848  
3050.5     55.98155   22.27187   78.50296  
3051       55.0031    22.05269   78.57851  
3051.5     53.60118   21.90894   78.07597  
3052       51.55788   21.76711   77.69849  
3052.5     49.14551   21.36845   77.47948  
3053       46.58629   20.88626   77.30719  
3053.5     44.35722   20.33224   77.06697  
3054       41.84088   19.75969   76.51042  
3054.5     39.02406   19.25075   75.89037  
3055       36.304     18.60388   75.20122  
3055.5     33.96992   17.78642   74.41725  
3056       31.63585   17.08971   73.58243  
3056.5     29.30177   16.47087   72.62396  
3057       27.05237   15.68001   71.80336  
3057.5     24.77737   14.66777   71.06129  
3058       22.1207    13.70338   70.29521  
3058.5     18.93318   12.60078   69.09654  
3059       17.10225   11.14815   67.34212  
3059.5     15.71693   9.914902   65.29417  
3060       14.751     8.926991   63.46437  
3060.5     13.70409   8.140907   62.12444  
3061       12.83669   7.065287   61.11745  
3061.5     12.25756   6.459342   60.38596  
3062       11.68709   5.877264   59.91972  
3062.5     11.27306   5.389075   59.52756  
3063       10.90757   4.938111   59.52756  
3063.5     10.62508   4.612231   59.79349  
3064       10.41995   4.48767    60.36409  
3064.5     10.26033   4.443834   60.8367   
3065       10.13957   4.403417   60.86049  
3065.5     10.09551   4.355876   60.42183  
3066       10.06177   4.295591   60.31496  
3066.5     10.03982   4.259386   60.30952  
3067       9.843451   4.32986    60.21677  
3067.5     9.483377   4.462083   59.99925  
3068       9.232824   4.6968     59.56075  
3068.5     9.143631   5.081868   58.90829  
3069       9.194494   5.473603   58.54663  
3069.5     9.370501   5.627532   58.28827  
3070       9.611965   5.61984    58.01151  
3070.5     9.764351   5.618045   57.81769  
3071       9.82288    5.687054   57.91817  
3071.5     9.841455   5.894186   57.62321  
3072       9.93848    6.319346   57.1069   
3072.5     10.08342   7.045137   56.44914  
3073       10.32662   7.8704     55.57684  
3073.5     10.68375   8.593933   54.56895  
3074       11.25735   9.178749   53.48384  
3074.5     11.94908   9.215778   52.94695  
3075       12.71449   8.889709   52.97437  
3075.5     13.32798   8.41551    53.50771  
3076       13.84735   7.904119   54.4231   
3076.5     14.22843   7.593348   55.17044  
3077       14.3795    7.430023   55.84041  
3077.5     14.35755   7.403236   55.98195  
3078       14.28244   7.456314   56.18294  
3078.5     14.234     7.628071   56.38391  
3079       14.25258   8.022886   56.5107   
3079.5     14.32629   8.618498   56.41019  
3080       14.43323   9.200665   56.08011  
3080.5     14.62601   9.938223   55.72713  
3081       14.88607   10.60595   55.64101  
3081.5     15.11785   10.96992   55.69756  
3082       15.29653   11.17198   55.95598  
3082.5     15.38887   11.32884   56.51262  
3083       15.36874   11.50754   57.34558  
3083.5     15.41506   11.49      58.61505  
3084       15.48986   11.14669   60.10077  
3084.5     15.65704   10.60439   60.14819  
3085       15.85378   9.825123   59.54521  
3085.5     16.1172    9.369932   59.04008  
3086       16.49274   9.240421   58.95969  
3086.5     17.28644   9.278063   58.89763  
3087       18.44937   9.416697   58.89763  
3087.5     21.702     10.01074   59.12544  
3088       24.17027   10.88326   59.47002  
3088.5     26.8233    12.12922   60.40636  
3089       29.64932   13.57845   61.5804   
3089.5     32.69691   15.86098   62.91971  
3090       36.69507   18.4091    64.86497  
3090.5     41.18411   20.5611    67.78366  
