~Version
 VERS              .         3.0                           : CWLS LOG ASCII STANDARD - VERSION 3.0
 WRAP              .         NO                            : ONE LINE PER DEPTH STEP
 DLM               .         SPACE                         : DELIMITING CHARACTER(SPACE TAB OR COMMA)
~Well Information
#_______________________________________________________________________________
#
#PARAMETER_NAME    .UNIT     VALUE                         : DESCRIPTION
#_______________________________________________________________________________
STRT               .ft       3000                          : First reference value
STOP               .ft       8496                          : Last reference value
STEP               .ft       0.5                           : Step increment
NULL               .         -9999                         : Missing value
COMP               .                                       : Company
WELL               .         EGBM-007                      : Well name
FLD                .         EGBEMA                        : Field
LOC                .                                       : Location
SRVC               .                                       : Service Company
CTRY               .                                       : Country
DATE               .         1967/02/19                    : Service Date
X                  .                                       : X or East-West coordinate
Y                  .                                       : Y or North South coordinate
GDAT               .                                       : Geodetic Datum
HZCS               .                                       : Horizontal Co-ordinate System
APIN               .         10805/01                      : 
BHT                .degF     162                           : 
BLI                .ft       8250                          : 
BS                 .in       9.625                         : 
CREATION-TIME      .         2067/2/19 0_0                 : 
CSIZ               .in       10.75                         : 
DFD                .g/cm3    1.18                          : 
DFT                .         BENT. SPERSENE                : 
DFV                .s        0                             : 
ELZ                .         -999.25                       : 
FIELD-NAME         .         EGBEMA                        : 
FILE-ID            .         SOH18 .4                      : 
FILE-NUMBER        .         0                             : 
FILE-SET-NAME      .                                       : 
FILE-SET-NUMBER    .         0                             : 
FILE-TYPE          .         PTF                           : 
HIDE               .         4540_300_185_7_1_DATE_67/02/19_SOH_18_SEQ_4: 
LCC                .         0                             : 
LMF                .         1                             : 
MST                .degF     96                            : 
NAME-SPACE-NAME    .         LIS                           : 
NAME-SPACE-VERSION .         0                             : 
PRODUC             .         SHELL(PARASOL)                : 
PRODUCER-CODE      .         0                             : 
PRODUCER-NAME      .         Schlumberger                  : 
PRODUCT            .                                       : 
PROGRAMS           .         INC                           : 
R1                 .         SHELL LAB. MEASUREMENTS       : 
R2                 .         MUD 1.14 OHMS AT 77 DEGF      : 
R3                 .         FILTRATE 1.09 OHMS AT 77 DEGF : 
R4                 .         FROM 7700 TO CASING SHOE REPEATED FREE OF CHARGE.: 
R5                 .         RAN "NO CURRENT SP" GOING DOWN (STILL NOISE ON SP WITH  IN: 
R6                 .         HOLE AND TRUCK AND RIG GENERATORS OFF.): 
RMCS               .ohm.m    -999.25                       : 
RMFS               .ohm.m    -999.25                       : 
RMS                .ohm.m    0.9100001                     : 
TCS                .h        -999.25                       : 
TDD                .ft       8500                          : 
TDL                .ft       8499                          : 
TLI                .ft       7600                          : 
VERSION            .         2P01                          : 
WELL-ID            .         10805/01                      : 
WELL-NAME          .         EGBM-007                      : 
WN                 .         EGBM-007                      : 
~Parameter Information Block
#_______________________________________________________________________________
#
#PARAMETER_NAME    .UNIT     VALUE                         : DESCRIPTION
#_______________________________________________________________________________
SET                .         SOH15 _1_1                    : 
ACQUISITION-PRODUCT .         DLIS/U                        : 
CREATION-TIME      .         2026/5/13 11_54               : 
DLIS_FRAME_DIRECTION .         INCREASING                    : 
DLIS_FRAME_NAME    .         1                             : 
DLIS_FRAME_SPACING .ft       0.5                           : 
FIELD-NAME         .         EGBEMA                        : 
FILE-ID            .         SOH15 .1                      : 
FILE-NUMBER        .         1                             : 
FILE-SET-NAME      .         LIS-TO-DLIS-CONVERSION        : 
FILE-SET-NUMBER    .         946                           : 
FILE-TYPE          .         PTF                           : 
INDEX-TYPE         .         BOREHOLE-DEPTH                : 
NAME-SPACE-NAME    .                                       : 
NAME-SPACE-VERSION .         0                             : 
OriginalDatasetName .         1                             : 
PRODUCER-CODE      .         440                           : 
PRODUCER-NAME      .         Schlumberger                  : 
PRODUCT            .         DLIS/U                        : 
PROGRAMS           .         LIS-TO-DLIS                   : 
TLFamily_DEPT      .         Measured Depth                : 
TLFamily_LN        .                                       : 
TLFamily_SN        .         Resistivity - Shallow         : 
TLFamily_SP        .         Spontaneous Potential         : 
VERSION            .         0.1                           : 
WELL-ID            .         10805/01                      : 
WELL-NAME          .         EGBM-007                      : 
~Curve Information
#_______________________________________________________________________________
#
#LOGNAME           .UNIT     LOG_ID                        : DESCRIPTION
#_______________________________________________________________________________
DEPT               .ft                                     :  {F}
LN                 .ohm.m                                  :  {F}
SN                 .ohm.m                                  :  {F}
SP                 .mV                                     :  {F}
~Ascii
# ...
4456       26.68262   16.39909   81.18373  
4456.5     26.58202   16.0285    79.38579  
4457       26.51472   15.74769   74.76773  
4457.5     26.61127   15.42098   73.2144   
4458       26.70781   15.04792   74.87073  
4458.5     26.80435   14.58265   74.71996  
4459       26.90453   14.0699    73.93584  
4459.5     27.0051    13.5467    72.99925  
4460       27.10567   13.4727    74.31593  
4460.5     27.12933   13.73418   74.7634   
4461       27.12933   14.1879    75.21608  
4461.5     27.19106   14.81788   79.99519  
4462       27.41049   15.38527   82.83046  
4462.5     27.62994   15.95649   82.17587  
4463       28.04045   16.6115    81.82372  
4463.5     28.73019   17.18192   88.00366  
4464       29.41994   17.72221   86.91322  
4464.5     29.86145   18.23083   80.62666  
4465       30.17628   18.6478    78.93054  
4465.5     30.49113   19.21654   78.8533   
4466       31.05183   19.4821    81.85324  
4466.5     31.74133   19.76857   86.22597  
4467       32.43083   20.00597   87.8405   
4467.5     33.13896   20.11829   85.96214  
4468       33.84892   20.09634   88.52863  
4468.5     33.99014   19.89447   91.31497  
4469       33.87518   19.68103   91.84741  
4469.5     33.76022   19.67223   90.90309  
4470       33.75394   19.836     89.89828  
4470.5     33.75394   20.05312   90.44194  
4471       33.6041    20.11424   91.11235  
4471.5     33.15146   19.93854   89.17429  
4472       32.58456   19.65617   90.08736  
4472.5     31.65633   19.3788    90.81323  
4473       30.95036   19.30453   91.73741  
4473.5     30.43295   19.26138   90.44882  
4474       30.28391   19.26398   90.04895  
4474.5     30.28391   19.39801   88.09013  
4475       30.21719   19.54378   89.55043  
4475.5     30.03154   19.321     89.25165  
4476       29.55528   19.00302   88.98335  
4476.5     28.92943   18.72324   89.9003   
4477       28.30359   18.64352   91.65187  
4477.5     27.66934   18.64352   92.06313  
4478       26.97984   18.57538   92.17386  
4478.5     26.32703   18.47885   93.9393   
4479       25.75906   18.2545    94.8318   
4479.5     25.18289   17.91925   94.19186  
4480       24.51244   17.57668   94.63159  
4480.5     23.84198   17.35738   94.81448  
4481       23.15739   16.83612   93.04442  
4481.5     22.46753   16.42622   92.56464  
4482       21.52985   16.10159   94.64311  
4482.5     20.37402   15.82808   94.94473  
4483       19.08705   15.6034    94.36481  
4483.5     18.15506   15.4059    93.69884  
4484       17.28358   14.98142   94.23956  
4484.5     15.5183    14.59144   94.63722  
4485       13.69687   14.2495    93.78622  
4485.5     12.01482   13.87638   92.83363  
4486       10.36215   13.41952   91.60757  
4486.5     8.962572   12.83146   88.65013  
4487       7.589933   12.02761   90.27634  
4487.5     6.737389   11.1241    91.01849  
4488       6.024398   10.03616   89.12202  
4488.5     5.494908   8.682283   85.86005  
4489       5.097178   6.744197   83.46761  
4489.5     4.696647   5.164539   84.13278  
4490       4.343827   4.258675   85.07896  
4490.5     4.102361   3.18818    84.20514  
4491       3.957047   2.470564   84.07111  
4491.5     3.897862   2.178137   85.67073  
4492       3.885831   2.098842   86.47147  
4492.5     3.934116   2.075963   85.70287  
4493       3.984948   2.038834   83.74707  
4493.5     4.049329   2.009597   83.67752  
4494       4.113988   1.989483   82.0946   
4494.5     4.179778   2.03369    83.20946  
4495       4.228929   2.092543   82.92332  
4495.5     4.216771   2.253386   82.29298  
4496       4.086742   2.407805   83.61607  
4496.5     4.000212   2.587369   83.62489  
4497       3.939889   2.892269   81.41469  
4497.5     3.93737    3.484685   79.40068  
4498       3.985656   4.041036   78.34657  
4498.5     4.175058   4.10003    77.08305  
4499       4.533704   3.965993   79.14934  
4499.5     4.969161   4.000451   80.3831   
4500       5.331301   4.555412   77.77754  
4500.5     5.720795   5.593907   77.19247  
4501       6.383295   6.389524   77.73651  
4501.5     6.893825   6.821733   76.61032  
4502       7.188961   7.235522   74.1404   
4502.5     7.02416    7.762766   73.61356  
4503       6.81699    8.058346   76.64749  
4503.5     6.913487   7.963754   80.13184  
4504       6.957557   7.518525   79.75726  
4504.5     6.925051   6.725606   77.40625  
4505       6.813662   5.851735   79.07805  
4505.5     6.658374   4.854791   79.99757  
4506       6.485909   4.273219   78.8895   
4506.5     6.344194   4.390272   79.11342  
4507       6.211896   5.212006   79.49527  
4507.5     6.168006   6.529733   80.80588  
4508       6.246978   8.616665   81.83429  
4508.5     6.391329   10.69613   85.95055  
4509       6.414819   11.94244   87.55287  
4509.5     5.967888   12.66654   84.71976  
4510       5.329764   12.8785    86.75786  
4510.5     4.978413   12.5462    88.93877  
4511       4.835792   11.78158   88.47906  
4511.5     4.71101    10.57148   87.41183  
4512       4.590284   8.60927    89.23805  
4512.5     4.52188    6.06221    88.73666  
4513       4.461557   4.246234   85.44115  
4513.5     4.385643   3.29507    84.68205  
4514       4.305188   2.818138   84.42583  
4514.5     4.222733   2.725363   83.02898  
4515       4.137539   2.755513   84.1613   
4515.5     4.047915   2.82114    83.92484  
4516       3.940597   2.86939    82.4966   
4516.5     3.833279   2.852587   83.98935  
4517       3.752355   2.822563   84.83035  
4517.5     3.676139   2.76224    84.07364  
4518       3.611228   2.705587   85.20276  
4518.5     3.565965   2.665359   84.88361  
4519       3.524293   2.625132   84.15683  
4519.5     3.492119   2.541245   84.6169   
4520       3.453812   2.443349   85.61507  
4520.5     3.402072   2.311769   84.3958   
4521       3.363088   2.170998   83.07846  
4521.5     3.337683   2.07537    84.18399  
4522       3.312318   2.058132   85.14917  
4522.5     3.328405   2.121985   84.6956   
4523       3.347301   2.250682   84.15901  
4523.5     3.433534   2.402208   84.21298  
4524       3.539762   2.569292   85.01173  
4524.5     3.720786   2.645666   84.13376  
4525       3.923409   2.710812   85.00279  
4525.5     4.145378   2.775191   85.55238  
4526       4.37572    2.841844   85.21298  
4526.5     4.606063   3.071316   83.68407  
4527       4.937988   3.708237   82.96805  
4527.5     5.345687   4.936731   86.68799  
4528       6.109319   6.423005   87.01807  
4528.5     7.438387   7.915994   87.74013  
4529       8.952827   9.300671   87.98958  
4529.5     10.48175   10.55942   88.543    
4530       12.01068   11.42444   89.78668  
4530.5     13.41896   12.18081   89.68021  
4531       14.46582   12.74687   88.47203  
4531.5     15.23061   13.37045   89.09413  
4532       15.68699   13.57416   88.98558  
4532.5     15.84162   13.58105   88.6366   
4533       15.69345   13.61181   89.24026  
4533.5     15.33158   13.96856   89.40691  
4534       15.11019   14.22886   89.26344  
4534.5     14.82821   14.29465   88.3244   
4535       14.23317   14.29137   87.98106  
4535.5     13.41496   14.23965   89.33723  
4536       12.42055   14.12865   88.66673  
4536.5     11.19237   13.99216   88.59325  
4537       9.453285   13.75074   88.72215  
4537.5     8.118608   13.35385   88.29291  
4538       7.253555   12.73256   87.9306   
4538.5     6.489229   11.69358   87.92732  
4539       5.892141   10.2162    87.70787  
4539.5     5.570454   8.78553    87.44197  
4540       5.316566   7.0682     86.98073  
4540.5     5.085994   5.35087    85.127    
4541       4.864741   4.057647   83.87379  
4541.5     4.682499   3.626587   82.86584  
4542       4.539938   3.258856   82.46332  
4542.5     4.454743   3.219229   82.42557  
4543       4.376182   3.310181   83.58702  
4543.5     4.327896   3.485447   84.02568  
4544       4.27844    3.667188   83.50002  
4544.5     4.224906   3.851275   83.48293  
4545       4.173181   3.903067   84.38251  
4545.5     4.121454   3.867979   84.40536  
4546       4.069729   3.812508   83.73659  
4546.5     3.99814    3.737578   83.42743  
