~Version
 VERS              .         3.0                           : CWLS LOG ASCII STANDARD - VERSION 3.0
 WRAP              .         NO                            : ONE LINE PER DEPTH STEP
 DLM               .         SPACE                         : DELIMITING CHARACTER(SPACE TAB OR COMMA)
~Well Information
#_______________________________________________________________________________
#
#PARAMETER_NAME    .UNIT     VALUE                         : DESCRIPTION
#_______________________________________________________________________________
STRT               .ft       3000                          : First reference value
STOP               .ft       8496                          : Last reference value
STEP               .ft       0.5                           : Step increment
NULL               .         -9999                         : Missing value
COMP               .                                       : Company
WELL               .         EGBM-007                      : Well name
FLD                .         EGBEMA                        : Field
LOC                .                                       : Location
SRVC               .                                       : Service Company
CTRY               .                                       : Country
DATE               .         1967/02/19                    : Service Date
X                  .                                       : X or East-West coordinate
Y                  .                                       : Y or North South coordinate
GDAT               .                                       : Geodetic Datum
HZCS               .                                       : Horizontal Co-ordinate System
APIN               .         10805/01                      : 
BHT                .degF     162                           : 
BLI                .ft       8250                          : 
BS                 .in       9.625                         : 
CREATION-TIME      .         2067/2/19 0_0                 : 
CSIZ               .in       10.75                         : 
DFD                .g/cm3    1.18                          : 
DFT                .         BENT. SPERSENE                : 
DFV                .s        0                             : 
ELZ                .         -999.25                       : 
FIELD-NAME         .         EGBEMA                        : 
FILE-ID            .         SOH18 .4                      : 
FILE-NUMBER        .         0                             : 
FILE-SET-NAME      .                                       : 
FILE-SET-NUMBER    .         0                             : 
FILE-TYPE          .         PTF                           : 
HIDE               .         4540_300_185_7_1_DATE_67/02/19_SOH_18_SEQ_4: 
LCC                .         0                             : 
LMF                .         1                             : 
MST                .degF     96                            : 
NAME-SPACE-NAME    .         LIS                           : 
NAME-SPACE-VERSION .         0                             : 
PRODUC             .         SHELL(PARASOL)                : 
PRODUCER-CODE      .         0                             : 
PRODUCER-NAME      .         Schlumberger                  : 
PRODUCT            .                                       : 
PROGRAMS           .         INC                           : 
R1                 .         SHELL LAB. MEASUREMENTS       : 
R2                 .         MUD 1.14 OHMS AT 77 DEGF      : 
R3                 .         FILTRATE 1.09 OHMS AT 77 DEGF : 
R4                 .         FROM 7700 TO CASING SHOE REPEATED FREE OF CHARGE.: 
R5                 .         RAN "NO CURRENT SP" GOING DOWN (STILL NOISE ON SP WITH  IN: 
R6                 .         HOLE AND TRUCK AND RIG GENERATORS OFF.): 
RMCS               .ohm.m    -999.25                       : 
RMFS               .ohm.m    -999.25                       : 
RMS                .ohm.m    0.9100001                     : 
TCS                .h        -999.25                       : 
TDD                .ft       8500                          : 
TDL                .ft       8499                          : 
TLI                .ft       7600                          : 
VERSION            .         2P01                          : 
WELL-ID            .         10805/01                      : 
WELL-NAME          .         EGBM-007                      : 
WN                 .         EGBM-007                      : 
~Parameter Information Block
#_______________________________________________________________________________
#
#PARAMETER_NAME    .UNIT     VALUE                         : DESCRIPTION
#_______________________________________________________________________________
SET                .         SOH15 _1_1                    : 
ACQUISITION-PRODUCT .         DLIS/U                        : 
CREATION-TIME      .         2026/5/13 11_54               : 
DLIS_FRAME_DIRECTION .         INCREASING                    : 
DLIS_FRAME_NAME    .         1                             : 
DLIS_FRAME_SPACING .ft       0.5                           : 
FIELD-NAME         .         EGBEMA                        : 
FILE-ID            .         SOH15 .1                      : 
FILE-NUMBER        .         1                             : 
FILE-SET-NAME      .         LIS-TO-DLIS-CONVERSION        : 
FILE-SET-NUMBER    .         946                           : 
FILE-TYPE          .         PTF                           : 
INDEX-TYPE         .         BOREHOLE-DEPTH                : 
NAME-SPACE-NAME    .                                       : 
NAME-SPACE-VERSION .         0                             : 
OriginalDatasetName .         1                             : 
PRODUCER-CODE      .         440                           : 
PRODUCER-NAME      .         Schlumberger                  : 
PRODUCT            .         DLIS/U                        : 
PROGRAMS           .         LIS-TO-DLIS                   : 
TLFamily_DEPT      .         Measured Depth                : 
TLFamily_LN        .                                       : 
TLFamily_SN        .         Resistivity - Shallow         : 
TLFamily_SP        .         Spontaneous Potential         : 
VERSION            .         0.1                           : 
WELL-ID            .         10805/01                      : 
WELL-NAME          .         EGBM-007                      : 
~Curve Information
#_______________________________________________________________________________
#
#LOGNAME           .UNIT     LOG_ID                        : DESCRIPTION
#_______________________________________________________________________________
DEPT               .ft                                     :  {F}
LN                 .ohm.m                                  :  {F}
SN                 .ohm.m                                  :  {F}
SP                 .mV                                     :  {F}
~Ascii
# ...
4820       10.87237   10.40605   73.18297  
4820.5     10.74839   10.33562   71.25041  
4821       10.62766   10.14598   67.77235  
4821.5     10.4515    10.07172   70.3826   
4822       10.28052   9.976141   70.05067  
4822.5     10.13566   9.848072   71.48735  
4823       9.995298   9.679073   71.3085   
4823.5     9.859446   9.536314   72.4689   
4824       9.710814   9.396177   72.17926  
4824.5     9.54373    9.127882   70.39114  
4825       9.302368   8.922777   70.51163  
4825.5     8.957045   8.742533   71.63994  
4826       8.558969   8.562511   72.40385  
4826.5     8.012012   8.345064   70.47681  
4827       7.376611   8.328077   74.52432  
4827.5     6.6522     8.293812   78.42166  
4828       6.141714   8.238117   77.21597  
4828.5     5.67729    8.150476   77.04761  
4829       5.203357   7.788948   77.95187  
4829.5     4.820955   7.196437   78.65334  
4830       4.511795   6.357343   77.82939  
4830.5     4.289063   5.42115    78.18544  
4831       4.135448   4.380852   79.87697  
4831.5     3.94251    3.853622   81.38788  
4832       3.73718    3.52627    80.48506  
4832.5     3.519896   3.1887     79.73445  
4833       3.321215   2.913383   80.67838  
4833.5     3.165966   2.770913   81.18976  
4834       3.054513   2.745762   80.74921  
4834.5     2.979099   2.842782   79.88777  
4835       2.91472    2.988022   78.99028  
4835.5     2.892482   3.012441   79.07697  
4836       2.880411   2.911894   78.33208  
4836.5     2.86195    2.692959   80.88522  
4837       2.816666   2.467855   81.96648  
4837.5     2.769509   2.343608   81.63603  
4838       2.705972   2.311194   81.54878  
4838.5     2.642433   2.348889   82.04724  
4839       2.594665   2.443503   81.99323  
4839.5     2.556557   2.581913   81.79832  
4840       2.512652   2.752028   81.24571  
4840.5     2.432147   2.785741   77.91978  
4841       2.359288   2.733742   76.01744  
4841.5     2.292214   2.604084   78.55006  
4842       2.232237   2.411926   79.2122   
4842.5     2.19775    2.284235   79.07826  
4843       2.163262   2.148214   76.53683  
4843.5     2.129514   2.04812    74.55222  
4844       2.096585   1.968393   78.98567  
4844.5     2.063657   1.892488   81.72655  
4845       2.034961   1.83207    81.57584  
4845.5     2.009091   1.817154   82.4734   
4846       1.983221   1.839099   83.15343  
4846.5     1.957352   1.845715   82.13614  
4847       1.939002   1.844301   81.76442  
4847.5     1.921121   1.82945    81.45227  
4848       1.903239   1.801466   80.43141  
4848.5     1.889182   1.764316   78.62646  
4849       1.880559   1.750325   80.31496  
4849.5     1.871935   1.738228   78.93129  
4850       1.863312   1.722133   77.20497  
4850.5     1.861198   1.70577    79.34245  
4851       1.861198   1.688524   76.14679  
4851.5     1.861198   1.676286   77.65395  
4852       1.842433   1.671457   80.74759  
4852.5     1.82113    1.666629   80.16779  
4853       1.799827   1.670382   76.57959  
4853.5     1.778523   1.676418   74.94952  
4854       1.762326   1.675635   76.46104  
4854.5     1.752669   1.671914   77.79527  
4855       1.743012   1.662257   79.3597   
4855.5     1.733584   1.653149   79.23425  
4856       1.725259   1.656864   77.13857  
4856.5     1.716933   1.659306   76.88777  
4857       1.708608   1.659306   79.436    
4857.5     1.703469   1.659306   80.39034  
4858       1.703469   1.653987   81.49164  
4858.5     1.69777    1.648621   80.13487  
4859       1.689445   1.640184   80.19279  
4859.5     1.681119   1.630018   79.94466  
4860       1.672793   1.61892    80.70007  
4860.5     1.66163    1.602825   78.9877   
4861       1.650134   1.586731   80.75493  
4861.5     1.635394   1.57064    80.48622  
4862       1.602466   1.556382   79.60924  
4862.5     1.569537   1.54717    81.27698  
4863       1.54078    1.554595   82.69861  
4863.5     1.522894   1.566299   83.63654  
4864       1.505008   1.582401   84.23959  
4864.5     1.487121   1.555673   84.25197  
4865       1.48265    1.500115   83.88341  
4865.5     1.48265    1.458363   83.35101  
4866       1.482842   1.42387    82.86856  
4866.5     1.515771   1.398431   81.65811  
4867       1.548699   1.37436    82.77028  
4867.5     1.580469   1.351827   82.35103  
4868       1.604612   1.330193   82.12289  
4868.5     1.628755   1.318116   82.09464  
4869       1.653557   1.327943   82.67818  
4869.5     1.678972   1.372387   82.09329  
4870       1.703906   1.520737   82.58713  
4870.5     1.715977   1.676741   83.54822  
4871       1.728048   1.813025   82.40741  
4871.5     1.735015   1.840763   82.30997  
4872       1.735015   1.79251    81.65866  
4872.5     1.735015   1.733895   81.57397  
4873       1.712667   1.727285   81.61395  
4873.5     1.679738   1.765622   79.99588  
4874       1.64681    1.806008   76.71805  
4874.5     1.616093   1.809724   78.14     
4875       1.585913   1.750044   81.98515  
4875.5     1.555732   1.649063   83.27817  
4876       1.532821   1.502268   82.9505   
4876.5     1.513507   1.441535   81.27298  
4877       1.494192   1.411896   82.13702  
4877.5     1.475453   1.387933   83.51259  
4878       1.457566   1.380502   83.33989  
4878.5     1.43968    1.3764     83.5305   
4879       1.421794   1.379619   82.59947  
4879.5     1.411733   1.380394   81.39404  
4880       1.402789   1.376681   81.00774  
4880.5     1.393847   1.368113   83.53589  
4881       1.384363   1.356967   82.50455  
4881.5     1.373869   1.339167   81.31442  
4882       1.363374   1.321053   79.65463  
4882.5     1.360594   1.30701    80.69759  
4883       1.372669   1.2936     81.70401  
4883.5     1.384746   1.277779   83.41629  
4884       1.397283   1.259665   82.2168   
4884.5     1.40999    1.248011   80.69194  
4885       1.43281    1.245171   79.71964  
4885.5     1.486447   1.245492   80.21962  
4886       1.540084   1.258368   80.43636  
4886.5     1.605741   1.277673   80.05469  
4887       1.672814   1.317201   80.0471   
4887.5     1.728436   1.363775   78.19263  
4888       1.77442    1.425786   80.24612  
4888.5     1.820402   1.532463   83.36832  
4889       1.868243   1.665116   83.58485  
4889.5     1.916553   1.733786   82.62617  
4890       1.902945   1.75573    81.95084  
4890.5     1.877529   1.781174   81.99223  
4891       1.855805   1.803856   81.34363  
4891.5     1.840718   1.813762   81.03015  
4892       1.821604   1.782179   83.17316  
4892.5     1.79529    1.654168   84.13777  
4893       1.782582   1.495024   83.72011  
4893.5     1.769875   1.381703   83.17198  
4894       1.751692   1.308705   83.31602  
4894.5     1.741364   1.272126   83.43347  
4895       1.778516   1.274339   82.15385  
4895.5     1.850786   1.298482   80.3842   
4896       1.962239   1.336389   80.50398  
4896.5     2.087095   1.366884   81.68135  
4897       2.215856   1.392875   82.10493  
4897.5     2.370801   1.415059   82.29523  
4898       2.515879   1.457379   82.85231  
4898.5     2.612449   1.527656   83.24733  
4899       2.727458   1.635859   83.18492  
4899.5     2.888469   1.932423   83.2854   
4900       3.075709   2.532915   83.41211  
4900.5     3.314729   3.381447   82.45595  
4901       3.710344   4.715769   81.24741  
4901.5     4.193166   5.762906   82.2487   
4902       4.741603   6.540578   82.91052  
4902.5     5.349376   7.112238   82.4982   
4903       6.005294   7.40597    82.1754   
4903.5     6.608213   7.641612   81.8589   
4904       6.913137   7.817171   81.33946  
4904.5     6.961423   8.133982   80.53618  
4905       7.028758   8.679087   80.0238   
4905.5     7.146896   9.413013   79.47467  
4906       7.314076   10.01158   78.67955  
4906.5     7.539478   10.53173   78.18871  
4907       7.846708   10.55953   77.89622  
4907.5     8.238899   10.04292   77.17413  
4908       8.657036   9.552906   76.24683  
4908.5     9.124067   9.255087   74.52638  
4909       9.465574   8.898357   73.72276  
4909.5     9.519529   8.405525   73.44023  
4910       9.328873   7.702159   73.54596  
4910.5     8.954248   7.119752   73.90831  
