~Version
 VERS              .         3.0                           : CWLS LOG ASCII STANDARD - VERSION 3.0
 WRAP              .         NO                            : ONE LINE PER DEPTH STEP
 DLM               .         SPACE                         : DELIMITING CHARACTER(SPACE TAB OR COMMA)
~Well Information
#_______________________________________________________________________________
#
#PARAMETER_NAME    .UNIT     VALUE                         : DESCRIPTION
#_______________________________________________________________________________
STRT               .ft       3000                          : First reference value
STOP               .ft       8496                          : Last reference value
STEP               .ft       0.5                           : Step increment
NULL               .         -9999                         : Missing value
COMP               .                                       : Company
WELL               .         EGBM-007                      : Well name
FLD                .         EGBEMA                        : Field
LOC                .                                       : Location
SRVC               .                                       : Service Company
CTRY               .                                       : Country
DATE               .         1967/02/19                    : Service Date
X                  .                                       : X or East-West coordinate
Y                  .                                       : Y or North South coordinate
GDAT               .                                       : Geodetic Datum
HZCS               .                                       : Horizontal Co-ordinate System
APIN               .         10805/01                      : 
BHT                .degF     162                           : 
BLI                .ft       8250                          : 
BS                 .in       9.625                         : 
CREATION-TIME      .         2067/2/19 0_0                 : 
CSIZ               .in       10.75                         : 
DFD                .g/cm3    1.18                          : 
DFT                .         BENT. SPERSENE                : 
DFV                .s        0                             : 
ELZ                .         -999.25                       : 
FIELD-NAME         .         EGBEMA                        : 
FILE-ID            .         SOH18 .4                      : 
FILE-NUMBER        .         0                             : 
FILE-SET-NAME      .                                       : 
FILE-SET-NUMBER    .         0                             : 
FILE-TYPE          .         PTF                           : 
HIDE               .         4540_300_185_7_1_DATE_67/02/19_SOH_18_SEQ_4: 
LCC                .         0                             : 
LMF                .         1                             : 
MST                .degF     96                            : 
NAME-SPACE-NAME    .         LIS                           : 
NAME-SPACE-VERSION .         0                             : 
PRODUC             .         SHELL(PARASOL)                : 
PRODUCER-CODE      .         0                             : 
PRODUCER-NAME      .         Schlumberger                  : 
PRODUCT            .                                       : 
PROGRAMS           .         INC                           : 
R1                 .         SHELL LAB. MEASUREMENTS       : 
R2                 .         MUD 1.14 OHMS AT 77 DEGF      : 
R3                 .         FILTRATE 1.09 OHMS AT 77 DEGF : 
R4                 .         FROM 7700 TO CASING SHOE REPEATED FREE OF CHARGE.: 
R5                 .         RAN "NO CURRENT SP" GOING DOWN (STILL NOISE ON SP WITH  IN: 
R6                 .         HOLE AND TRUCK AND RIG GENERATORS OFF.): 
RMCS               .ohm.m    -999.25                       : 
RMFS               .ohm.m    -999.25                       : 
RMS                .ohm.m    0.9100001                     : 
TCS                .h        -999.25                       : 
TDD                .ft       8500                          : 
TDL                .ft       8499                          : 
TLI                .ft       7600                          : 
VERSION            .         2P01                          : 
WELL-ID            .         10805/01                      : 
WELL-NAME          .         EGBM-007                      : 
WN                 .         EGBM-007                      : 
~Parameter Information Block
#_______________________________________________________________________________
#
#PARAMETER_NAME    .UNIT     VALUE                         : DESCRIPTION
#_______________________________________________________________________________
SET                .         SOH15 _1_1                    : 
ACQUISITION-PRODUCT .         DLIS/U                        : 
CREATION-TIME      .         2026/5/13 11_54               : 
DLIS_FRAME_DIRECTION .         INCREASING                    : 
DLIS_FRAME_NAME    .         1                             : 
DLIS_FRAME_SPACING .ft       0.5                           : 
FIELD-NAME         .         EGBEMA                        : 
FILE-ID            .         SOH15 .1                      : 
FILE-NUMBER        .         1                             : 
FILE-SET-NAME      .         LIS-TO-DLIS-CONVERSION        : 
FILE-SET-NUMBER    .         946                           : 
FILE-TYPE          .         PTF                           : 
INDEX-TYPE         .         BOREHOLE-DEPTH                : 
NAME-SPACE-NAME    .                                       : 
NAME-SPACE-VERSION .         0                             : 
OriginalDatasetName .         1                             : 
PRODUCER-CODE      .         440                           : 
PRODUCER-NAME      .         Schlumberger                  : 
PRODUCT            .         DLIS/U                        : 
PROGRAMS           .         LIS-TO-DLIS                   : 
TLFamily_DEPT      .         Measured Depth                : 
TLFamily_LN        .                                       : 
TLFamily_SN        .         Resistivity - Shallow         : 
TLFamily_SP        .         Spontaneous Potential         : 
VERSION            .         0.1                           : 
WELL-ID            .         10805/01                      : 
WELL-NAME          .         EGBM-007                      : 
~Curve Information
#_______________________________________________________________________________
#
#LOGNAME           .UNIT     LOG_ID                        : DESCRIPTION
#_______________________________________________________________________________
DEPT               .ft                                     :  {F}
LN                 .ohm.m                                  :  {F}
SN                 .ohm.m                                  :  {F}
SP                 .mV                                     :  {F}
~Ascii
# ...
5548       11.7069    8.272478   73.0284   
5548.5     11.50535   8.046457   72.8831   
5549       11.2672    7.936732   72.33411  
5549.5     10.98059   7.889382   72.63991  
5550       10.71895   7.85489    72.55508  
5550.5     10.50859   7.820396   71.88567  
5551       10.34142   7.774611   71.34308  
5551.5     10.12716   7.674042   72.29022  
5552       9.899336   7.503147   72.64867  
5552.5     9.642845   7.299098   72.60031  
5553       9.381199   7.130988   74.8461   
5553.5     9.032125   6.970077   75.57092  
5554       8.754206   6.809112   75.81247  
5554.5     8.516203   6.545479   76.16902  
5555       8.290873   6.204963   77.19647  
5555.5     8.107515   5.858165   77.9053   
5556       7.980038   5.594826   78.70662  
5556.5     7.905736   5.364544   78.70662  
5557       7.873661   5.100061   79.45134  
5557.5     7.856406   4.788589   80.38985  
5558       7.942972   4.546476   80.82904  
5558.5     8.039543   4.481476   80.98425  
5559       8.191956   4.626331   81.07053  
5559.5     8.3578     4.818185   81.3085   
5560       8.599356   5.262482   80.67912  
5560.5     8.85927    5.846309   79.99321  
5561       9.196081   6.509846   79.52882  
5561.5     9.673981   7.101088   77.10457  
5562       10.08989   7.74208    75.2932   
5562.5     10.40688   8.285921   74.55418  
5563       10.78136   8.611616   74.04161  
5563.5     11.05792   8.734375   73.81519  
5564       11.19669   8.782026   73.61227  
5564.5     11.29331   8.793097   73.46133  
5565       11.31476   8.727262   73.34384  
5565.5     11.29967   8.673477   73.34384  
5566       11.26699   8.663189   73.13275  
5566.5     11.22172   8.71493    72.73022  
5567       11.16745   8.707497   70.99266  
5567.5     11.10389   8.651802   70.40968  
5568       11.04076   8.687593   72.18285  
5568.5     11.01776   8.739422   73.08012  
5569       10.99476   8.795149   72.95322  
5569.5     10.97388   8.84585    72.43654  
5570       10.95879   8.886078   72.05917  
5570.5     10.93689   8.926325   72.61447  
5571       10.88323   8.958992   73.29904  
5571.5     10.82957   8.958992   73.28746  
5572       10.74355   8.949144   71.95862  
5572.5     10.64202   8.929018   72.67049  
5573       10.48101   8.911547   73.84972  
5573.5     10.26264   8.8927     73.43347  
5574       9.989126   8.858227   72.50233  
5574.5     9.65148    8.806372   72.13914  
5575       9.310442   8.70574    72.72318  
5575.5     8.870302   8.563196   73.37332  
5576       8.427856   8.403212   73.56216  
5576.5     8.070009   8.249598   73.63763  
5577       7.868746   8.035336   74.00378  
5577.5     7.683192   7.606833   75.0274   
5578       7.516012   7.020226   76.71358  
5578.5     7.251249   6.33843    78.27589  
5579       6.956123   5.782668   78.88794  
5579.5     6.69409    5.590785   78.61963  
5580       6.516852   5.65929    79.64072  
5580.5     6.461126   5.724402   79.69501  
5581       6.416804   5.664084   77.74406  
5581.5     6.382311   5.33068    77.23753  
5582       6.286774   4.785963   79.38371  
5582.5     6.17412    4.615722   79.72882  
5583       6.073488   4.833006   79.66066  
5583.5     6.084343   5.163391   78.54921  
5584       6.236895   5.367256   77.39346  
5584.5     6.389446   5.447745   76.78929  
5585       6.536616   5.506446   76.38463  
5585.5     6.644917   5.560022   76.134    
5586       6.696656   5.603912   75.52998  
5586.5     6.73739    5.615142   72.79227  
5587       6.769596   5.590775   72.9948   
5587.5     6.767739   5.535081   75        
5588       6.743597   5.508622   75.72714  
5588.5     6.719455   5.492527   76.15852  
5589       6.674356   5.488958   76.18297  
5589.5     6.629071   5.484496   76.06837  
5590       6.560584   5.42877    75.84184  
5590.5     6.489557   5.381158   75.89861  
5591       6.396441   5.346684   76.2728   
5591.5     6.292962   5.323392   76.55487  
5592       6.161915   5.309187   77.56125  
5592.5     6.026061   5.28192    79.22266  
5593       5.878711   5.228261   79.62518  
5593.5     5.727762   5.174603   80.01111  
5594       5.573945   5.055264   80.38283  
5594.5     5.418726   4.894008   81.45845  
5595       5.275587   4.637224   82.1059   
5595.5     5.134727   4.384575   81.0416   
5596       4.99393    4.178782   79.25732  
5596.5     4.860746   4.003222   80.32607  
5597       4.731698   3.827664   82.16939  
5597.5     4.713121   3.674047   82.99986  
5598       4.712818   3.553288   82.68839  
5598.5     4.753079   3.490024   83.86803  
5599       4.79334    3.43834    84.22713  
5599.5     4.918557   3.401211   84.22713  
5600       5.047318   3.399918   84.05183  
5600.5     5.168044   3.505584   83.85062  
5601       5.300234   3.82573    83.64938  
5601.5     5.488042   4.299676   83.4481   
5602       5.609127   4.777428   82.28868  
5602.5     5.538661   5.305981   80.25764  
5603       5.239779   5.763142   78.33037  
5603.5     4.631763   5.967865   77.56178  
5604       4.355494   5.99369    77.18359  
5604.5     4.242693   5.841989   77.02255  
5605       4.168391   5.465192   77.15501  
5605.5     4.132189   4.749028   78.44611  
5606       4.120688   4.274236   81.01361  
5606.5     4.109189   4.217386   82.63451  
5607       4.214943   4.603792   82.73526  
5607.5     4.617471   5.424807   82.12782  
5608       5.305734   6.200997   81.02086  
5608.5     6.105073   6.652916   79.5309   
5609       6.895144   6.937673   78.53783  
5609.5     7.197119   6.953242   77.98056  
5610       7.218708   6.89779    77.71689  
5610.5     7.071799   6.886037   77.49036  
5611       6.808282   6.951871   77.44479  
5611.5     6.506073   6.954704   77.44479  
5612       6.223254   6.845073   77.68935  
5612.5     5.981772   6.603614   78.03427  
5613       5.74036    6.242814   78.16431  
5613.5     5.514306   5.79019    78.26498  
5614       5.316669   5.372246   78.36562  
5614.5     5.097445   5.119089   79.64473  
5615       4.869174   4.958026   80.82503  
5615.5     4.627616   4.74339    81.04448  
5616       4.477589   4.528921   80.54601  
5616.5     4.334065   4.242155   80.01344  
5617       4.185461   4.041372   80.87076  
5617.5     4.041824   3.861107   81.96338  
5618       3.905543   3.597306   83.03874  
5618.5     3.825088   3.327949   83.80734  
5619       3.754827   3.108024   84.29124  
5619.5     3.694448   2.918496   84.62209  
5620       3.659306   2.736802   84.80795  
5620.5     3.659306   2.610478   84.73206  
5621       3.669207   2.527893   84.5596   
5621.5     3.699382   2.546886   84.54259  
5622       3.731951   2.71643    84.54259  
5622.5     3.772212   3.029164   83.84241  
5623       3.812473   3.34249    81.74071  
5623.5     3.888393   3.582275   80.99068  
5624       3.968868   3.733214   80.7571   
5624.5     4.049372   3.752847   82.38979  
5625       4.09427    3.75575    83.82819  
5625.5     4.075695   3.795931   84.68088  
5626       4.031834   3.804416   85.40286  
5626.5     3.975013   3.773686   85.70476  
5627       3.938383   3.739886   85.87311  
5627.5     3.927406   3.712192   85.38625  
5628       3.91643    3.699025   85.92284  
5628.5     3.890629   3.655697   86.33511  
5629       3.853477   3.516189   85.42708  
5629.5     3.778687   3.445549   83.85324  
5630       3.678827   3.432915   82.58432  
5630.5     3.533971   3.418332   82.02673  
5631       3.48512    3.405148   81.66528  
5631.5     3.437029   3.397519   81.38448  
5632       3.394413   3.34924    81.27881  
5632.5     3.351797   3.305265   82.0726   
5633       3.317061   3.261829   82.57167  
5633.5     3.284133   3.194304   83.09129  
5634       3.251204   3.043803   83.40807  
5634.5     3.211388   2.941159   82.26083  
5635       3.171126   2.881125   81.54575  
5635.5     3.128719   2.888717   83.61154  
5636       3.084815   2.947315   84.01399  
5636.5     3.040911   2.966629   83.86111  
5637       3.001139   2.955678   83.61957  
5637.5     2.963016   2.905358   83.70534  
5638       2.925735   2.808688   84.07463  
5638.5     2.891235   2.660659   84.42404  
