~Version
 VERS              .         3.0                           : CWLS LOG ASCII STANDARD - VERSION 3.0
 WRAP              .         NO                            : ONE LINE PER DEPTH STEP
 DLM               .         SPACE                         : DELIMITING CHARACTER(SPACE TAB OR COMMA)
~Well Information
#_______________________________________________________________________________
#
#PARAMETER_NAME    .UNIT     VALUE                         : DESCRIPTION
#_______________________________________________________________________________
STRT               .ft       3000                          : First reference value
STOP               .ft       8496                          : Last reference value
STEP               .ft       0.5                           : Step increment
NULL               .         -9999                         : Missing value
COMP               .                                       : Company
WELL               .         EGBM-007                      : Well name
FLD                .         EGBEMA                        : Field
LOC                .                                       : Location
SRVC               .                                       : Service Company
CTRY               .                                       : Country
DATE               .         1967/02/19                    : Service Date
X                  .                                       : X or East-West coordinate
Y                  .                                       : Y or North South coordinate
GDAT               .                                       : Geodetic Datum
HZCS               .                                       : Horizontal Co-ordinate System
APIN               .         10805/01                      : 
BHT                .degF     162                           : 
BLI                .ft       8250                          : 
BS                 .in       9.625                         : 
CREATION-TIME      .         2067/2/19 0_0                 : 
CSIZ               .in       10.75                         : 
DFD                .g/cm3    1.18                          : 
DFT                .         BENT. SPERSENE                : 
DFV                .s        0                             : 
ELZ                .         -999.25                       : 
FIELD-NAME         .         EGBEMA                        : 
FILE-ID            .         SOH18 .4                      : 
FILE-NUMBER        .         0                             : 
FILE-SET-NAME      .                                       : 
FILE-SET-NUMBER    .         0                             : 
FILE-TYPE          .         PTF                           : 
HIDE               .         4540_300_185_7_1_DATE_67/02/19_SOH_18_SEQ_4: 
LCC                .         0                             : 
LMF                .         1                             : 
MST                .degF     96                            : 
NAME-SPACE-NAME    .         LIS                           : 
NAME-SPACE-VERSION .         0                             : 
PRODUC             .         SHELL(PARASOL)                : 
PRODUCER-CODE      .         0                             : 
PRODUCER-NAME      .         Schlumberger                  : 
PRODUCT            .                                       : 
PROGRAMS           .         INC                           : 
R1                 .         SHELL LAB. MEASUREMENTS       : 
R2                 .         MUD 1.14 OHMS AT 77 DEGF      : 
R3                 .         FILTRATE 1.09 OHMS AT 77 DEGF : 
R4                 .         FROM 7700 TO CASING SHOE REPEATED FREE OF CHARGE.: 
R5                 .         RAN "NO CURRENT SP" GOING DOWN (STILL NOISE ON SP WITH  IN: 
R6                 .         HOLE AND TRUCK AND RIG GENERATORS OFF.): 
RMCS               .ohm.m    -999.25                       : 
RMFS               .ohm.m    -999.25                       : 
RMS                .ohm.m    0.9100001                     : 
TCS                .h        -999.25                       : 
TDD                .ft       8500                          : 
TDL                .ft       8499                          : 
TLI                .ft       7600                          : 
VERSION            .         2P01                          : 
WELL-ID            .         10805/01                      : 
WELL-NAME          .         EGBM-007                      : 
WN                 .         EGBM-007                      : 
~Parameter Information Block
#_______________________________________________________________________________
#
#PARAMETER_NAME    .UNIT     VALUE                         : DESCRIPTION
#_______________________________________________________________________________
SET                .         SOH15 _1_1                    : 
ACQUISITION-PRODUCT .         DLIS/U                        : 
CREATION-TIME      .         2026/5/13 11_54               : 
DLIS_FRAME_DIRECTION .         INCREASING                    : 
DLIS_FRAME_NAME    .         1                             : 
DLIS_FRAME_SPACING .ft       0.5                           : 
FIELD-NAME         .         EGBEMA                        : 
FILE-ID            .         SOH15 .1                      : 
FILE-NUMBER        .         1                             : 
FILE-SET-NAME      .         LIS-TO-DLIS-CONVERSION        : 
FILE-SET-NUMBER    .         946                           : 
FILE-TYPE          .         PTF                           : 
INDEX-TYPE         .         BOREHOLE-DEPTH                : 
NAME-SPACE-NAME    .                                       : 
NAME-SPACE-VERSION .         0                             : 
OriginalDatasetName .         1                             : 
PRODUCER-CODE      .         440                           : 
PRODUCER-NAME      .         Schlumberger                  : 
PRODUCT            .         DLIS/U                        : 
PROGRAMS           .         LIS-TO-DLIS                   : 
TLFamily_DEPT      .         Measured Depth                : 
TLFamily_LN        .                                       : 
TLFamily_SN        .         Resistivity - Shallow         : 
TLFamily_SP        .         Spontaneous Potential         : 
VERSION            .         0.1                           : 
WELL-ID            .         10805/01                      : 
WELL-NAME          .         EGBM-007                      : 
~Curve Information
#_______________________________________________________________________________
#
#LOGNAME           .UNIT     LOG_ID                        : DESCRIPTION
#_______________________________________________________________________________
DEPT               .ft                                     :  {F}
LN                 .ohm.m                                  :  {F}
SN                 .ohm.m                                  :  {F}
SP                 .mV                                     :  {F}
~Ascii
# ...
8005       26.30481   13.31553   64.45064  
8005.5     26.76358   13.40153   66.70055  
8006       27.22235   13.48218   65.85582  
8006.5     27.83333   13.55628   62.95726  
8007       28.54185   13.6551    62.60442  
8007.5     29.2869    13.77744   61.21747  
8008       30.08984   13.95353   60.75578  
8008.5     30.89075   14.21861   60.77109  
8009       31.63217   14.72368   61.51733  
8009.5     32.52827   15.18315   61.54558  
8010       33.73283   15.67948   62.50949  
8010.5     35.02318   16.11093   62.1143   
8011       36.58192   16.67958   63.30826  
8011.5     38.14644   17.39069   64.99347  
8012       40         18.10179   62.93976  
8012.5     41.91255   18.76924   61.33365  
8013       43.9503    19.43993   60.95251  
8013.5     46.32526   20.52383   62.76129  
8014       48.90678   21.19254   67.92415  
8014.5     51.49895   21.84715   71.78516  
8015       54.04053   22.58815   71.78531  
8015.5     56.0475    23.26567   70.48427  
8016       57.84567   23.93452   67.75255  
8016.5     59.45224   24.67369   63.25655  
8017       60.38863   25.47638   63.49854  
8017.5     61.29204   26.226     64.37987  
8018       62.73746   26.93452   64.14627  
8018.5     64.24907   27.63606   64.55374  
8019       65.73192   28.32411   68.27876  
8019.5     66.66463   28.98454   70.07874  
8020       67.00951   29.61842   69.02574  
8020.5     66.82414   30.23622   65.44705  
8021       66.15517   30.23622   61.65695  
8021.5     65.2951    30.23622   60.94487  
8022       63.88342   29.94653   61.01784  
8022.5     62.12801   29.58524   61.93448  
8023       59.16554   29.19678   62.84639  
8023.5     54.34732   28.68988   65.25238  
8024       49.76213   28.18297   67.10117  
8024.5     45.34373   27.38203   67.00676  
8025       40.62991   26.45534   65.61542  
8025.5     35.66524   24.98985   65.92731  
8026       31.86151   22.58119   68.24782  
8026.5     28.4857    21.01096   67.17664  
8027       26.3179    19.67952   63.58321  
8027.5     24.37769   18.01784   60.97359  
8028       22.54395   16.06322   62.22491  
8028.5     19.91829   14.25103   65.67656  
8029       18.42648   12.71624   71.7019   
8029.5     17.37198   11.4232    76.0256   
8030       16.20515   10.54701   76.632    
8030.5     15.49394   9.713564   75.87241  
8031       14.66565   9.354332   74.72903  
8031.5     14.03491   9.34775    74.23837  
8032       13.52746   9.227093   74.62236  
8032.5     13.16458   9.066502   75.32466  
8033       12.86947   8.939297   75.98152  
8033.5     12.59437   8.816011   75.71593  
8034       12.30388   8.684639   73.80302  
8034.5     12.06299   8.551247   73.27306  
8035       11.85922   8.447317   74.0354   
8035.5     11.65633   8.361254   74.37543  
8036       11.45551   8.280975   72.72531  
8036.5     11.30667   8.282736   70.00609  
8037       11.17812   8.33091    72.55663  
8037.5     11.08549   8.382183   75.34595  
8038       11.00076   8.562698   73.81529  
8038.5     10.93192   8.749893   72.56834  
8039       10.88151   8.869991   71.57021  
8039.5     10.84939   8.903185   73.38112  
8040       10.81727   8.857874   74.63295  
8040.5     10.78514   8.752121   73.29558  
8041       10.72085   8.620749   69.67133  
8041.5     10.6343    8.491819   68.86099  
8042       10.55402   8.363388   72.04137  
8042.5     10.46799   8.271751   71.50116  
8043       10.4252    8.18564    68.39424  
8043.5     10.4252    8.098059   67.24556  
8044       10.42978   8.002823   69.06004  
8044.5     10.44483   7.902862   67.41217  
8045       10.44989   7.815339   63.16655  
8045.5     10.41776   7.743943   60.19537  
8046       10.37509   7.748649   58.35109  
8046.5     10.30095   7.959446   58.19057  
8047       10.18315   8.17691    57.17218  
8047.5     10.03132   8.475803   58.56619  
8048       9.890745   8.707081   60.85333  
8048.5     9.826773   8.903984   64.76607  
8049       9.826773   9.001888   68.16034  
8049.5     9.821596   8.958097   71.14114  
8050       9.805534   8.832752   72.42328  
8050.5     9.755718   8.648209   70.34395  
8051       9.646242   8.122795   63.92467  
8051.5     9.526619   7.826595   60.32436  
8052       9.406147   7.561643   61.97841  
8052.5     9.285685   7.46365    62.18709  
8053       9.165222   7.268638   59.60608  
8053.5     9.044758   7.105302   59.5607   
8054       8.929443   7.023622   60.50816  
8054.5     8.839102   7.023622   60.82036  
8055       8.749102   7.051163   59.21259  
8055.5     8.663097   7.103281   59.33052  
8056       8.552448   7.190804   60.45259  
8056.5     8.367092   7.272885   62.00507  
8057       8.22176    7.348306   61.71188  
8057.5     8.109327   7.401575   60.84813  
8058       8.053551   7.401575   59.81168  
8058.5     8.037489   7.294706   60.36862  
8059       8.004042   7.141438   63.61333  
8059.5     7.949041   6.98817    68.30927  
8060       7.84578    6.784984   71.91092  
8060.5     7.752545   6.539571   72.47409  
8061       7.67726    6.291222   69.98283  
8061.5     7.59286    6.098672   65.9713   
8062       7.483383   5.941338   64.4635   
8062.5     7.433867   5.818154   66.08884  
8063       7.401574   5.731108   63.50435  
8063.5     7.401574   5.670898   60.91991  
8064       7.415029   5.612277   60.9559   
8064.5     7.460199   5.555595   61.82445  
8065       7.504338   5.501846   64.4259   
8065.5     7.544503   5.458055   69.0201   
8066       7.57003    5.466096   70.18008  
8066.5     7.58724    5.50563    71.10658  
8067       7.618335   5.583795   72.7867   
8067.5     7.652737   5.797915   72.09793  
8068       7.716285   6.061272   70.8273   
8068.5     7.781096   6.425996   74.84142  
8069       7.881507   6.774405   75.44765  
8069.5     8.017797   7.086143   74.69136  
8070       8.198423   7.392471   74.89423  
8070.5     8.393595   7.648745   75.64226  
8071       8.574667   7.865154   71.5797   
8071.5     8.718317   8.060013   63.9182   
8072       8.814663   8.269766   59.35283  
8072.5     8.864954   8.421764   59.0714   
8073       8.871475   8.487452   60.77524  
8073.5     8.855413   8.503937   63.85004  
8074       8.817266   8.503937   66.87068  
8074.5     8.769081   8.393349   65.28275  
8075       8.734026   8.287638   62.70657  
8075.5     8.703913   8.191267   62.44691  
8076       8.667429   8.066246   66.26889  
8076.5     8.627281   7.917734   70.35135  
8077       8.581486   7.677048   71.39722  
8077.5     8.521259   7.436213   70.85556  
8078       8.467072   7.240048   69.29698  
8078.5     8.43873    7.104425   64.31778  
8079       8.410391   7.016844   64.60454  
8079.5     8.396511   6.972915   68.95912  
8080       8.383129   6.973658   72.55095  
8080.5     8.371237   6.997738   72.71516  
8081       8.360285   7.021819   69.00134  
8081.5     8.349335   7.045899   65.9866   
8082       8.346457   7.108228   66.81508  
8082.5     8.346457   7.194279   67.86176  
8083       8.346457   7.291583   68.30075  
8083.5     8.371614   7.381316   66.36784  
8084       8.396969   7.43292    63.56712  
8084.5     8.431036   7.472328   62.35808  
8085       8.473549   7.492398   59.89154  
8085.5     8.510185   7.496063   59.77458  
8086       8.532095   7.496063   60.75432  
8086.5     8.442635   7.509182   62.67148  
8087       8.328674   7.537522   63.6666   
8087.5     8.212317   7.570625   63.44496  
8088       8.132013   7.618786   62.3098   
8088.5     8.05171    7.680358   60.29144  
8089       7.971405   7.776705   60.70572  
8089.5     7.937541   7.822035   62.39497  
8090       7.905634   7.795906   65.68869  
8090.5     7.947534   7.698061   70.28966  
8091       7.989433   7.501002   69.48936  
8091.5     8.031332   7.257832   67.40157  
8092       8.031496   7.003065   70.09958  
8092.5     8.014717   6.818887   70.93195  
8093       7.95801    6.70941    68.10579  
8093.5     7.901042   6.66517    64.79257  
8094       7.840814   6.667934   65.22243  
8094.5     7.780586   6.708074   66.12585  
8095       7.753233   6.803596   67.08661  
8095.5     7.726468   6.894003   63.07013  
