~Version
 VERS              .         3.0                           : CWLS LOG ASCII STANDARD - VERSION 3.0
 WRAP              .         NO                            : ONE LINE PER DEPTH STEP
 DLM               .         SPACE                         : DELIMITING CHARACTER(SPACE TAB OR COMMA)
~Well Information
#_______________________________________________________________________________
#
#PARAMETER_NAME    .UNIT     VALUE                         : DESCRIPTION
#_______________________________________________________________________________
STRT               .ft       3000                          : First reference value
STOP               .ft       8496                          : Last reference value
STEP               .ft       0.5                           : Step increment
NULL               .         -9999                         : Missing value
COMP               .                                       : Company
WELL               .         EGBM-007                      : Well name
FLD                .         EGBEMA                        : Field
LOC                .                                       : Location
SRVC               .                                       : Service Company
CTRY               .                                       : Country
DATE               .         1967/02/19                    : Service Date
X                  .                                       : X or East-West coordinate
Y                  .                                       : Y or North South coordinate
GDAT               .                                       : Geodetic Datum
HZCS               .                                       : Horizontal Co-ordinate System
APIN               .         10805/01                      : 
BHT                .degF     162                           : 
BLI                .ft       8250                          : 
BS                 .in       9.625                         : 
CREATION-TIME      .         2067/2/19 0_0                 : 
CSIZ               .in       10.75                         : 
DFD                .g/cm3    1.18                          : 
DFT                .         BENT. SPERSENE                : 
DFV                .s        0                             : 
ELZ                .         -999.25                       : 
FIELD-NAME         .         EGBEMA                        : 
FILE-ID            .         SOH18 .4                      : 
FILE-NUMBER        .         0                             : 
FILE-SET-NAME      .                                       : 
FILE-SET-NUMBER    .         0                             : 
FILE-TYPE          .         PTF                           : 
HIDE               .         4540_300_185_7_1_DATE_67/02/19_SOH_18_SEQ_4: 
LCC                .         0                             : 
LMF                .         1                             : 
MST                .degF     96                            : 
NAME-SPACE-NAME    .         LIS                           : 
NAME-SPACE-VERSION .         0                             : 
PRODUC             .         SHELL(PARASOL)                : 
PRODUCER-CODE      .         0                             : 
PRODUCER-NAME      .         Schlumberger                  : 
PRODUCT            .                                       : 
PROGRAMS           .         INC                           : 
R1                 .         SHELL LAB. MEASUREMENTS       : 
R2                 .         MUD 1.14 OHMS AT 77 DEGF      : 
R3                 .         FILTRATE 1.09 OHMS AT 77 DEGF : 
R4                 .         FROM 7700 TO CASING SHOE REPEATED FREE OF CHARGE.: 
R5                 .         RAN "NO CURRENT SP" GOING DOWN (STILL NOISE ON SP WITH  IN: 
R6                 .         HOLE AND TRUCK AND RIG GENERATORS OFF.): 
RMCS               .ohm.m    -999.25                       : 
RMFS               .ohm.m    -999.25                       : 
RMS                .ohm.m    0.9100001                     : 
TCS                .h        -999.25                       : 
TDD                .ft       8500                          : 
TDL                .ft       8499                          : 
TLI                .ft       7600                          : 
VERSION            .         2P01                          : 
WELL-ID            .         10805/01                      : 
WELL-NAME          .         EGBM-007                      : 
WN                 .         EGBM-007                      : 
~Parameter Information Block
#_______________________________________________________________________________
#
#PARAMETER_NAME    .UNIT     VALUE                         : DESCRIPTION
#_______________________________________________________________________________
SET                .         SOH15 _1_1                    : 
ACQUISITION-PRODUCT .         DLIS/U                        : 
CREATION-TIME      .         2026/5/13 11_54               : 
DLIS_FRAME_DIRECTION .         INCREASING                    : 
DLIS_FRAME_NAME    .         1                             : 
DLIS_FRAME_SPACING .ft       0.5                           : 
FIELD-NAME         .         EGBEMA                        : 
FILE-ID            .         SOH15 .1                      : 
FILE-NUMBER        .         1                             : 
FILE-SET-NAME      .         LIS-TO-DLIS-CONVERSION        : 
FILE-SET-NUMBER    .         946                           : 
FILE-TYPE          .         PTF                           : 
INDEX-TYPE         .         BOREHOLE-DEPTH                : 
NAME-SPACE-NAME    .                                       : 
NAME-SPACE-VERSION .         0                             : 
OriginalDatasetName .         1                             : 
PRODUCER-CODE      .         440                           : 
PRODUCER-NAME      .         Schlumberger                  : 
PRODUCT            .         DLIS/U                        : 
PROGRAMS           .         LIS-TO-DLIS                   : 
TLFamily_DEPT      .         Measured Depth                : 
TLFamily_LN        .                                       : 
TLFamily_SN        .         Resistivity - Shallow         : 
TLFamily_SP        .         Spontaneous Potential         : 
VERSION            .         0.1                           : 
WELL-ID            .         10805/01                      : 
WELL-NAME          .         EGBM-007                      : 
~Curve Information
#_______________________________________________________________________________
#
#LOGNAME           .UNIT     LOG_ID                        : DESCRIPTION
#_______________________________________________________________________________
DEPT               .ft                                     :  {F}
LN                 .ohm.m                                  :  {F}
SN                 .ohm.m                                  :  {F}
SP                 .mV                                     :  {F}
~Ascii
# ...
6549       10.01135   7.631113   71.29047  
6549.5     9.978474   7.602524   71.23807  
6550       9.945597   7.602524   71.18565  
6550.5     9.92387    7.602524   71.09959  
6551       9.933914   7.613982   71.01033  
6551.5     9.943958   7.642392   70.92107  
6552       9.957027   7.675987   70.88821  
6552.5     9.991459   7.732783   70.9456   
6553       10.02589   7.789579   71.00299  
6553.5     10.09033   7.840662   71.07512  
6554       10.20374   7.891513   71.1555   
6554.5     10.31829   7.929557   71.4798   
6555       10.43886   7.9537     71.76898  
6555.5     10.55796   7.977842   71.59679  
6556       10.6572    8.070709   71.46664  
6556.5     10.75644   8.175129   71.39575  
6557       10.82537   8.303953   71.32693  
6557.5     10.8888    8.430479   71.26666  
6558       10.94979   8.529873   71.20641  
6558.5     11.0065    8.629267   71.18111  
6559       11.05703   8.69795    71.18111  
6559.5     11.07042   8.76149    71.03163  
6560       11.08382   8.801262   70.79057  
6560.5     11.06278   8.801262   70.55283  
6561       11.03265   8.801262   70.79387  
6561.5     11.00755   8.784336   71.03114  
6562       10.98459   8.757507   71.19185  
6562.5     10.96164   8.722301   71.32462  
6563       10.92055   8.66548    71.16391  
6563.5     10.87862   8.607946   71.01773  
6564       10.83669   8.53896    70.97137  
6564.5     10.79296   8.479284   70.92503  
6565       10.74914   8.450874   70.87868  
6565.5     10.70292   8.422825   70.81117  
6566       10.62757   8.435534   70.73581  
6566.5     10.55221   8.44824    70.84468  
6567       10.47195   8.47015    71.05733  
6567.5     10.4108    8.50034    71.21259  
6568       10.37636   8.517351   71.2879   
6568.5     10.36221   8.517351   71.26685  
6569       10.36221   8.505823   71.04759  
6569.5     10.36454   8.452164   70.96048  
6570       10.38645   8.398504   70.8896   
6570.5     10.3937    8.301821   70.90279  
6571       10.3937    8.198322   70.95755  
6571.5     10.3937    8.096207   71.01233  
6572       10.37884   8.004208   71.12996  
6572.5     10.36277   7.912209   71.2639   
6573       10.29575   7.828885   71.18623  
6573.5     10.22363   7.759899   70.84184  
6574       10.1309    7.728706   70.77585  
6574.5     9.992468   7.763647   70.91154  
6575       9.795277   7.908503   71.16983  
6575.5     9.626543   8.043499   71.35847  
6576       9.535486   8.153299   71.41586  
6576.5     9.478779   8.187338   71.47325  
6577       9.420385   8.18619    71.46701  
6577.5     9.360102   8.12937    71.41881  
6578       9.292164   8.070967   71.37059  
6578.5     9.211834   7.985734   71.35989  
6579       9.126812   7.900502   71.42332  
6579.5     9.040716   7.790942   71.48677  
6580       8.997505   7.676573   71.34909  
6580.5     8.954975   7.566043   71.1627   
6581       8.915852   7.462564   70.40915  
6581.5     8.877789   7.354276   70.39369  
6582       8.830519   7.241611   70.54439  
6582.5     8.759604   7.149901   70.82242  
6583       8.691608   7.074428   70.64845  
6583.5     8.669699   7.007788   70.39267  
6584       8.647787   6.950967   70.31735  
6584.5     8.625473   6.901731   70.24203  
6585       8.601368   6.874902   70.42163  
6585.5     8.577263   6.848072   70.62253  
6586       8.583134   6.954245   70.84637  
6586.5     8.6115     7.072788   71.08742  
6587       8.629921   7.163315   71.08061  
6587.5     8.629921   7.25384    70.91623  
6588       8.629921   7.255521   70.75185  
6588.5     8.605324   7.255521   70.70866  
6589       8.576958   7.302322   70.70866  
6589.5     8.58177    7.376624   70.70866  
6590       8.604725   7.43464    70.70866  
6590.5     8.62768    7.491462   70.70866  
6591       8.652819   7.507886   70.70866  
6591.5     8.678194   7.507886   70.88084  
6592       8.688093   7.503169   71.08167  
6592.5     8.676617   7.454865   71.22792  
6593       8.665138   7.406563   71.32065  
6593.5     8.64427    7.387563   71.33858  
6594       8.618895   7.399633   71.25243  
6594.5     8.602863   7.411705   70.89085  
6595       8.625818   7.423278   70.6255   
6595.5     8.648775   7.434778   70.38545  
6596       8.683073   7.441133   70.30511  
6596.5     8.731283   7.412723   70.23622  
6597       8.779491   7.384312   70.23622  
6597.5     8.808615   7.350377   70.26421  
6598       8.833988   7.320349   70.2977   
6598.5     8.837612   7.342301   70.33118  
6599       8.801455   7.364253   70.36465  
6599.5     8.765299   7.394074   70.40512  
6600       8.716248   7.429416   70.49118  
6600.5     8.662674   7.332797   70.50253  
6601       8.611183   7.237947   70.34183  
6601.5     8.562975   7.150168   70.26573  
6602       8.528975   7.129337   70.35182  
6602.5     8.51391    7.129337   70.23886  
6603       8.512081   7.145884   70.2043   
6603.5     8.536472   7.186128   70.5023   
6604       8.569721   7.229507   70.87302  
6604.5     8.602972   7.322385   71.13374  
6605       8.636221   7.381703   71.3192   
6605.5     8.650473   7.381703   70.79893  
6606       8.60528    7.33697    70.50047  
6606.5     8.56328    7.225517   70.41438  
6607       8.539177   7.178278   70.45911  
6607.5     8.515072   7.162444   70.54521  
6608       8.482317   7.173944   69.83749  
6608.5     8.442135   7.185444   69.17868  
6609       8.403454   7.20966    68.67259  
6609.5     8.371315   7.25355    68.8735   
6610       8.349669   7.297439   69.0744   
6610.5     8.363846   7.345406   69.4424   
6611       8.377836   7.397173   69.80661  
6611.5     8.353731   7.40045    69.96732  
6612       8.329626   7.381885   70.2019   
6612.5     8.277203   7.330441   70.60355  
6613       8.180784   7.281474   70.60394  
6613.5     8.077009   7.246982   70.46211  
6614       7.963545   7.181097   70.39369  
6614.5     7.850287   7.052336   70.39369  
6615       7.7378     6.938425   70.21532  
6615.5     7.653543   6.849471   69.20935  
6616       7.653543   6.760518   66.17198  
6616.5     7.654249   6.709821   63.48048  
6617       7.678354   6.663821   66.52982  
6617.5     7.702458   6.620649   69.57915  
6618       7.705391   6.59382    69.83453  
6618.5     7.678604   6.56699    69.90987  
6619       7.65009    6.595432   69.92126  
6619.5     7.596516   6.638047   69.92126  
6620       7.54294    6.60655    69.81572  
6620.5     7.463125   6.520317   69.60298  
6621       7.372741   6.383812   69.42116  
6621.5     7.246339   6.240352   69.32076  
6622       7.098054   6.119874   69.63219  
6622.5     7.027294   6.119874   70.11429  
6623       6.963015   6.119874   70.68658  
6623.5     7.007068   6.143435   70.94305  
6624       7.055294   6.179664   71.04355  
6624.5     7.126375   6.215168   71.11887  
6625       7.239788   6.232414   71.20967  
6625.5     7.350536   6.239329   71.37405  
6626       7.443267   6.20714    71.53844  
6626.5     7.514379   6.193902   71.74385  
6627       7.556909   6.237822   72.04509  
6627.5     7.615736   6.442216   72.56693  
6628       7.736248   6.714231   72.34219  
6628.5     7.862243   6.951172   71.77779  
6629       8.02916    7.083447   71.27573  
6629.5     8.191061   7.112829   70.90936  
6630       8.346037   7.043831   70.57452  
6630.5     8.453255   6.974832   70.29588  
6631       8.527397   6.922952   70.08324  
6631.5     8.535433   6.888458   69.8351   
6632       8.511072   6.846767   69.47354  
6632.5     8.45986    6.801483   69.79984  
6633       8.414658   6.875203   70.17661  
6633.5     8.369455   7.035408   70.23622  
6634       8.324253   7.115913   69.94308  
6634.5     8.280327   7.107614   69.45906  
6635       8.248186   6.880944   69.56387  
6635.5     8.212812   6.860499   69.66869  
6636       8.157173   6.878684   69.76378  
6636.5     8.094835   6.916807   69.76378  
6637       8.023951   6.95493    69.76378  
6637.5     7.935699   6.985905   69.97984  
6638       7.785059   7.01132    70.33443  
6638.5     7.637062   7.040224   70.60049  
6639       7.507237   7.109211   70.72737  
6639.5     7.411313   7.130587   70.85425  
