~Version
 VERS              .         3.0                           : CWLS LOG ASCII STANDARD - VERSION 3.0
 WRAP              .         NO                            : ONE LINE PER DEPTH STEP
 DLM               .         SPACE                         : DELIMITING CHARACTER(SPACE TAB OR COMMA)
~Well Information
#_______________________________________________________________________________
#
#PARAMETER_NAME    .UNIT     VALUE                         : DESCRIPTION
#_______________________________________________________________________________
STRT               .ft       3000                          : First reference value
STOP               .ft       8496                          : Last reference value
STEP               .ft       0.5                           : Step increment
NULL               .         -9999                         : Missing value
COMP               .                                       : Company
WELL               .         EGBM-007                      : Well name
FLD                .         EGBEMA                        : Field
LOC                .                                       : Location
SRVC               .                                       : Service Company
CTRY               .                                       : Country
DATE               .         1967/02/19                    : Service Date
X                  .                                       : X or East-West coordinate
Y                  .                                       : Y or North South coordinate
GDAT               .                                       : Geodetic Datum
HZCS               .                                       : Horizontal Co-ordinate System
APIN               .         10805/01                      : 
BHT                .degF     162                           : 
BLI                .ft       8250                          : 
BS                 .in       9.625                         : 
CREATION-TIME      .         2067/2/19 0_0                 : 
CSIZ               .in       10.75                         : 
DFD                .g/cm3    1.18                          : 
DFT                .         BENT. SPERSENE                : 
DFV                .s        0                             : 
ELZ                .         -999.25                       : 
FIELD-NAME         .         EGBEMA                        : 
FILE-ID            .         SOH18 .4                      : 
FILE-NUMBER        .         0                             : 
FILE-SET-NAME      .                                       : 
FILE-SET-NUMBER    .         0                             : 
FILE-TYPE          .         PTF                           : 
HIDE               .         4540_300_185_7_1_DATE_67/02/19_SOH_18_SEQ_4: 
LCC                .         0                             : 
LMF                .         1                             : 
MST                .degF     96                            : 
NAME-SPACE-NAME    .         LIS                           : 
NAME-SPACE-VERSION .         0                             : 
PRODUC             .         SHELL(PARASOL)                : 
PRODUCER-CODE      .         0                             : 
PRODUCER-NAME      .         Schlumberger                  : 
PRODUCT            .                                       : 
PROGRAMS           .         INC                           : 
R1                 .         SHELL LAB. MEASUREMENTS       : 
R2                 .         MUD 1.14 OHMS AT 77 DEGF      : 
R3                 .         FILTRATE 1.09 OHMS AT 77 DEGF : 
R4                 .         FROM 7700 TO CASING SHOE REPEATED FREE OF CHARGE.: 
R5                 .         RAN "NO CURRENT SP" GOING DOWN (STILL NOISE ON SP WITH  IN: 
R6                 .         HOLE AND TRUCK AND RIG GENERATORS OFF.): 
RMCS               .ohm.m    -999.25                       : 
RMFS               .ohm.m    -999.25                       : 
RMS                .ohm.m    0.9100001                     : 
TCS                .h        -999.25                       : 
TDD                .ft       8500                          : 
TDL                .ft       8499                          : 
TLI                .ft       7600                          : 
VERSION            .         2P01                          : 
WELL-ID            .         10805/01                      : 
WELL-NAME          .         EGBM-007                      : 
WN                 .         EGBM-007                      : 
~Parameter Information Block
#_______________________________________________________________________________
#
#PARAMETER_NAME    .UNIT     VALUE                         : DESCRIPTION
#_______________________________________________________________________________
SET                .         SOH15 _1_1                    : 
ACQUISITION-PRODUCT .         DLIS/U                        : 
CREATION-TIME      .         2026/5/13 11_54               : 
DLIS_FRAME_DIRECTION .         INCREASING                    : 
DLIS_FRAME_NAME    .         1                             : 
DLIS_FRAME_SPACING .ft       0.5                           : 
FIELD-NAME         .         EGBEMA                        : 
FILE-ID            .         SOH15 .1                      : 
FILE-NUMBER        .         1                             : 
FILE-SET-NAME      .         LIS-TO-DLIS-CONVERSION        : 
FILE-SET-NUMBER    .         946                           : 
FILE-TYPE          .         PTF                           : 
INDEX-TYPE         .         BOREHOLE-DEPTH                : 
NAME-SPACE-NAME    .                                       : 
NAME-SPACE-VERSION .         0                             : 
OriginalDatasetName .         1                             : 
PRODUCER-CODE      .         440                           : 
PRODUCER-NAME      .         Schlumberger                  : 
PRODUCT            .         DLIS/U                        : 
PROGRAMS           .         LIS-TO-DLIS                   : 
TLFamily_DEPT      .         Measured Depth                : 
TLFamily_LN        .                                       : 
TLFamily_SN        .         Resistivity - Shallow         : 
TLFamily_SP        .         Spontaneous Potential         : 
VERSION            .         0.1                           : 
WELL-ID            .         10805/01                      : 
WELL-NAME          .         EGBM-007                      : 
~Curve Information
#_______________________________________________________________________________
#
#LOGNAME           .UNIT     LOG_ID                        : DESCRIPTION
#_______________________________________________________________________________
DEPT               .ft                                     :  {F}
LN                 .ohm.m                                  :  {F}
SN                 .ohm.m                                  :  {F}
SP                 .mV                                     :  {F}
~Ascii
# ...
5184       1.545741   1.268752   83.72948  
5184.5     1.559797   1.256134   83.65404  
5185       1.574884   1.306612   83.545    
5185.5     1.586111   1.362714   83.32555  
5186       1.596605   1.381579   83.45529  
5186.5     1.6071     1.341575   83.3804   
5187       1.608832   1.293363   82.9653   
5187.5     1.608832   1.267189   82.9653   
5188       1.611024   1.289212   82.70139  
5188.5     1.635158   1.295553   82.76106  
5189       1.659291   1.291746   82.31494  
5189.5     1.703876   1.302462   82.01892  
5190       1.770922   1.381107   81.38661  
5190.5     1.839631   1.576723   80.64885  
5191       1.920086   1.793785   81.19304  
5191.5     2.000542   1.891894   81.66829  
5192       2.11209    1.859      79.79732  
5192.5     2.224623   1.783996   77.81485  
5193       2.305078   1.684927   76.1812   
5193.5     2.369792   1.696437   77.27675  
5194       2.425487   1.785753   79.24559  
5194.5     2.471412   1.930362   82.31757  
5195       2.516675   2.184027   83.31018  
5195.5     2.591683   2.766289   83.03     
5196       2.672118   3.513612   83.43848  
5196.5     2.788191   4.75215    82.98328  
5197       2.978691   6.188765   81.34105  
5197.5     3.246266   7.500158   79.33885  
5198       3.58401    7.795527   79.47299  
5198.5     3.898727   7.373327   79.38348  
5199       4.165007   6.807178   78.31795  
5199.5     4.299904   6.298192   76.01344  
5200       4.320018   5.756162   75.26604  
5200.5     4.290409   5.142673   75.93622  
5201       4.209933   4.739014   76.94154  
5201.5     4.14329    4.197299   77.12933  
5202       4.103066   3.797777   77.91124  
5202.5     4.120304   3.508828   78.39706  
5203       4.150172   3.236464   79.10022  
5203.5     4.210524   3.008076   78.26645  
5204       4.277439   2.960629   80.33806  
5204.5     4.370263   3.13527    82.32983  
5205       4.500435   3.376305   82.49211  
5205.5     4.667518   3.624107   81.96643  
5206       4.836141   3.935226   82.0056   
5206.5     5.0084     4.417123   81.35583  
5207       5.183086   5.212104   80.36101  
5207.5     5.343997   6.028079   78.27527  
5208       5.489701   6.718063   76.64369  
5208.5     5.619656   6.892119   76.3407   
5209       5.646688   6.634464   76.23227  
5209.5     5.611534   6.327571   75.75896  
5210       5.560139   6.026338   75.24184  
5210.5     5.605402   5.679754   75.35156  
5211       5.655966   5.246972   75.30228  
5211.5     5.76153    4.712006   75.80426  
5212       5.867095   4.303922   78.31795  
5212.5     5.95768    4.267696   79.46167  
5213       6.048206   4.702739   79.82318  
5213.5     6.224845   5.519108   79.92154  
5214       6.457575   6.608052   78.23155  
5214.5     6.900505   7.693458   77.59021  
5215       7.431294   8.301022   76.8669   
5215.5     7.935239   8.595936   76.41896  
5216       8.269806   8.771111   75.90112  
5216.5     8.46731    8.860048   74.53296  
5217       8.56778    8.846426   72.92149  
5217.5     8.599955   8.811987   73.97476  
5218       8.565475   8.787401   73.97476  
5218.5     8.491173   8.787401   73.7699   
5219       8.261902   8.817631   73.40662  
5219.5     8.016624   8.910309   74.34538  
5220       7.758063   8.995277   74.58682  
5220.5     7.484104   9.070868   74.48212  
5221       7.186895   9.068304   73.54816  
5221.5     6.965026   8.880793   72.84828  
5222       6.775415   8.379051   72.69069  
5222.5     6.632635   7.683705   73.90884  
5223       6.496845   7.034837   74.33879  
5223.5     6.393728   6.438225   75.44165  
5224       6.299864   5.919587   76.08904  
5224.5     6.200985   5.534123   78.06746  
5225       6.09537    5.252798   78.86435  
5225.5     6.003119   5.0591     78.8544   
5226       5.937285   4.913385   78.72025  
5226.5     5.906505   4.920274   78.57114  
5227       5.879685   5.101126   77.39177  
5227.5     5.867507   5.358869   77.89072  
5228       5.867507   5.683947   76.39647  
5228.5     5.911291   5.975612   74.24309  
5229       5.963003   6.072107   73.50703  
5229.5     6.014744   6.09674    73.83621  
5230       6.062107   6.0646     74.11456  
5230.5     6.090505   6.025069   73.99281  
5231       6.118902   5.97686    73.84193  
5231.5     6.134445   5.922627   73.81703  
5232       6.149533   5.862371   73.81703  
5232.5     6.093853   5.802116   73.94766  
5233       5.966392   5.74186    74.16064  
5233.5     5.728862   5.633615   74.39146  
5234       5.477291   5.429042   74.65002  
5234.5     5.276153   5.258031   74.98938  
5235       5.080184   5.239485   75.42271  
5235.5     4.927444   5.218719   75.8734   
5236       4.853185   5.186687   75.94884  
5236.5     4.853786   5.077135   76.02428  
5237       4.896384   4.701048   76.38277  
5237.5     4.949224   4.107813   77.31961  
5238       5.01627    3.825845   78.90933  
5238.5     5.084875   3.873604   79.29391  
5239       5.175402   4.060874   79.60912  
5239.5     5.265928   4.494757   80.11176  
5240       5.346649   5.065723   78.80069  
5240.5     5.425867   5.530174   77.11078  
5241       5.425867   5.771261   76.40027  
5241.5     5.35611    5.964108   75.78665  
5242       5.235448   6.238017   74.84474  
5242.5     5.107835   6.518978   74.82272  
5243       4.977154   6.73592    75.3333   
5243.5     4.832297   6.6351     75.92345  
5244       4.564672   6.250349   76.81084  
5244.5     4.186414   5.367588   77.51482  
5245       3.601533   4.604465   78.23203  
5245.5     3.190227   3.888798   78.91454  
5246       2.978813   3.483935   79.60278  
5246.5     2.918471   3.363367   81.52032  
5247       2.914799   3.213625   82.05725  
5247.5     2.932036   3.029482   81.77585  
5248       3.012789   2.761608   81.28473  
5248.5     3.146871   2.7101     81.74202  
5249       3.373155   3.004761   81.74327  
5249.5     3.840721   3.283666   81.12627  
5250       4.452334   3.307086   81.60875  
5250.5     5.056071   3.332512   82.24255  
5251       5.475444   3.366951   82.03731  
5251.5     5.615142   3.489601   81.83038  
5252       5.615142   3.729663   81.29286  
5252.5     5.681189   4.127968   80.63452  
5253       5.800381   4.613976   79.58801  
5253.5     6.00307    5.158695   78.10634  
5254       6.298196   5.711586   75.95773  
5254.5     6.686695   6.1523     74.67223  
5255       7.051135   6.486588   74.18454  
5255.5     7.354874   6.834044   73.9834   
5256       7.668468   7.235854   74.20564  
5256.5     7.984408   7.650522   74.29022  
5257       8.307812   8.047304   74.04704  
5257.5     8.627575   8.156345   73.66367  
5258       8.824501   8.087311   73.78438  
5258.5     8.877083   7.966817   73.487    
5259       8.836855   7.948562   73.34384  
5259.5     8.94969    8.035812   73.53636  
5260       9.115742   8.116175   73.18239  
5260.5     9.406408   8.09342    72.05273  
5261       9.618883   8.055119   72.58418  
5261.5     9.739506   8.011297   72.7048   
5262       9.785175   7.880713   72.78798  
5262.5     9.778687   7.879272   72.86847  
5263       9.690968   7.999764   72.59981  
5263.5     9.634813   8.030083   72.36447  
5264       9.636557   7.852774   72.24374  
5264.5     9.630964   7.698598   72.82295  
5265       9.513611   7.580794   72.31483  
5265.5     9.41704    7.492063   72.29378  
5266       9.367239   7.371569   72.53812  
5266.5     9.326052   7.381798   72.48157  
5267       9.282164   7.534063   72.40109  
5267.5     9.382973   7.665525   72.25343  
5268       9.5156     7.669246   72.10251  
5268.5     9.635994   7.638761   71.48611  
5269       9.666693   7.542341   71.22194  
5269.5     9.583714   7.471906   70.94177  
5270       9.426611   7.451001   70.5985   
5270.5     9.274448   7.494822   69.68159  
5271       9.274448   7.579721   69.78052  
5271.5     9.299328   7.650106   70.84378  
5272       9.333801   7.626001   71.85568  
5272.5     9.352917   7.546456   71.61426  
5273       9.369085   7.338949   69.30481  
5273.5     9.369085   7.392524   70.68501  
5274       9.371128   7.46836    72.04355  
5274.5     9.391241   7.480268   71.90721  
