~Version
 VERS              .         3.0                           : CWLS LOG ASCII STANDARD - VERSION 3.0
 WRAP              .         NO                            : ONE LINE PER DEPTH STEP
 DLM               .         SPACE                         : DELIMITING CHARACTER(SPACE TAB OR COMMA)
~Well Information
#_______________________________________________________________________________
#
#PARAMETER_NAME    .UNIT     VALUE                         : DESCRIPTION
#_______________________________________________________________________________
STRT               .ft       3001                          : First reference value
STOP               .ft       8404                          : Last reference value
STEP               .ft       0.5                           : Step increment
NULL               .         -9999                         : Missing value
COMP               .                                       : Company
WELL               .         EGBM-006                      : Well name
FLD                .         EGBEMA                        : Field
LOC                .                                       : Location
SRVC               .                                       : Service Company
CTRY               .                                       : Country
DATE               .         1967/01/30                    : Service Date
X                  .                                       : X or East-West coordinate
Y                  .                                       : Y or North South coordinate
GDAT               .                                       : Geodetic Datum
HZCS               .                                       : Horizontal Co-ordinate System
APIN               .         10804/01                      : 
BHT                .degF     171                           : 
BLI                .ft       8000                          : 
BS                 .in       9.625                         : 
CREATION-TIME      .         2067/1/30 0_0                 : 
CSIZ               .in       10.75                         : 
DFD                .g/cm3    1.19                          : 
DFT                .         BENTONITE SPERSENE XP-20      : 
DFV                .s        0                             : 
ELZ                .         -999.25                       : 
FIELD-NAME         .         EGBEMA                        : 
FILE-ID            .         SOH21 .4                      : 
FILE-NUMBER        .         101                           : 
FILE-SET-NAME      .                                       : 
FILE-SET-NUMBER    .         0                             : 
FILE-TYPE          .         PTF                           : 
HIDE               .         4540_300_185_6_1_DATE_67/01/30_SOH_21_SEQ_4: 
LCC                .         0                             : 
LMF                .         1                             : 
MCST               .degF     69                            : 
MFST               .degF     69                            : 
MST                .degF     92                            : 
NAME-SPACE-NAME    .         LIS                           : 
NAME-SPACE-VERSION .         0                             : 
PRODUC             .         SHELL(PARASOL)                : 
PRODUCER-CODE      .         0                             : 
PRODUCER-NAME      .         Schlumberger                  : 
PRODUCT            .                                       : 
PROGRAMS           .                                       : 
R1                 .         INFORMATION NOT AVAILABLE     : 
R2                 .         RERUNS ON 200 SCALE FROM 3950 TO CSG SHOE 5950 TO 5400: 
R3                 .         CALIPER CURVE IS RECORDING 1/4" TOO BIG ACCORDING TO CASING CHECK: 
R4                 .         PREVIOUS LOG                  : 
R5                 .         LATER                         : 
RMCS               .ohm.m    1.27                          : 
RMFS               .ohm.m    1.05                          : 
RMS                .ohm.m    1.09                          : 
TCS                .h        -999.25                       : 
TDD                .ft       8400                          : 
TDL                .ft       8400                          : 
TLI                .ft       5100                          : 
VERSION            .         2P01                          : 
WELL-ID            .         10804/01                      : 
WELL-NAME          .         EGBM-006                      : 
WN                 .         EGBM-006                      : 
~Parameter Information Block
#_______________________________________________________________________________
#
#PARAMETER_NAME    .UNIT     VALUE                         : DESCRIPTION
#_______________________________________________________________________________
SET                .         SOH18 _1_1                    : 
ACQUISITION-PRODUCT .         DLIS/U                        : 
CREATION-TIME      .         2026/5/13 10_46               : 
DLIS_FRAME_DIRECTION .         INCREASING                    : 
DLIS_FRAME_NAME    .         1                             : 
DLIS_FRAME_SPACING .ft       0.5                           : 
FIELD-NAME         .         EGBEMA                        : 
FILE-ID            .         SOH18 .1                      : 
FILE-NUMBER        .         1                             : 
FILE-SET-NAME      .         LIS-TO-DLIS-CONVERSION        : 
FILE-SET-NUMBER    .         9939                          : 
FILE-TYPE          .         PTF                           : 
INDEX-TYPE         .         BOREHOLE-DEPTH                : 
NAME-SPACE-NAME    .                                       : 
NAME-SPACE-VERSION .         0                             : 
OriginalDatasetName .         1                             : 
PRODUCER-CODE      .         440                           : 
PRODUCER-NAME      .         Schlumberger                  : 
PRODUCT            .         DLIS/U                        : 
PROGRAMS           .         LIS-TO-DLIS                   : 
TLFamily_DEPT      .         Measured Depth                : 
TLFamily_LN        .                                       : 
TLFamily_SN        .         Resistivity - Shallow         : 
TLFamily_SP        .         Spontaneous Potential         : 
VERSION            .         0.1                           : 
WELL-ID            .         10804/01                      : 
WELL-NAME          .         EGBM-006                      : 
~Curve Information
#_______________________________________________________________________________
#
#LOGNAME           .UNIT     LOG_ID                        : DESCRIPTION
#_______________________________________________________________________________
DEPT               .ft                                     :  {F}
LN                 .ohm.m                                  :  {F}
SN                 .ohm.m                                  :  {F}
SP                 .mV                                     :  {F}
~Ascii
# ...
4730       1.912226   2.247095   49.10994  
4730.5     1.912226   2.295304   49.10994  
4731       1.690781   2.500556   49.13815  
4731.5     1.463566   2.797988   49.18109  
4732       1.131962   3.179788   49.22403  
4732.5     0.7849048  3.60135    49.26697  
4733       0.7225842  4.02665    49.31923  
4733.5     0.9024739  4.268763   49.37151  
4734       1.101262   4.328656   49.42377  
4734.5     1.324062   4.045344   49.42407  
4735       1.523438   3.573949   49.42407  
4735.5     1.707923   3.169368   49.36256  
4736       1.765163   2.818023   49.24236  
4736.5     1.810143   2.520693   49.12215  
4737       1.798478   2.380487   49.0464   
4737.5     1.774487   2.281207   48.97566  
4738       1.74397    2.23622    48.90495  
4738.5     1.688609   2.23622    48.83424  
4739       1.633247   2.188489   48.76352  
4739.5     1.577887   2.12199    48.69281  
4740       1.537485   2.055491   48.63873  
4740.5     1.500582   1.988993   48.63873  
4741       1.463677   1.941614   48.63873  
4741.5     1.426773   1.895704   48.63873  
4742       1.38987    1.858268   48.63873  
4742.5     1.372175   1.858268   48.63873  
4743       1.362182   1.858268   48.63873  
4743.5     1.352188   1.856298   48.57776  
4744       1.335372   1.845339   48.51448  
4744.5     1.313557   1.83438    48.48167  
4745       1.291742   1.826771   48.48167  
4745.5     1.285266   1.826771   48.67769  
4746       1.285266   1.826771   48.97818  
4746.5     1.285266   1.843461   49.07925  
4747       1.293542   1.867565   49.0246   
4747.5     1.303536   1.889764   48.96996  
4748       1.31353    1.889764   48.8537   
4748.5     1.34979    1.889764   48.70946  
4749       1.397772   1.916729   48.5652   
4749.5     1.464634   1.961921   48.44904  
4750       1.539272   2.003016   48.37148  
4750.5     1.639274   2.040108   48.29393  
4751       1.668023   2.063473   48.21638  
4751.5     1.572476   2.122167   48.16754  
4752       1.372474   2.302934   48.16754  
4752.5     1.205508   2.524247   48.16754  
4753       1.051344   2.957454   48.16754  
4753.5     1.151015   3.218877   48.12863  
4754       1.298668   3.326026   48.07397  
4754.5     1.450795   3.205533   48.01933  
4755       1.504702   2.889318   47.96468  
4755.5     1.504702   2.6475     47.91002  
4756       1.530287   2.551181   47.85538  
4756.5     1.597588   2.551181   47.76428  
4757       1.730839   2.638768   47.67181  
4757.5     1.864091   2.746584   47.57936  
4758       2.028868   2.818897   47.49063  
4758.5     2.198188   2.891212   47.40475  
4759       2.433187   3.072485   47.31888  
4759.5     2.622422   3.373905   47.233    
4760       2.522205   3.675325   47.08867  
4760.5     2.316581   4.167286   46.93843  
4761       2.110956   4.726872   46.54239  
4761.5     1.834968   5.375992   46.09145  
4762       1.489263   6.069169   45.63232  
4762.5     0.9718337  6.796911   45.18324  
4763       0.4067818  7.688783   45.18324  
4763.5     0.4710559  9.345009   45.25369  
4764       1.012509   10.79023   45.60735  
4764.5     1.819386   11.53119   45.96098  
4765       2.890711   11.85238   46.02739  
4765.5     4.146928   11.94556   46.08749  
4766       5.490438   12.02227   46.10254  
4766.5     6.720996   12.09706   46.03926  
4767       7.658504   12.14088   45.976    
4767.5     8.184523   12.10301   46.08229  
4768       8.424404   12.01128   46.21111  
4768.5     8.539572   11.90173   46.3399   
4769       8.629858   11.79217   46.39323  
4769.5     8.664116   11.69719   46.18597  
4770       8.654226   11.63468   45.9787   
4770.5     8.587572   11.57218   45.77144  
4771       8.520138   11.50968   45.6335   
4771.5     8.444401   11.45835   45.58542  
4772       8.368662   11.41014   45.53734  
4772.5     8.300011   11.36365   45.49738  
4773       8.236032   11.32559   45.49738  
4773.5     8.183804   11.28752   45.43451  
4774       8.138109   11.25817   45.33     
4774.5     8.092415   11.23279   45.22549  
4775       8.11857    11.17816   45.09897  
4775.5     8.155222   11.00943   44.95752  
4776       8.22374    10.91097   44.89284  
4776.5     8.249365   10.84627   44.9561   
4777       8.138609   10.78601   45.01938  
4777.5     8.087774   10.79002   44.87288  
4778       8.070297   10.82509   44.70114  
4778.5     8.023104   10.84825   44.52939  
4779       7.988827   10.72773   44.35948  
4779.5     7.962382   10.72558   44.19559  
4780       7.962382   10.74016   44.03169  
4780.5     7.962382   10.74016   43.89789  
4781       7.920309   10.63925   43.8177   
4781.5     7.863845   10.54036   43.84093  
4782       7.778307   10.50019   44.019    
4782.5     7.666404   10.51637   44.19705  
4783       7.389856   10.56193   44.37512  
4783.5     6.985762   10.6423    44.47279  
4784       6.569057   10.72266   44.55496  
4784.5     6.0094     10.82715   44.55496  
4785       5.490632   10.91802   44.53001  
4785.5     4.987739   10.78408   44.22939  
4786       4.384148   10.39989   43.92876  
4786.5     3.954342   10.01237   43.50027  
4787       3.992776   9.639679   43.12059  
4787.5     4.078165   9.267204   42.99405  
4788       4.198166   8.303482   42.86751  
4788.5     4.364999   7.012012   42.89551  
4789       4.399906   6.159648   42.99568  
4789.5     4.2383     5.453951   43.09587  
4790       3.737858   5.068276   43.14136  
4790.5     3.330007   4.923941   43.14136  
4791       3.066477   4.989125   43.14136  
4791.5     2.928906   5.125447   43.16376  
4792       2.888931   5.017941   43.2184   
4792.5     2.884012   4.618429   43.27303  
4793       2.839591   4.044902   43.46997  
4793.5     2.695889   3.696444   43.79053  
4794       2.677429   3.478491   44.03587  
4794.5     2.62816    3.371025   44.22569  
4795       2.508255   3.342822   44.37001  
4795.5     2.312522   3.375111   44.06938  
4796       2.032519   3.48028    43.9267   
4796.5     1.819988   3.648893   43.9267   
4797       1.631312   3.804616   43.26556  
4797.5     1.647306   3.865402   42.17291  
4798       1.664376   3.8268     41.61928  
4798.5     1.689632   3.59545    41.72351  
4799       1.714889   3.419704   42.44476  
4799.5     1.731378   3.271334   43.07822  
4800       1.742802   3.126019   43.61256  
4800.5     1.754225   2.992528   44.1506   
4801       1.723482   2.870395   44.71619  
4801.5     1.687509   2.756461   45.28177  
4802       1.641621   2.670386   45.62392  
4802.5     1.569647   2.603417   45.94028  
4803       1.497673   2.554194   46.09946  
4803.5     1.458915   2.532764   46.03618  
4804       1.437108   2.532283   45.9729   
4804.5     1.4153     2.532283   45.90964  
4805       1.403105   2.524177   45.84636  
4805.5     1.393508   2.501921   45.73787  
4806       1.383911   2.466409   45.57391  
4806.5     1.374507   2.429026   45.40996  
4807       1.36528    2.403767   45.34032  
4807.5     1.356053   2.393701   45.34032  
4808       1.345854   2.392806   45.34032  
4808.5     1.32872    2.383164   45.34032  
4809       1.311586   2.363877   45.35249  
4809.5     1.294452   2.346804   45.39873  
4810       1.277847   2.338766   45.44496  
4810.5     1.261852   2.340431   45.4912   
4811       1.245858   2.34699    45.49738  
4811.5     1.229864   2.357705   45.49738  
4812       1.22257    2.36842    45.49738  
4812.5     1.22257    2.368504   45.43462  
4813       1.22257    2.352459   45.33011  
4813.5     1.22257    2.32729    45.2256   
4814       1.22257    2.320409   45.09387  
4814.5     1.230878   2.328448   44.9436   
4815       1.239445   2.322188   44.79333  
4815.5     1.248012   2.311027   44.64006  
4816       1.246823   2.299389   44.48325  
4816.5     1.223976   2.287752   44.32643  
4817       1.201129   2.276114   44.32271  
4817.5     1.183457   2.264056   44.50302  
4818       1.169748   2.250906   44.68333  
4818.5     1.156038   2.237755   44.758    
4819       1.142329   2.223043   44.81264  
4819.5     1.12862    2.206031   44.86729  
4820       1.148381   2.186383   44.89677  
4820.5     1.168373   2.154939   44.9254   
