~Version
 VERS              .         3.0                           : CWLS LOG ASCII STANDARD - VERSION 3.0
 WRAP              .         NO                            : ONE LINE PER DEPTH STEP
 DLM               .         SPACE                         : DELIMITING CHARACTER(SPACE TAB OR COMMA)
~Well Information
#_______________________________________________________________________________
#
#PARAMETER_NAME    .UNIT     VALUE                         : DESCRIPTION
#_______________________________________________________________________________
STRT               .ft       3001                          : First reference value
STOP               .ft       8404                          : Last reference value
STEP               .ft       0.5                           : Step increment
NULL               .         -9999                         : Missing value
COMP               .                                       : Company
WELL               .         EGBM-006                      : Well name
FLD                .         EGBEMA                        : Field
LOC                .                                       : Location
SRVC               .                                       : Service Company
CTRY               .                                       : Country
DATE               .         1967/01/30                    : Service Date
X                  .                                       : X or East-West coordinate
Y                  .                                       : Y or North South coordinate
GDAT               .                                       : Geodetic Datum
HZCS               .                                       : Horizontal Co-ordinate System
APIN               .         10804/01                      : 
BHT                .degF     171                           : 
BLI                .ft       8000                          : 
BS                 .in       9.625                         : 
CREATION-TIME      .         2067/1/30 0_0                 : 
CSIZ               .in       10.75                         : 
DFD                .g/cm3    1.19                          : 
DFT                .         BENTONITE SPERSENE XP-20      : 
DFV                .s        0                             : 
ELZ                .         -999.25                       : 
FIELD-NAME         .         EGBEMA                        : 
FILE-ID            .         SOH21 .4                      : 
FILE-NUMBER        .         101                           : 
FILE-SET-NAME      .                                       : 
FILE-SET-NUMBER    .         0                             : 
FILE-TYPE          .         PTF                           : 
HIDE               .         4540_300_185_6_1_DATE_67/01/30_SOH_21_SEQ_4: 
LCC                .         0                             : 
LMF                .         1                             : 
MCST               .degF     69                            : 
MFST               .degF     69                            : 
MST                .degF     92                            : 
NAME-SPACE-NAME    .         LIS                           : 
NAME-SPACE-VERSION .         0                             : 
PRODUC             .         SHELL(PARASOL)                : 
PRODUCER-CODE      .         0                             : 
PRODUCER-NAME      .         Schlumberger                  : 
PRODUCT            .                                       : 
PROGRAMS           .                                       : 
R1                 .         INFORMATION NOT AVAILABLE     : 
R2                 .         RERUNS ON 200 SCALE FROM 3950 TO CSG SHOE 5950 TO 5400: 
R3                 .         CALIPER CURVE IS RECORDING 1/4" TOO BIG ACCORDING TO CASING CHECK: 
R4                 .         PREVIOUS LOG                  : 
R5                 .         LATER                         : 
RMCS               .ohm.m    1.27                          : 
RMFS               .ohm.m    1.05                          : 
RMS                .ohm.m    1.09                          : 
TCS                .h        -999.25                       : 
TDD                .ft       8400                          : 
TDL                .ft       8400                          : 
TLI                .ft       5100                          : 
VERSION            .         2P01                          : 
WELL-ID            .         10804/01                      : 
WELL-NAME          .         EGBM-006                      : 
WN                 .         EGBM-006                      : 
~Parameter Information Block
#_______________________________________________________________________________
#
#PARAMETER_NAME    .UNIT     VALUE                         : DESCRIPTION
#_______________________________________________________________________________
SET                .         SOH18 _1_1                    : 
ACQUISITION-PRODUCT .         DLIS/U                        : 
CREATION-TIME      .         2026/5/13 10_46               : 
DLIS_FRAME_DIRECTION .         INCREASING                    : 
DLIS_FRAME_NAME    .         1                             : 
DLIS_FRAME_SPACING .ft       0.5                           : 
FIELD-NAME         .         EGBEMA                        : 
FILE-ID            .         SOH18 .1                      : 
FILE-NUMBER        .         1                             : 
FILE-SET-NAME      .         LIS-TO-DLIS-CONVERSION        : 
FILE-SET-NUMBER    .         9939                          : 
FILE-TYPE          .         PTF                           : 
INDEX-TYPE         .         BOREHOLE-DEPTH                : 
NAME-SPACE-NAME    .                                       : 
NAME-SPACE-VERSION .         0                             : 
OriginalDatasetName .         1                             : 
PRODUCER-CODE      .         440                           : 
PRODUCER-NAME      .         Schlumberger                  : 
PRODUCT            .         DLIS/U                        : 
PROGRAMS           .         LIS-TO-DLIS                   : 
TLFamily_DEPT      .         Measured Depth                : 
TLFamily_LN        .                                       : 
TLFamily_SN        .         Resistivity - Shallow         : 
TLFamily_SP        .         Spontaneous Potential         : 
VERSION            .         0.1                           : 
WELL-ID            .         10804/01                      : 
WELL-NAME          .         EGBM-006                      : 
~Curve Information
#_______________________________________________________________________________
#
#LOGNAME           .UNIT     LOG_ID                        : DESCRIPTION
#_______________________________________________________________________________
DEPT               .ft                                     :  {F}
LN                 .ohm.m                                  :  {F}
SN                 .ohm.m                                  :  {F}
SP                 .mV                                     :  {F}
~Ascii
# ...
6550       5.645446   8.88446    38.9839   
6550.5     5.707326   8.892767   38.81264  
6551       5.782139   8.891768   38.81064  
6551.5     5.865693   8.854691   38.81064  
6552       5.949247   8.810207   38.81064  
6552.5     6.015748   8.758575   38.79181  
6553       6.015748   8.703814   38.53487  
6553.5     6.002549   8.647587   38.27792  
6554       5.948915   8.591362   38.02097  
6554.5     5.895281   8.535135   37.84027  
6555       5.841646   8.439911   37.76532  
6555.5     5.812238   8.332811   37.77188  
6556       5.792127   8.225712   37.94318  
6556.5     5.772016   8.137552   37.99364  
6557       5.751904   8.108345   37.92511  
6557.5     5.731956   8.079138   37.85658  
6558       5.718549   8.049929   37.78806  
6558.5     5.705141   8.020721   37.71953  
6559       5.691733   7.989436   38.16429  
6559.5     5.678326   7.95801    38.64383  
6560       5.659451   7.926584   39.01524  
6560.5     5.62928    8.021053   39.28012  
6561       5.599111   8.124336   38.8777   
6561.5     5.57841    8.219254   37.78757  
6562       5.596972   8.279488   36.93494  
6562.5     5.615535   8.339722   37.04915  
6563       5.634097   8.374159   37.16338  
6563.5     5.656203   8.390219   37.24568  
6564       5.679192   8.349087   37.24568  
6564.5     5.695917   8.273779   37.36426  
6565       5.62106    8.238995   37.73328  
6565.5     5.560719   8.238995   37.76466  
6566       5.496046   8.304264   38.04677  
6566.5     5.412837   8.39607    38.5132   
6567       5.329628   8.487877   38.87749  
6567.5     5.246418   8.490566   39.062    
6568       5.212257   8.490566   38.82439  
6568.5     5.250365   8.592495   38.77827  
6569       5.288473   8.728048   38.97816  
6569.5     5.347131   8.800247   39.17804  
6570       5.40746    8.781452   39.16275  
6570.5     5.48677    8.752317   38.92285  
6571       5.607459   8.692799   38.66048  
6571.5     5.728149   8.789173   38.37834  
6572       5.848839   8.885548   38.26817  
6572.5     5.957128   8.941927   38.39371  
6573       6.064366   8.962879   37.74545  
6573.5     6.172403   8.983829   38.06516  
6574       6.281036   8.986639   38.28648  
6574.5     6.389669   8.973251   37.88661  
6575       6.403381   8.959866   37.16739  
6575.5     6.413434   8.94648    36.41013  
6576       6.423488   8.933092   36.21022  
6576.5     6.41184    8.975981   36.01033  
6577       6.395751   9.030388   36.14368  
6577.5     6.379662   9.084795   36.30721  
6578       6.363571   9.1392     36.47354  
6578.5     6.362205   9.177193   36.69835  
6579       6.362205   9.210667   36.92316  
6579.5     6.362205   9.244139   37.14795  
6580       6.362205   9.277613   37.37276  
6580.5     6.355663   9.309484   37.10442  
6581       6.325493   9.324539   36.76047  
6581.5     6.305098   9.339594   36.3857   
6582       6.350753   9.366348   36.01093  
6582.5     6.396407   9.393127   35.28539  
6583       6.442062   9.363403   34.54295  
6583.5     6.487718   9.302021   33.92513  
6584       6.542297   9.227867   33.76526  
6584.5     6.617723   9.169968   33.71454  
6585       6.661427   9.137848   33.94417  
6585.5     6.587156   9.143806   33.75972  
6586       6.523534   9.200512   33.57526  
6586.5     6.469914   9.257217   33.39079  
6587       6.429912   9.313921   32.94814  
6587.5     6.458315   9.370626   32.38866  
6588       6.486718   9.433432   32.44405  
6588.5     6.488189   9.496283   32.7263   
6589       6.488189   9.559135   32.43839  
6589.5     6.472794   9.54384    31.60855  
6590       6.439884   9.527777   31.7348   
6590.5     6.406974   9.511711   32.07747  
6591       6.378928   9.500738   32.35429  
6591.5     6.354172   9.55237    31.82146  
6592       6.329414   9.568779   31.76839  
6592.5     6.304658   9.478411   31.76839  
6593       6.279902   9.373569   31.76839  
6593.5     6.2896     9.198765   32.0378   
6594       6.332695   9.069071   32.33766  
6594.5     6.37579    8.943239   32.55086  
6595       6.418883   8.822763   32.55086  
6595.5     6.39224    8.728552   32.55086  
6596       6.353625   8.652456   32.80132  
6596.5     6.315012   8.583675   33.17035  
6597       6.262807   8.572723   33.60287  
6597.5     6.201189   8.561771   33.38484  
6598       6.139571   8.545534   33.16682  
6598.5     6.077952   8.512674   33.00577  
6599       6.016335   8.479816   32.96135  
6599.5     5.954717   8.447227   32.91693  
6600       5.904921   8.415098   32.87251  
6600.5     5.869169   8.382971   33.26581  
6601       5.833418   8.350842   33.62845  
6601.5     5.797667   8.314264   33.5535   
6602       5.761916   8.272364   33.52228  
6602.5     5.726165   8.230463   33.73811  
6603       5.690413   8.195414   33.95396  
6603.5     5.67378    8.168634   34.1698   
6604       5.68475    8.137249   34.38565  
6604.5     5.69572    8.066383   34.60149  
6605       5.680494   7.995518   34.81734  
6605.5     5.642782   7.871005   35.03455  
6606       5.605069   7.769156   35.15718  
6606.5     5.567356   7.706167   34.87173  
6607       5.528732   7.826642   34.58629  
6607.5     5.488505   7.944459   34.37067  
6608       5.448278   8.050758   34.24103  
6608.5     5.434005   8.157055   34.11137  
6609       5.506392   8.263353   33.98172  
6609.5     5.578777   8.369652   33.85207  
6610       5.651163   8.412655   33.8268   
6610.5     5.698736   8.434561   33.86548  
6611       5.692212   8.456467   33.90416  
6611.5     5.685689   8.476061   33.94284  
6612       5.679166   8.495338   34.01668  
6612.5     5.672642   8.514614   34.11653  
6613       5.664597   8.486656   34.21059  
6613.5     5.654943   8.429276   34.30466  
6614       5.645289   8.371897   34.39871  
6614.5     5.610807   8.200647   34.49277  
6615       5.490126   7.956812   34.58682  
6615.5     5.367347   7.732483   34.68088  
6616       5.231211   7.547206   34.83424  
6616.5     5.095074   7.465714   35.09651  
6617       4.958938   7.405469   35.3588   
6617.5     4.822802   7.378758   35.62106  
6618       4.686584   7.363697   35.85229  
6618.5     4.548681   7.384761   35.93794  
6619       4.448943   7.424912   35.88371  
6619.5     4.485511   7.459824   35.56813  
6620       4.522078   7.482775   35.25256  
6620.5     4.558644   7.505727   35.8627   
6621       4.595211   7.515723   36.02048  
6621.5     4.64512    7.515723   36.05289  
6622       4.696313   7.515723   36.08531  
6622.5     4.747506   7.530614   36.11772  
6623       4.7987     7.565036   36.15013  
6623.5     4.83716    7.599457   36.22495  
6624       4.867324   7.633879   36.2999   
6624.5     4.897487   7.611896   36.37483  
6625       4.927649   7.573847   36.44977  
6625.5     4.939436   7.511174   36.52472  
6626       4.926733   7.390721   36.59966  
6626.5     4.914031   7.389632   36.70142  
6627       4.901328   7.432152   36.81297  
6627.5     4.888625   7.472374   36.92453  
6628       4.917319   7.510422   37.03609  
6628.5     4.992744   7.54305    37.14764  
6629       5.060639   7.422537   37.28198  
6629.5     5.116342   7.294057   37.58176  
6630       5.090334   7.214135   37.88153  
6630.5     5.026846   7.257947   38.1813   
6631       4.961816   7.411887   38.46109  
6631.5     4.890807   7.587759   38.71805  
6632       4.819799   7.880342   38.73929  
6632.5     4.818897   8.162376   38.62775  
6633       4.880593   8.403284   38.51622  
6633.5     4.971104   8.644192   38.40468  
6634       5.062981   8.823189   38.29314  
6634.5     5.155792   8.906704   38.17294  
6635       5.248603   8.93207    37.74469  
6635.5     5.337151   8.957434   37.29547  
6636       5.408663   8.991524   36.76241  
6636.5     5.480175   9.027664   36.22935  
6637       5.551687   9.05378    35.95001  
6637.5     5.641348   9.039608   35.7149   
6638       5.739677   9.025434   35.4798   
6638.5     5.838006   8.946424   35.24469  
6639       5.930192   8.855026   35.00958  
6639.5     5.988454   8.747927   34.77448  
6640       6.046716   8.640827   34.58528  
6640.5     6.104977   8.533728   34.58528  
