~Version
 VERS              .         3.0                           : CWLS LOG ASCII STANDARD - VERSION 3.0
 WRAP              .         NO                            : ONE LINE PER DEPTH STEP
 DLM               .         SPACE                         : DELIMITING CHARACTER(SPACE TAB OR COMMA)
~Well Information
#_______________________________________________________________________________
#
#PARAMETER_NAME    .UNIT     VALUE                         : DESCRIPTION
#_______________________________________________________________________________
STRT               .ft       3001                          : First reference value
STOP               .ft       8404                          : Last reference value
STEP               .ft       0.5                           : Step increment
NULL               .         -9999                         : Missing value
COMP               .                                       : Company
WELL               .         EGBM-006                      : Well name
FLD                .         EGBEMA                        : Field
LOC                .                                       : Location
SRVC               .                                       : Service Company
CTRY               .                                       : Country
DATE               .         1967/01/30                    : Service Date
X                  .                                       : X or East-West coordinate
Y                  .                                       : Y or North South coordinate
GDAT               .                                       : Geodetic Datum
HZCS               .                                       : Horizontal Co-ordinate System
APIN               .         10804/01                      : 
BHT                .degF     171                           : 
BLI                .ft       8000                          : 
BS                 .in       9.625                         : 
CREATION-TIME      .         2067/1/30 0_0                 : 
CSIZ               .in       10.75                         : 
DFD                .g/cm3    1.19                          : 
DFT                .         BENTONITE SPERSENE XP-20      : 
DFV                .s        0                             : 
ELZ                .         -999.25                       : 
FIELD-NAME         .         EGBEMA                        : 
FILE-ID            .         SOH21 .4                      : 
FILE-NUMBER        .         101                           : 
FILE-SET-NAME      .                                       : 
FILE-SET-NUMBER    .         0                             : 
FILE-TYPE          .         PTF                           : 
HIDE               .         4540_300_185_6_1_DATE_67/01/30_SOH_21_SEQ_4: 
LCC                .         0                             : 
LMF                .         1                             : 
MCST               .degF     69                            : 
MFST               .degF     69                            : 
MST                .degF     92                            : 
NAME-SPACE-NAME    .         LIS                           : 
NAME-SPACE-VERSION .         0                             : 
PRODUC             .         SHELL(PARASOL)                : 
PRODUCER-CODE      .         0                             : 
PRODUCER-NAME      .         Schlumberger                  : 
PRODUCT            .                                       : 
PROGRAMS           .                                       : 
R1                 .         INFORMATION NOT AVAILABLE     : 
R2                 .         RERUNS ON 200 SCALE FROM 3950 TO CSG SHOE 5950 TO 5400: 
R3                 .         CALIPER CURVE IS RECORDING 1/4" TOO BIG ACCORDING TO CASING CHECK: 
R4                 .         PREVIOUS LOG                  : 
R5                 .         LATER                         : 
RMCS               .ohm.m    1.27                          : 
RMFS               .ohm.m    1.05                          : 
RMS                .ohm.m    1.09                          : 
TCS                .h        -999.25                       : 
TDD                .ft       8400                          : 
TDL                .ft       8400                          : 
TLI                .ft       5100                          : 
VERSION            .         2P01                          : 
WELL-ID            .         10804/01                      : 
WELL-NAME          .         EGBM-006                      : 
WN                 .         EGBM-006                      : 
~Parameter Information Block
#_______________________________________________________________________________
#
#PARAMETER_NAME    .UNIT     VALUE                         : DESCRIPTION
#_______________________________________________________________________________
SET                .         SOH18 _1_1                    : 
ACQUISITION-PRODUCT .         DLIS/U                        : 
CREATION-TIME      .         2026/5/13 10_46               : 
DLIS_FRAME_DIRECTION .         INCREASING                    : 
DLIS_FRAME_NAME    .         1                             : 
DLIS_FRAME_SPACING .ft       0.5                           : 
FIELD-NAME         .         EGBEMA                        : 
FILE-ID            .         SOH18 .1                      : 
FILE-NUMBER        .         1                             : 
FILE-SET-NAME      .         LIS-TO-DLIS-CONVERSION        : 
FILE-SET-NUMBER    .         9939                          : 
FILE-TYPE          .         PTF                           : 
INDEX-TYPE         .         BOREHOLE-DEPTH                : 
NAME-SPACE-NAME    .                                       : 
NAME-SPACE-VERSION .         0                             : 
OriginalDatasetName .         1                             : 
PRODUCER-CODE      .         440                           : 
PRODUCER-NAME      .         Schlumberger                  : 
PRODUCT            .         DLIS/U                        : 
PROGRAMS           .         LIS-TO-DLIS                   : 
TLFamily_DEPT      .         Measured Depth                : 
TLFamily_LN        .                                       : 
TLFamily_SN        .         Resistivity - Shallow         : 
TLFamily_SP        .         Spontaneous Potential         : 
VERSION            .         0.1                           : 
WELL-ID            .         10804/01                      : 
WELL-NAME          .         EGBM-006                      : 
~Curve Information
#_______________________________________________________________________________
#
#LOGNAME           .UNIT     LOG_ID                        : DESCRIPTION
#_______________________________________________________________________________
DEPT               .ft                                     :  {F}
LN                 .ohm.m                                  :  {F}
SN                 .ohm.m                                  :  {F}
SP                 .mV                                     :  {F}
~Ascii
# ...
3365       10.33015   13.90826   67.8721   
3365.5     10.6872    13.55241   68.42766  
3366       10.93427   13.39087   68.66875  
3366.5     11.06653   13.49294   68.78934  
3367       11.05416   13.66769   68.3373   
3367.5     10.16149   13.42245   67.81975  
3368       9.307636   12.9421    66.61424  
3368.5     9.137577   11.96678   65.40874  
3369       8.984543   10.91784   64.20325  
3369.5     8.889317   9.825006   62.99777  
3370       8.794088   8.719755   61.65758  
3370.5     8.69886    7.848717   60.27998  
3371       8.44919    7.437914   59.47398  
3371.5     8.194134   7.394936   58.69395  
3372       7.939076   7.600818   58.34206  
3372.5     7.763975   7.711599   58.14117  
3373       7.763975   7.711599   58.10806  
3373.5     7.763975   7.711599   58.33615  
3374       7.763975   7.722925   58.56422  
3374.5     7.763975   7.757238   58.7923   
3375       7.694508   7.661539   59.02037  
3375.5     7.551666   7.437342   59.26297  
3376       7.408825   7.279263   59.51672  
3376.5     7.265984   7.176295   59.76747  
3377       7.123142   7.262408   59.98663  
3377.5     6.980301   7.309284   60.20581  
3378       6.83746    7.192276   60.39276  
3378.5     6.758286   6.856021   60.46367  
3379       6.681499   6.699246   60.53459  
3379.5     6.604712   6.645768   60.68527  
3380       6.527925   6.521173   60.83595  
3380.5     6.278535   6.138971   61.12421  
3381       6.014021   5.86439    61.42554  
3381.5     5.749507   5.615449   61.69389  
3382       5.484992   5.474147   61.88676  
3382.5     5.279503   5.332845   62.07965  
3383       5.279503   5.191543   62.26997  
3383.5     5.279503   5.050241   62.40392  
3384       5.279503   4.981114   62.53786  
3384.5     5.314414   4.935363   62.53447  
3385       5.393768   4.892041   62.47104  
3385.5     5.473123   5.012155   62.3938   
3386       5.552477   5.132269   62.26691  
3386.5     5.652708   5.252382   62.14     
3387       5.771725   5.61988    61.49002  
3387.5     5.890741   6.020216   60.65555  
3388       5.692696   6.621134   59.82109  
3388.5     5.465949   7.397307   58.85767  
3389       5.300656   8.167204   57.65227  
3389.5     5.419673   8.935883   56.4467   
3390       5.53869    9.356979   55.24095  
3390.5     5.874925   9.730627   54.33366  
3391       6.376126   10.00795   53.65573  
3391.5     6.915476   10.20012   52.98752  
3392       7.841276   10.41065   52.34538  
3392.5     8.767076   10.63485   52.04407  
3393       9.418159   10.65139   51.94441  
3393.5     9.97357    10.53834   52.1418   
3394       10.52898   10.52948   52.70435  
3394.5     11.08439   10.67857   53.16211  
3395       11.52278   10.82766   53.24248  
3395.5     11.93679   10.97675   53.35428  
3396       12.3508    11.40251   53.55519  
3396.5     12.6685    12.00307   53.75612  
3397       12.96608   12.55635   55.97499  
3397.5     13.26366   13.06684   58.38594  
3398       13.54531   13.56416   60.79689  
3398.5     13.82001   14.04454   62.95618  
3399       14.09471   14.4296    65.04561  
3399.5     14.38032   14.47329   67.01744  
3400       14.69083   14.33225   68.78322  
3400.5     13.78829   14.14939   69.29526  
3401       13.58344   13.90906   69.22395  
3401.5     13.36459   13.60223   68.45651  
3402       13.12125   13.10982   67.22763  
3402.5     12.6399    12.60462   64.81284  
3403       12.15854   12.16268   62.39822  
3403.5     11.73592   11.88543   60.09192  
3404       11.37483   11.76804   57.97937  
3404.5     11.01375   11.93402   56.64677  
3405       10.87508   12.0538    55.51479  
3405.5     10.76565   11.77016   54.87204  
3406       10.66747   11.48503   54.42726  
3406.5     11.14886   11.1142    54.23132  
3407       11.62298   10.74637   54.8351   
3407.5     11.99333   10.45648   55.32768  
3408       12.2729    10.3854    55.76669  
3408.5     12.39958   10.6079    56.2057   
3409       12.52626   10.93843   56.85948  
3409.5     12.80937   11.4206    57.56377  
3410       13.11027   11.86459   58.26807  
3410.5     13.41116   12.28234   59.24149  
3411       14.04556   12.66421   60.33919  
3411.5     14.77821   13.04465   61.4369   
3412       15.51085   13.65536   63.39375  
3412.5     16.20859   14.30924   65.54007  
3413       16.89633   15.27354   67.89581  
3413.5     17.60339   16.23784   70.48296  
3414       18.31139   17.23581   72.95779  
3414.5     19.95306   18.33124   75.37265  
3415       21.88625   19.51733   77.55586  
3415.5     23.73801   20.50029   79.68927  
3416       25.56133   21.27902   81.31961  
3416.5     27.36684   21.85905   82.47278  
3417       29.10818   22.39786   83.24104  
3417.5     30.79292   22.9019    83.7196   
3418       32.47766   23.38408   84.15862  
3418.5     33.76978   23.69028   84.59499  
3419       35.03062   23.93315   84.8537   
3419.5     36.17421   24.02078   85.11241  
3420       36.82233   24.07486   85.37112  
3420.5     37.47044   24.11195   85.50989  
3421       38.11856   24.31787   85.44279  
3421.5     38.5818    24.52879   85.37735  
3422       39.00046   24.68945   85.37735  
3422.5     39.41911   24.84372   85.37735  
3423       39.67578   24.99799   85.55841  
3423.5     39.89461   25.0273    85.88773  
3424       40.11342   24.98347   86.21704  
3424.5     40.33223   24.93964   86.32076  
3425       40.3914    24.78178   86.32076  
3425.5     40.29881   24.58893   86.32076  
3426       40.20622   24.53085   86.21712  
3426.5     40.05594   24.50407   85.97566  
3427       39.5089    24.43684   85.73419  
3427.5     38.96185   24.32341   85.47258  
3428       38.35902   24.14253   85.11484  
3428.5     37.5988    23.76189   84.7571   
3429       36.83858   23.38126   84.39935  
3429.5     35.77049   22.94667   83.93085  
3430       34.61938   22.49667   83.40459  
3430.5     33.46828   22.17307   82.87833  
3431       31.95793   21.85214   82.35205  
3431.5     30.35326   21.37006   81.82579  
3432       28.38901   20.65366   81.08025  
3432.5     25.98126   19.56879   80.1747   
3433       23.12323   18.29765   79.26917  
3433.5     20.40637   16.92538   77.92271  
3434       18.55461   15.58404   76.56433  
3434.5     16.73196   14.22704   75.03334  
3435       14.92647   12.73023   73.44646  
3435.5     13.42694   11.28363   71.37674  
3436       12.18194   9.73336    69.25237  
3436.5     10.93693   8.613146   66.95831  
3437       9.691933   7.843252   65.54541  
3437.5     8.849012   7.464396   64.42168  
3438       8.126846   7.223722   63.70641  
3438.5     7.506289   7.260804   63.42776  
3439       7.401625   7.355618   63.14912  
3439.5     7.296962   7.548473   62.90613  
3440       7.144778   7.520211   63.06709  
3440.5     6.759651   7.166265   63.29218  
3441       6.374524   6.71266    63.95624  
3441.5     5.989397   6.624996   64.62032  
3442       5.720499   6.619104   64.87396  
3442.5     5.462596   6.636046   64.81793  
3443       5.204694   6.373145   64.99042  
3443.5     4.944237   6.031177   65.25427  
3444       4.676771   5.687319   65.65666  
3444.5     4.409306   5.424328   65.80078  
3445       4.14184    5.217777   65.81944  
3445.5     4.225878   5.064124   65.38826  
3446       4.426474   4.999855   65.0265   
3446.5     4.627069   5.051372   64.81345  
3447       4.78143    5.282776   64.56744  
3447.5     4.908109   5.51418    64.03918  
3448       5.015674   5.774059   63.51357  
3448.5     5.015674   6.215993   63.11113  
3449       5.015674   6.598186   62.70869  
3449.5     5.015674   6.853263   62.40662  
3450       5.015674   6.885406   62.15247  
3450.5     5.015674   6.853543   61.95872  
3451       5.013756   6.683395   62.00343  
3451.5     4.950411   6.48142    62.04816  
3452       4.887065   5.999373   62.09288  
3452.5     4.82372    5.498121   62.47502  
3453       4.760374   4.947064   63.0116   
3453.5     4.67543    4.591932   63.44733  
3454       4.347206   4.471405   63.68883  
3454.5     4.018982   4.673441   63.71135  
3455       3.714416   4.914496   63.38942  
3455.5     3.495563   5.674789   62.97772  
