~Version
 VERS              .         3.0                           : CWLS LOG ASCII STANDARD - VERSION 3.0
 WRAP              .         NO                            : ONE LINE PER DEPTH STEP
 DLM               .         SPACE                         : DELIMITING CHARACTER(SPACE TAB OR COMMA)
~Well Information
#_______________________________________________________________________________
#
#PARAMETER_NAME    .UNIT     VALUE                         : DESCRIPTION
#_______________________________________________________________________________
STRT               .ft       3001                          : First reference value
STOP               .ft       8404                          : Last reference value
STEP               .ft       0.5                           : Step increment
NULL               .         -9999                         : Missing value
COMP               .                                       : Company
WELL               .         EGBM-006                      : Well name
FLD                .         EGBEMA                        : Field
LOC                .                                       : Location
SRVC               .                                       : Service Company
CTRY               .                                       : Country
DATE               .         1967/01/30                    : Service Date
X                  .                                       : X or East-West coordinate
Y                  .                                       : Y or North South coordinate
GDAT               .                                       : Geodetic Datum
HZCS               .                                       : Horizontal Co-ordinate System
APIN               .         10804/01                      : 
BHT                .degF     171                           : 
BLI                .ft       8000                          : 
BS                 .in       9.625                         : 
CREATION-TIME      .         2067/1/30 0_0                 : 
CSIZ               .in       10.75                         : 
DFD                .g/cm3    1.19                          : 
DFT                .         BENTONITE SPERSENE XP-20      : 
DFV                .s        0                             : 
ELZ                .         -999.25                       : 
FIELD-NAME         .         EGBEMA                        : 
FILE-ID            .         SOH21 .4                      : 
FILE-NUMBER        .         101                           : 
FILE-SET-NAME      .                                       : 
FILE-SET-NUMBER    .         0                             : 
FILE-TYPE          .         PTF                           : 
HIDE               .         4540_300_185_6_1_DATE_67/01/30_SOH_21_SEQ_4: 
LCC                .         0                             : 
LMF                .         1                             : 
MCST               .degF     69                            : 
MFST               .degF     69                            : 
MST                .degF     92                            : 
NAME-SPACE-NAME    .         LIS                           : 
NAME-SPACE-VERSION .         0                             : 
PRODUC             .         SHELL(PARASOL)                : 
PRODUCER-CODE      .         0                             : 
PRODUCER-NAME      .         Schlumberger                  : 
PRODUCT            .                                       : 
PROGRAMS           .                                       : 
R1                 .         INFORMATION NOT AVAILABLE     : 
R2                 .         RERUNS ON 200 SCALE FROM 3950 TO CSG SHOE 5950 TO 5400: 
R3                 .         CALIPER CURVE IS RECORDING 1/4" TOO BIG ACCORDING TO CASING CHECK: 
R4                 .         PREVIOUS LOG                  : 
R5                 .         LATER                         : 
RMCS               .ohm.m    1.27                          : 
RMFS               .ohm.m    1.05                          : 
RMS                .ohm.m    1.09                          : 
TCS                .h        -999.25                       : 
TDD                .ft       8400                          : 
TDL                .ft       8400                          : 
TLI                .ft       5100                          : 
VERSION            .         2P01                          : 
WELL-ID            .         10804/01                      : 
WELL-NAME          .         EGBM-006                      : 
WN                 .         EGBM-006                      : 
~Parameter Information Block
#_______________________________________________________________________________
#
#PARAMETER_NAME    .UNIT     VALUE                         : DESCRIPTION
#_______________________________________________________________________________
SET                .         SOH18 _1_1                    : 
ACQUISITION-PRODUCT .         DLIS/U                        : 
CREATION-TIME      .         2026/5/13 10_46               : 
DLIS_FRAME_DIRECTION .         INCREASING                    : 
DLIS_FRAME_NAME    .         1                             : 
DLIS_FRAME_SPACING .ft       0.5                           : 
FIELD-NAME         .         EGBEMA                        : 
FILE-ID            .         SOH18 .1                      : 
FILE-NUMBER        .         1                             : 
FILE-SET-NAME      .         LIS-TO-DLIS-CONVERSION        : 
FILE-SET-NUMBER    .         9939                          : 
FILE-TYPE          .         PTF                           : 
INDEX-TYPE         .         BOREHOLE-DEPTH                : 
NAME-SPACE-NAME    .                                       : 
NAME-SPACE-VERSION .         0                             : 
OriginalDatasetName .         1                             : 
PRODUCER-CODE      .         440                           : 
PRODUCER-NAME      .         Schlumberger                  : 
PRODUCT            .         DLIS/U                        : 
PROGRAMS           .         LIS-TO-DLIS                   : 
TLFamily_DEPT      .         Measured Depth                : 
TLFamily_LN        .                                       : 
TLFamily_SN        .         Resistivity - Shallow         : 
TLFamily_SP        .         Spontaneous Potential         : 
VERSION            .         0.1                           : 
WELL-ID            .         10804/01                      : 
WELL-NAME          .         EGBM-006                      : 
~Curve Information
#_______________________________________________________________________________
#
#LOGNAME           .UNIT     LOG_ID                        : DESCRIPTION
#_______________________________________________________________________________
DEPT               .ft                                     :  {F}
LN                 .ohm.m                                  :  {F}
SN                 .ohm.m                                  :  {F}
SP                 .mV                                     :  {F}
~Ascii
# ...
7187       5.440593   8.319439   27.08139  
7187.5     5.409314   8.485453   27.02345  
7188       5.388909   8.637249   26.95642  
7188.5     5.420896   8.621256   26.8894   
7189       5.453938   8.604876   26.82237  
7189.5     5.490841   8.58569    26.79716  
7190       5.501697   8.566504   26.90208  
7190.5     5.48837    8.547318   27.007    
7191       5.469155   8.623011   27.15936  
7191.5     5.421176   8.714354   27.46101  
7192       5.373198   8.783278   27.76266  
7192.5     5.465884   8.683308   27.95857  
7193       5.668849   8.515627   28.155    
7193.5     5.779303   8.292938   28.42581  
7194       5.875225   8.108952   28.69662  
7194.5     5.885863   7.939672   28.96745  
7195       5.645901   7.856025   29.23827  
7195.5     5.455546   7.93542    29.50908  
7196       5.512656   8.175245   29.7507   
7196.5     5.569766   8.415068   29.5313   
7197       5.608189   8.636858   29.3119   
7197.5     5.62151    8.612869   29.01474  
7198       5.645067   8.698769   28.3828   
7198.5     5.791081   8.818674   27.75087  
7199       5.937096   8.93858    27.0778   
7199.5     6.070064   9.058485   26.35396  
7200       6.044807   9.159866   26.16031  
7200.5     6.019551   9.222982   26.52017  
7201       6.020008   9.286098   26.88004  
7201.5     6.037774   9.307056   27.23988  
7202       6.05554    9.320379   27.59975  
7202.5     6.071987   9.333702   27.95961  
7203       6.071987   9.347027   28.31947  
7203.5     6.044093   9.334644   28.66495  
7204       5.93119    9.174793   28.7359   
7204.5     5.818316   9.014944   28.80687  
7205       5.706366   8.899485   28.87782  
7205.5     5.593838   8.795206   28.94879  
7206       5.473912   8.690928   28.95003  
7206.5     5.353987   8.586649   28.90694  
7207       5.373575   8.48237    28.86385  
7207.5     5.333261   8.378092   28.82074  
7208       5.241886   8.356808   28.91512  
7208.5     5.15051    8.356808   29.01564  
7209       5.171816   8.425991   29.11618  
7209.5     5.219795   8.523705   28.5538   
7210       5.267775   8.621418   28.02039  
7210.5     5.33673    8.701096   27.97729  
7211       5.423067   8.701096   27.93422  
7211.5     5.509403   8.701096   27.89113  
7212       5.576885   8.683943   28.23758  
7212.5     5.596872   8.645254   28.84099  
7213       5.61686    8.606564   29.38954  
7213.5     5.630479   8.567875   29.88638  
7214       5.608662   8.511368   30.26772  
7214.5     5.541027   8.427958   30.37416  
7215       5.455378   8.344549   30.48059  
7215.5     5.256028   8.348543   30.58704  
7216       5.146495   8.485582   30.69348  
7216.5     5.077963   8.641329   30.42648  
7217       5.009431   8.811222   30.09738  
7217.5     5.215964   8.981117   29.76826  
7218       5.322324   9.043547   29.43916  
7218.5     5.402282   8.967808   29.51282  
7219       5.505974   8.892071   29.91496  
7219.5     5.638309   8.919518   30.31711  
7220       5.770646   8.951487   30.71925  
7220.5     5.902982   9.011438   30.98703  
7221       6.005913   9.07139    31.17751  
7221.5     6.094292   9.123564   31.29204  
7222       6.182672   9.163551   30.99043  
7222.5     6.27105    9.284981   30.88387  
7223       6.359429   9.42378    30.91403  
7223.5     6.345623   9.582785   30.9442   
7224       6.291414   9.780363   30.97437  
7224.5     6.314259   9.97118    31.00453  
7225       6.337102   10.11507   31.10414  
7225.5     6.373037   10.25897   31.32347  
7226       6.443585   10.40286   31.5428   
7226.5     6.514133   10.37079   31.45442  
7227       6.584682   10.3201    31.05228  
7227.5     6.655231   10.29132   31.05135  
7228       6.704349   10.26254   31.39616  
7228.5     6.749321   10.23444   31.74098  
7229       6.76874    10.22556   32.37637  
7229.5     6.779641   10.21667   33.08583  
7230       6.790543   10.20779   33.29875  
7230.5     6.718066   10.20685   33.1479   
7231       6.634103   10.21351   33.24973  
7231.5     6.527509   10.22017   33.61531  
7232       6.359581   10.22683   33.9809   
7232.5     6.191654   10.23349   34.34648  
7233       6.090904   10.18279   34.55542  
7233.5     6.024736   10.11885   34.05858  
7234       5.958569   9.932859   33.56174  
7234.5     5.892401   9.726086   33.51689  
7235       5.884194   9.51931    33.48947  
7235.5     5.791842   9.321804   33.46205  
7236       5.696317   9.246851   33.43463  
7236.5     5.679178   9.171898   33.40721  
7237       5.62938    8.955479   33.44162  
7237.5     5.429496   8.736528   33.69557  
7238       5.22961    8.517578   33.94952  
7238.5     5.029726   8.434938   34.10724  
7239       4.829842   8.35619    34.23099  
7239.5     4.629956   8.279104   34.35475  
7240       4.434362   8.202021   34.47852  
7240.5     4.240623   8.124935   34.60228  
7241       4.046884   7.940012   34.8237   
7241.5     3.898617   7.720991   35.09785  
7242       3.853644   7.501969   35.37202  
7242.5     3.811652   7.030783   36.08961  
7243       3.780363   6.532277   36.93422  
7243.5     3.749075   6.097548   37.77209  
7244       3.687432   5.631773   38.57639  
7244.5     3.516133   5.112041   39.38068  
7245       3.376534   4.599611   40.18497  
7245.5     3.265861   4.519687   40.98926  
7246       3.115953   4.439761   41.65132  
7246.5     2.966046   4.348825   42.29012  
7247       2.84158    4.228915   42.55328  
7247.5     2.810629   4.182912   42.60574  
7248       2.779678   4.227884   42.6582   
7248.5     2.748727   4.243689   42.99821  
7249       2.717478   4.207718   43.37741  
7249.5     2.684762   4.171746   42.40991  
7250       2.652047   4.194508   42.71152  
7250.5     2.588135   4.236846   42.12016  
7251       2.518143   4.310376   41.93079  
7251.5     2.555036   4.411322   42.22325  
7252       2.591928   4.501065   42.51572  
7252.5     2.628819   4.385586   42.80818  
7253       2.595098   4.270105   42.99213  
7253.5     2.559136   4.154626   42.99213  
7254       2.514721   4.111338   42.6786   
7254.5     2.470305   4.132503   42.34348  
7255       2.425891   4.153666   42.24889  
7255.5     2.400383   4.174831   42.32428  
7256       2.385392   4.186716   42.4985   
7256.5     2.373695   4.106791   42.77271  
7257       2.364643   4.026865   43.04691  
7257.5     2.355591   3.946939   43.32111  
7258       2.346538   3.87638    43.59532  
7258.5     2.337485   3.849732   43.86952  
7259       2.328433   3.823085   43.90858  
7259.5     2.319381   3.796437   43.87088  
7260       2.285438   3.769791   43.83318  
7260.5     2.237473   3.770185   43.79547  
7261       2.189508   3.802923   43.95924  
7261.5     2.159624   3.839261   44.27063  
7262       2.159624   3.875599   44.58202  
7262.5     2.159624   3.911937   44.8934   
7263       2.159624   3.933513   45.01373  
7263.5     2.159624   3.853567   44.96548  
7264       2.14151    3.773622   44.91722  
7264.5     2.11486    3.693676   44.94647  
7265       2.088209   3.596187   45.18788  
7265.5     2.061558   3.433453   44.88707  
7266       2.034907   3.270719   44.56761  
7266.5     2.008257   3.107985   44.70789  
7267       1.952897   3.035994   44.84816  
7267.5     1.890698   3.035994   44.98843  
7268       1.8285     3.018997   45.12871  
7268.5     1.782409   3.001867   45.26898  
7269       1.776698   2.984737   45.01065  
7269.5     1.770987   2.982928   44.13306  
7270       1.765276   3.011142   44.05328  
7270.5     1.759564   3.03485    44.01019  
7271       1.753854   3.025257   43.96709  
7271.5     1.717642   3.015664   43.98251  
7272       1.674026   3.006072   44.13332  
7272.5     1.63041    3.056043   44.28412  
7273       1.586795   3.115997   44.50456  
7273.5     1.55524    3.175952   45.06757  
7274       1.535792   3.211665   45.4959   
7274.5     1.516344   3.165525   45.42052  
7275       1.496897   3.192936   45.35432  
7275.5     1.477448   3.220347   45.35432  
7276       1.466315   3.247758   45.35432  
7276.5     1.45926    3.275168   45.36063  
7277       1.452206   3.305707   45.41309  
7277.5     1.44515    3.338411   45.46555  
