~Version
 VERS              .         3.0                           : CWLS LOG ASCII STANDARD - VERSION 3.0
 WRAP              .         NO                            : ONE LINE PER DEPTH STEP
 DLM               .         SPACE                         : DELIMITING CHARACTER(SPACE TAB OR COMMA)
~Well Information
#_______________________________________________________________________________
#
#PARAMETER_NAME    .UNIT     VALUE                         : DESCRIPTION
#_______________________________________________________________________________
STRT               .ft       3001                          : First reference value
STOP               .ft       8404                          : Last reference value
STEP               .ft       0.5                           : Step increment
NULL               .         -9999                         : Missing value
COMP               .                                       : Company
WELL               .         EGBM-006                      : Well name
FLD                .         EGBEMA                        : Field
LOC                .                                       : Location
SRVC               .                                       : Service Company
CTRY               .                                       : Country
DATE               .         1967/01/30                    : Service Date
X                  .                                       : X or East-West coordinate
Y                  .                                       : Y or North South coordinate
GDAT               .                                       : Geodetic Datum
HZCS               .                                       : Horizontal Co-ordinate System
APIN               .         10804/01                      : 
BHT                .degF     171                           : 
BLI                .ft       8000                          : 
BS                 .in       9.625                         : 
CREATION-TIME      .         2067/1/30 0_0                 : 
CSIZ               .in       10.75                         : 
DFD                .g/cm3    1.19                          : 
DFT                .         BENTONITE SPERSENE XP-20      : 
DFV                .s        0                             : 
ELZ                .         -999.25                       : 
FIELD-NAME         .         EGBEMA                        : 
FILE-ID            .         SOH21 .4                      : 
FILE-NUMBER        .         101                           : 
FILE-SET-NAME      .                                       : 
FILE-SET-NUMBER    .         0                             : 
FILE-TYPE          .         PTF                           : 
HIDE               .         4540_300_185_6_1_DATE_67/01/30_SOH_21_SEQ_4: 
LCC                .         0                             : 
LMF                .         1                             : 
MCST               .degF     69                            : 
MFST               .degF     69                            : 
MST                .degF     92                            : 
NAME-SPACE-NAME    .         LIS                           : 
NAME-SPACE-VERSION .         0                             : 
PRODUC             .         SHELL(PARASOL)                : 
PRODUCER-CODE      .         0                             : 
PRODUCER-NAME      .         Schlumberger                  : 
PRODUCT            .                                       : 
PROGRAMS           .                                       : 
R1                 .         INFORMATION NOT AVAILABLE     : 
R2                 .         RERUNS ON 200 SCALE FROM 3950 TO CSG SHOE 5950 TO 5400: 
R3                 .         CALIPER CURVE IS RECORDING 1/4" TOO BIG ACCORDING TO CASING CHECK: 
R4                 .         PREVIOUS LOG                  : 
R5                 .         LATER                         : 
RMCS               .ohm.m    1.27                          : 
RMFS               .ohm.m    1.05                          : 
RMS                .ohm.m    1.09                          : 
TCS                .h        -999.25                       : 
TDD                .ft       8400                          : 
TDL                .ft       8400                          : 
TLI                .ft       5100                          : 
VERSION            .         2P01                          : 
WELL-ID            .         10804/01                      : 
WELL-NAME          .         EGBM-006                      : 
WN                 .         EGBM-006                      : 
~Parameter Information Block
#_______________________________________________________________________________
#
#PARAMETER_NAME    .UNIT     VALUE                         : DESCRIPTION
#_______________________________________________________________________________
SET                .         SOH18 _1_1                    : 
ACQUISITION-PRODUCT .         DLIS/U                        : 
CREATION-TIME      .         2026/5/13 10_46               : 
DLIS_FRAME_DIRECTION .         INCREASING                    : 
DLIS_FRAME_NAME    .         1                             : 
DLIS_FRAME_SPACING .ft       0.5                           : 
FIELD-NAME         .         EGBEMA                        : 
FILE-ID            .         SOH18 .1                      : 
FILE-NUMBER        .         1                             : 
FILE-SET-NAME      .         LIS-TO-DLIS-CONVERSION        : 
FILE-SET-NUMBER    .         9939                          : 
FILE-TYPE          .         PTF                           : 
INDEX-TYPE         .         BOREHOLE-DEPTH                : 
NAME-SPACE-NAME    .                                       : 
NAME-SPACE-VERSION .         0                             : 
OriginalDatasetName .         1                             : 
PRODUCER-CODE      .         440                           : 
PRODUCER-NAME      .         Schlumberger                  : 
PRODUCT            .         DLIS/U                        : 
PROGRAMS           .         LIS-TO-DLIS                   : 
TLFamily_DEPT      .         Measured Depth                : 
TLFamily_LN        .                                       : 
TLFamily_SN        .         Resistivity - Shallow         : 
TLFamily_SP        .         Spontaneous Potential         : 
VERSION            .         0.1                           : 
WELL-ID            .         10804/01                      : 
WELL-NAME          .         EGBM-006                      : 
~Curve Information
#_______________________________________________________________________________
#
#LOGNAME           .UNIT     LOG_ID                        : DESCRIPTION
#_______________________________________________________________________________
DEPT               .ft                                     :  {F}
LN                 .ohm.m                                  :  {F}
SN                 .ohm.m                                  :  {F}
SP                 .mV                                     :  {F}
~Ascii
# ...
4093       23.27664   16.10886   80.33217  
4093.5     22.77072   15.77353   80.28203  
4094       22.33592   15.86486   80.17255  
4094.5     21.93546   15.86471   80.06308  
4095       21.55341   15.54418   79.8093   
4095.5     21.2101    15.19849   79.45248  
4096       19.46536   14.89877   79.09569  
4096.5     18.9359    14.65716   78.73114  
4097       18.52475   14.48107   78.2354   
4097.5     17.94806   14.33712   77.73964  
4098       17.42831   14.24854   76.90385  
4098.5     16.89388   14.04479   76.00038  
4099       16.31332   13.41412   74.94136  
4099.5     15.63453   12.6873    73.3362   
4100       14.99205   11.94357   71.73103  
4100.5     14.66991   11.46332   69.86029  
4101       14.37259   10.93216   68.14493  
4101.5     13.98844   10.34783   66.71231  
4102       13.56296   9.731249   65.43233  
4102.5     13.13628   9.362371   64.13181  
4103       12.77605   9.199373   62.90485  
4103.5     12.44486   9.262022   61.9225   
4104       12.15418   9.446903   61.37463  
4104.5     11.94062   9.71361    60.92448  
4105       11.91661   9.959846   60.72208  
4105.5     12.06229   10.0743    60.76891  
4106       12.24588   10.18876   61.19751  
4106.5     12.43936   10.35106   61.89346  
4107       12.64449   10.54637   62.90205  
4107.5     12.94939   10.84781   63.91063  
4108       13.13698   11.25454   65.02412  
4108.5     13.43054   11.7789    66.56712  
4109       13.91108   12.3491    68.04317  
4109.5     14.39116   12.89355   69.40382  
4110       14.97362   13.34138   70.73422  
4110.5     15.60365   13.72295   72.02074  
4111       16.1714    14.0034    72.95267  
4111.5     16.76939   14.29284   73.6279   
4112       17.22974   14.57727   74.26625  
4112.5     17.62154   14.74327   74.83482  
4113       17.76869   14.82914   75.26367  
4113.5     17.73175   14.92267   75.51163  
4114       17.6445    14.9846    75.43163  
4114.5     17.49673   15.0031    75.27774  
4115       17.25764   14.90071   75.01093  
4115.5     16.9892    14.69353   74.72754  
4116       16.63452   14.40504   74.0921   
4116.5     16.20584   14.14909   73.45665  
4117       15.74051   13.92875   72.43797  
4117.5     15.26332   13.59067   71.33759  
4118       14.80475   13.12207   70.23718  
4118.5     14.50089   12.46106   69.01254  
4119       14.26674   11.49928   67.73192  
4119.5     14.04837   10.63263   66.42999  
4120       13.65128   9.951555   64.7995   
4120.5     13.12284   9.31983    62.44881  
4121       12.53773   9.065613   60.21709  
4121.5     12.00533   9.109722   57.98743  
4122       11.47673   9.270075   55.90897  
4122.5     10.87365   9.573196   54.28955  
4123       10.29054   9.937281   53.08867  
4123.5     9.869318   10.35255   52.19371  
4124       9.713793   10.80859   51.49161  
4124.5     9.760942   11.23506   51.22041  
4125       10.01262   11.49076   51.11134  
4125.5     10.42676   11.38057   51.5945   
4126       10.94929   11.05827   52.58623  
4126.5     11.47182   10.60325   53.97113  
4127       11.84583   10.15469   55.28619  
4127.5     12.06581   9.842312   56.57271  
4128       12.11871   9.674263   57.43045  
4128.5     12.08364   9.638933   58.10492  
4129       11.87786   9.743242   58.50505  
4129.5     11.67859   9.944042   58.73434  
4130       11.4985    10.18442   58.90579  
4130.5     11.31982   10.36945   59.10352  
4131       11.14825   10.50466   59.82286  
4131.5     11.021     10.63333   61.51755  
4132       10.98097   10.74339   63.49825  
4132.5     11.1063    10.7858    65.47896  
4133       11.30946   10.82821   67.20866  
4133.5     11.56963   10.61316   68.60918  
4134       11.94616   10.3147    69.69818  
4134.5     12.35792   9.95919    70.73868  
4135       12.49534   9.582378   71.60406  
4135.5     12.37154   9.430262   72.45134  
4136       12.02651   9.506746   73.54073  
4136.5     11.57045   10.27625   74.74115  
4137       11.37626   11.68458   75.71811  
4137.5     11.45768   12.75868   76.5434   
4138       11.74257   13.61075   77.25484  
4138.5     12.16761   14.18744   77.85506  
4139       13.12592   14.7023    78.37204  
4139.5     14.88047   15.21311   78.77219  
4140       15.96271   15.55572   78.88936  
4140.5     16.92316   15.74209   78.95605  
4141       17.74008   15.78542   78.98955  
4141.5     18.43248   15.76539   78.98955  
4142       19.1017    15.78274   78.97321  
4142.5     20.80885   15.9262    78.9332   
4143       20.84013   16.12791   78.89317  
4143.5     21.07347   16.27689   78.85315  
4144       21.45262   16.32497   78.83275  
4144.5     21.83176   16.30714   78.83275  
4145       22.01411   16.31651   78.83275  
4145.5     22.11418   16.38699   78.94365  
4146       22.21425   16.5164    79.06998  
4146.5     22.25705   16.5777    79.20569  
4147       22.25705   16.5777    79.35574  
4147.5     22.25705   16.74538   79.50311  
4148       22.36986   16.92938   79.64438  
4148.5     22.62714   17.07059   79.80791  
4149       22.88443   17.0269    80.2081   
4149.5     23.14171   16.9673    80.58093  
4150       23.42317   16.9032    80.76558  
4150.5     23.71132   16.87651   80.81053  
4151       23.99948   16.86867   80.66933  
4151.5     24.23035   16.93736   80.53252  
4152       24.40823   16.99596   80.41248  
4152.5     24.58612   17.03029   80.29243  
4153       24.76402   16.99651   80.10088  
4153.5     25.05164   16.88432   79.86079  
4154       25.33978   16.71194   79.6207   
4154.5     25.62794   16.48077   79.46916  
4155       25.70532   16.2496    79.31911  
4155.5     25.70532   16.01602   79.16905  
4156       25.70532   15.76298   79.21426  
4156.5     25.70532   15.50992   79.2943   
4157       25.58818   15.24475   78.92162  
4157.5     25.31113   14.97242   78.51389  
4158       25.03409   14.74826   78.42816  
4158.5     24.75443   14.55404   78.36237  
4159       24.38492   14.41373   78.36237  
4159.5     24.01543   14.26669   78.36237  
4160       23.64592   14.09939   78.22002  
4160.5     23.41571   13.80208   78.03046  
4161       23.26564   13.56163   77.85153  
4161.5     23.11557   13.34574   77.70148  
4162       22.96548   13.2146    77.54964  
4162.5     22.8401    13.20786   77.38956  
4163       22.74406   13.17493   77.23831  
4163.5     22.64801   13.10423   77.11827  
4164       22.50089   13.0723    76.99823  
4164.5     22.14075   13.10059   76.8295   
4165       21.78061   13.13528   76.62943  
4165.5     21.16417   13.20081   76.42935  
4166       20.35648   13.15401   76.11285  
4166.5     19.09567   13.00513   75.66695  
4167       17.72339   12.73421   75.22105  
4167.5     16.39522   12.6273    74.77515  
4168       14.79667   12.5989    74.32925  
4168.5     13.35078   12.45999   73.71577  
4169       12.3931    12.25662   73.08415  
4169.5     11.51141   11.75378   72.18193  
4170       10.71456   11.20263   70.90587  
4170.5     9.994551   10.60168   69.47151  
4171       9.231693   9.918583   67.7173   
4171.5     8.653769   9.205162   65.9337   
4172       8.218561   8.404064   64.19196  
4172.5     7.843542   7.97723    63.29164  
4173       7.532848   7.607859   62.56381  
4173.5     7.223494   7.29236    62.00984  
4174       6.91788    6.955254   61.8251   
4174.5     6.612267   6.561839   61.74933  
4175       6.315165   6.229783   61.81996  
4175.5     6.031284   6.042497   61.89059  
4176       5.674498   5.922276   62.03127  
4176.5     5.437063   5.80208    62.18132  
4177       5.265587   5.68189    62.64461  
4177.5     5.181261   5.495835   63.19017  
4178       5.115772   5.287481   63.73573  
4178.5     5.050283   4.981065   64.72466  
4179       4.980466   4.662215   65.59785  
4179.5     4.910422   4.484529   66.41357  
4180       4.840378   4.306843   67.18549  
4180.5     4.790196   4.138918   67.76698  
4181       4.744453   4.074808   68.28131  
4181.5     4.702194   4.023532   68.57962  
4182       4.702194   4.060509   68.79791  
4182.5     4.702194   4.115976   68.79791  
4183       4.769958   4.196086   68.79791  
4183.5     4.863351   4.28194    68.79791  
