~Version
 VERS              .         3.0                           : CWLS LOG ASCII STANDARD - VERSION 3.0
 WRAP              .         NO                            : ONE LINE PER DEPTH STEP
 DLM               .         SPACE                         : DELIMITING CHARACTER(SPACE TAB OR COMMA)
~Well Information
#_______________________________________________________________________________
#
#PARAMETER_NAME    .UNIT     VALUE                         : DESCRIPTION
#_______________________________________________________________________________
STRT               .ft       3001                          : First reference value
STOP               .ft       8404                          : Last reference value
STEP               .ft       0.5                           : Step increment
NULL               .         -9999                         : Missing value
COMP               .                                       : Company
WELL               .         EGBM-006                      : Well name
FLD                .         EGBEMA                        : Field
LOC                .                                       : Location
SRVC               .                                       : Service Company
CTRY               .                                       : Country
DATE               .         1967/01/30                    : Service Date
X                  .                                       : X or East-West coordinate
Y                  .                                       : Y or North South coordinate
GDAT               .                                       : Geodetic Datum
HZCS               .                                       : Horizontal Co-ordinate System
APIN               .         10804/01                      : 
BHT                .degF     171                           : 
BLI                .ft       8000                          : 
BS                 .in       9.625                         : 
CREATION-TIME      .         2067/1/30 0_0                 : 
CSIZ               .in       10.75                         : 
DFD                .g/cm3    1.19                          : 
DFT                .         BENTONITE SPERSENE XP-20      : 
DFV                .s        0                             : 
ELZ                .         -999.25                       : 
FIELD-NAME         .         EGBEMA                        : 
FILE-ID            .         SOH21 .4                      : 
FILE-NUMBER        .         101                           : 
FILE-SET-NAME      .                                       : 
FILE-SET-NUMBER    .         0                             : 
FILE-TYPE          .         PTF                           : 
HIDE               .         4540_300_185_6_1_DATE_67/01/30_SOH_21_SEQ_4: 
LCC                .         0                             : 
LMF                .         1                             : 
MCST               .degF     69                            : 
MFST               .degF     69                            : 
MST                .degF     92                            : 
NAME-SPACE-NAME    .         LIS                           : 
NAME-SPACE-VERSION .         0                             : 
PRODUC             .         SHELL(PARASOL)                : 
PRODUCER-CODE      .         0                             : 
PRODUCER-NAME      .         Schlumberger                  : 
PRODUCT            .                                       : 
PROGRAMS           .                                       : 
R1                 .         INFORMATION NOT AVAILABLE     : 
R2                 .         RERUNS ON 200 SCALE FROM 3950 TO CSG SHOE 5950 TO 5400: 
R3                 .         CALIPER CURVE IS RECORDING 1/4" TOO BIG ACCORDING TO CASING CHECK: 
R4                 .         PREVIOUS LOG                  : 
R5                 .         LATER                         : 
RMCS               .ohm.m    1.27                          : 
RMFS               .ohm.m    1.05                          : 
RMS                .ohm.m    1.09                          : 
TCS                .h        -999.25                       : 
TDD                .ft       8400                          : 
TDL                .ft       8400                          : 
TLI                .ft       5100                          : 
VERSION            .         2P01                          : 
WELL-ID            .         10804/01                      : 
WELL-NAME          .         EGBM-006                      : 
WN                 .         EGBM-006                      : 
~Parameter Information Block
#_______________________________________________________________________________
#
#PARAMETER_NAME    .UNIT     VALUE                         : DESCRIPTION
#_______________________________________________________________________________
SET                .         SOH18 _1_1                    : 
ACQUISITION-PRODUCT .         DLIS/U                        : 
CREATION-TIME      .         2026/5/13 10_46               : 
DLIS_FRAME_DIRECTION .         INCREASING                    : 
DLIS_FRAME_NAME    .         1                             : 
DLIS_FRAME_SPACING .ft       0.5                           : 
FIELD-NAME         .         EGBEMA                        : 
FILE-ID            .         SOH18 .1                      : 
FILE-NUMBER        .         1                             : 
FILE-SET-NAME      .         LIS-TO-DLIS-CONVERSION        : 
FILE-SET-NUMBER    .         9939                          : 
FILE-TYPE          .         PTF                           : 
INDEX-TYPE         .         BOREHOLE-DEPTH                : 
NAME-SPACE-NAME    .                                       : 
NAME-SPACE-VERSION .         0                             : 
OriginalDatasetName .         1                             : 
PRODUCER-CODE      .         440                           : 
PRODUCER-NAME      .         Schlumberger                  : 
PRODUCT            .         DLIS/U                        : 
PROGRAMS           .         LIS-TO-DLIS                   : 
TLFamily_DEPT      .         Measured Depth                : 
TLFamily_LN        .                                       : 
TLFamily_SN        .         Resistivity - Shallow         : 
TLFamily_SP        .         Spontaneous Potential         : 
VERSION            .         0.1                           : 
WELL-ID            .         10804/01                      : 
WELL-NAME          .         EGBM-006                      : 
~Curve Information
#_______________________________________________________________________________
#
#LOGNAME           .UNIT     LOG_ID                        : DESCRIPTION
#_______________________________________________________________________________
DEPT               .ft                                     :  {F}
LN                 .ohm.m                                  :  {F}
SN                 .ohm.m                                  :  {F}
SP                 .mV                                     :  {F}
~Ascii
# ...
6186       8.377218   7.795558   39.04485  
6186.5     7.892694   7.84654    38.37352  
6187       7.485599   7.966638   37.28168  
6187.5     7.201273   8.086765   36.35757  
6188       7.007465   8.112869   35.68695  
6188.5     6.879253   8.041246   35.52686  
6189       6.930804   7.989776   35.44966  
6189.5     6.963481   7.931738   35.52472  
6190       6.935167   7.860596   35.68585  
6190.5     6.906909   7.620352   36.08611  
6191       6.881583   7.424944   36.48636  
6191.5     6.856257   7.318165   36.56815  
6192       6.724852   7.211387   36.62036  
6192.5     6.50274    7.223204   36.67256  
6193       6.380879   7.236546   36.5442   
6193.5     6.271959   7.251594   36.39867  
6194       6.162603   7.267612   36.25311  
6194.5     6.05857    7.181914   36.10757  
6195       6.040061   7.103196   36.17133  
6195.5     6.021551   7.07791    36.37144  
6196       6.003042   7.051429   36.57158  
6196.5     5.916744   6.980785   36.7717   
6197       5.796453   6.910142   37.04088  
6197.5     5.676161   6.896552   37.01814  
6198       5.58528    6.896552   36.90819  
6198.5     5.501988   6.896552   37.84802  
6199       5.418696   6.810524   38.78784  
6199.5     5.345303   6.703745   39.75294  
6200       5.286613   6.559515   41.02042  
6200.5     5.227921   6.37079    42.28789  
6201       5.169231   6.162278   43.55536  
6201.5     5.11054    5.94433    44.82281  
6202       5.052993   5.758717   45.76688  
6202.5     5.015974   5.573102   46.17859  
6203       4.94133    5.418796   46.59032  
6203.5     4.798755   5.395916   47.00203  
6204       4.65618    5.373035   47.41376  
6204.5     4.513605   5.360501   47.49216  
6205       4.381866   5.360501   47.49216  
6205.5     4.271077   5.338921   47.49216  
6206       4.278839   5.285604   47.49216  
6206.5     4.286601   5.077369   47.58348  
6207       4.294363   4.869745   47.76541  
6207.5     4.30566    4.667539   47.94734  
6208       4.351933   4.465332   48.12927  
6208.5     4.398207   4.388715   48.2657   
6209       4.444481   4.388715   48.2135   
6209.5     4.427793   4.388715   48.16129  
6210       4.331964   4.630647   47.94585  
6210.5     4.091496   4.94156    47.04515  
6211       3.946995   5.572006   46.14447  
6211.5     3.842911   6.296093   44.4285   
6212       3.941916   6.896473   42.13956  
6212.5     4.092294   7.495501   40.6386   
6213       4.242672   7.922793   39.50624  
6213.5     4.393049   8.288307   38.82581  
6214       4.648897   8.641525   38.14539  
6214.5     4.985806   8.856972   37.46495  
6215       5.322714   8.986259   37.14732  
6215.5     5.605916   8.917463   37.14732  
6216       5.88665    8.830965   37.14732  
6216.5     6.069934   8.744467   37.15738  
6217       6.152579   8.714733   38.06223  
6217.5     6.206053   8.714733   37.79539  
6218       6.227357   8.632469   38.04236  
6218.5     6.131097   8.546684   38.33345  
6219       5.976503   8.460901   38.62454  
6219.5     5.878197   8.434521   38.91563  
6220       5.80222    8.543707   38.92868  
6220.5     5.745683   8.647465   38.76639  
6221       5.745683   8.746502   38.60411  
6221.5     5.745683   8.756512   38.44182  
6222       5.752366   8.766521   38.27953  
6222.5     5.805828   8.776531   37.93063  
6223       5.85929    8.668142   38.00711  
6223.5     5.912751   8.515009   38.38921  
6224       5.966213   8.298763   38.77129  
6224.5     5.992192   8.082518   39.15337  
6225       5.981253   7.907503   39.53545  
6225.5     5.970313   7.779419   39.91753  
6226       5.934554   7.841618   39.96864  
6226.5     5.879025   8.012821   39.83952  
6227       5.930408   8.249067   39.07523  
6227.5     6.002094   8.465311   38.57793  
6228       6.159737   8.681557   38.17767  
6228.5     6.317379   8.807137   37.77742  
6229       6.475021   8.860502   37.37717  
6229.5     6.628107   8.940123   37.03618  
6230       6.767451   9.09091    36.77512  
6230.5     6.906796   9.09091    36.51405  
6231       6.890423   9.081526   36.36363  
6231.5     6.82767    9.035765   36.36363  
6232       6.764916   8.990005   36.36363  
6232.5     6.728198   8.882998   36.48012  
6233       6.69932    8.705475   36.88036  
6233.5     6.670443   8.527952   37.28061  
6234       6.711645   8.368227   37.68086  
6234.5     6.821038   8.229155   38.08112  
6235       6.930432   8.090084   38.64171  
6235.5     7.004206   8.003941   39.61763  
6236       7.057657   7.918691   39.37746  
6236.5     7.088852   7.833441   39.13727  
6237       7.064787   7.748191   39.20538  
6237.5     6.871716   7.754807   39.52997  
6238       6.675621   7.767445   39.85454  
6238.5     6.479526   7.760541   40.17911  
6239       6.318297   7.730513   40.50369  
6239.5     6.198006   7.646384   41.02599  
6240       6.077713   7.470184   41.62639  
6240.5     5.900062   7.281724   42.22681  
6241       5.682363   7.075843   42.82722  
6241.5     5.464664   6.990595   43.42763  
6242       5.261525   6.997814   44.02805  
6242.5     5.060985   7.36742    44.39452  
6243       4.860444   7.685499   44.17029  
6243.5     4.659903   7.895698   43.65559  
6244       4.384525   8.079029   43.479    
6244.5     4.125447   8.175066   43.36642  
6245       3.903336   7.980778   43.25385  
6245.5     3.681224   7.621037   43.14127  
6246       3.459111   7.065152   43.78667  
6246.5     3.340099   6.464523   44.81552  
6247       3.223668   5.820573   46.22444  
6247.5     3.107236   5.305738   47.70795  
6248       2.990804   5.045913   49.09929  
6248.5     2.920958   4.958566   49.8645   
6249       2.854582   4.871218   49.91255  
6249.5     2.788206   4.818103   49.96059  
6250       2.750533   4.972514   49.93529  
6250.5     2.880098   5.18627    49.57513  
6251       2.963376   5.529406   48.7424   
6251.5     3.021096   5.939473   47.8418   
6252       3.159917   6.419962   46.89725  
6252.5     3.298737   6.83714    45.72665  
6253       3.437556   7.237593   43.69716  
6253.5     4.030787   7.838162   42.61038  
6254       4.676087   8.194984   41.52359  
6254.5     5.193482   8.260305   40.79312  
6255       5.710878   8.23502    40.52629  
6255.5     6.050667   8.238785   40.25946  
6256       6.14509    8.427509   39.99261  
6256.5     6.201227   8.653244   39.72578  
6257       6.257365   8.934921   39.11557  
6257.5     6.313502   9.175192   38.38177  
6258       6.396456   9.310345   38.14333  
6258.5     6.507512   9.310345   38.69366  
6259       6.681104   9.279808   39.24402  
6259.5     6.871119   9.229776   39.41895  
6260       7.025702   9.179745   38.60286  
6260.5     7.102688   9.096224   39.1772   
6261       7.179672   8.976061   39.75154  
6261.5     7.254274   8.93417    40.28882  
6262       7.28435    8.93417    40.37668  
6262.5     7.314425   8.93417    40.46455  
6263       7.344501   8.93417    40.55241  
6263.5     7.156341   8.945965   40.64027  
6264       6.778232   8.970816   40.72815  
6264.5     6.400123   8.995668   40.95537  
6265       5.945454   9.020521   41.23553  
6265.5     5.279118   8.99506    41.51572  
6266       4.557961   8.838425   41.7959   
6266.5     4.120164   8.463247   42.51167  
6267       3.882215   8.062992   43.33055  
6267.5     3.850828   7.136058   44.14944  
6268       3.819441   6.595716   45.06639  
6268.5     3.759706   6.279659   45.71033  
6269       3.647459   6.232365   45.47017  
6269.5     3.673743   6.343183   45.12831  
6270       3.914372   6.742424   44.52774  
6270.5     4.159599   7.206949   43.79828  
6271       4.504856   7.629552   42.53448  
6271.5     4.850112   8.04524    41.27069  
6272       5.195887   8.460928   40.58765  
6272.5     5.553198   8.795019   40.13736  
6273       5.910509   8.955564   39.68707  
6273.5     6.26782    8.921251   39.65347  
6274       6.625132   8.798573   39.82764  
6274.5     6.828172   8.57336    39.86638  
6275       6.965787   8.399847   39.90512  
6275.5     6.858855   8.3125     39.94386  
6276       6.751924   8.461617   39.89339  
6276.5     6.644993   8.625975   39.68454  
