~Version
 VERS              .         3.0                           : CWLS LOG ASCII STANDARD - VERSION 3.0
 WRAP              .         NO                            : ONE LINE PER DEPTH STEP
 DLM               .         SPACE                         : DELIMITING CHARACTER(SPACE TAB OR COMMA)
~Well Information
#_______________________________________________________________________________
#
#PARAMETER_NAME    .UNIT     VALUE                         : DESCRIPTION
#_______________________________________________________________________________
STRT               .ft       3001                          : First reference value
STOP               .ft       8404                          : Last reference value
STEP               .ft       0.5                           : Step increment
NULL               .         -9999                         : Missing value
COMP               .                                       : Company
WELL               .         EGBM-006                      : Well name
FLD                .         EGBEMA                        : Field
LOC                .                                       : Location
SRVC               .                                       : Service Company
CTRY               .                                       : Country
DATE               .         1967/01/30                    : Service Date
X                  .                                       : X or East-West coordinate
Y                  .                                       : Y or North South coordinate
GDAT               .                                       : Geodetic Datum
HZCS               .                                       : Horizontal Co-ordinate System
APIN               .         10804/01                      : 
BHT                .degF     171                           : 
BLI                .ft       8000                          : 
BS                 .in       9.625                         : 
CREATION-TIME      .         2067/1/30 0_0                 : 
CSIZ               .in       10.75                         : 
DFD                .g/cm3    1.19                          : 
DFT                .         BENTONITE SPERSENE XP-20      : 
DFV                .s        0                             : 
ELZ                .         -999.25                       : 
FIELD-NAME         .         EGBEMA                        : 
FILE-ID            .         SOH21 .4                      : 
FILE-NUMBER        .         101                           : 
FILE-SET-NAME      .                                       : 
FILE-SET-NUMBER    .         0                             : 
FILE-TYPE          .         PTF                           : 
HIDE               .         4540_300_185_6_1_DATE_67/01/30_SOH_21_SEQ_4: 
LCC                .         0                             : 
LMF                .         1                             : 
MCST               .degF     69                            : 
MFST               .degF     69                            : 
MST                .degF     92                            : 
NAME-SPACE-NAME    .         LIS                           : 
NAME-SPACE-VERSION .         0                             : 
PRODUC             .         SHELL(PARASOL)                : 
PRODUCER-CODE      .         0                             : 
PRODUCER-NAME      .         Schlumberger                  : 
PRODUCT            .                                       : 
PROGRAMS           .                                       : 
R1                 .         INFORMATION NOT AVAILABLE     : 
R2                 .         RERUNS ON 200 SCALE FROM 3950 TO CSG SHOE 5950 TO 5400: 
R3                 .         CALIPER CURVE IS RECORDING 1/4" TOO BIG ACCORDING TO CASING CHECK: 
R4                 .         PREVIOUS LOG                  : 
R5                 .         LATER                         : 
RMCS               .ohm.m    1.27                          : 
RMFS               .ohm.m    1.05                          : 
RMS                .ohm.m    1.09                          : 
TCS                .h        -999.25                       : 
TDD                .ft       8400                          : 
TDL                .ft       8400                          : 
TLI                .ft       5100                          : 
VERSION            .         2P01                          : 
WELL-ID            .         10804/01                      : 
WELL-NAME          .         EGBM-006                      : 
WN                 .         EGBM-006                      : 
~Parameter Information Block
#_______________________________________________________________________________
#
#PARAMETER_NAME    .UNIT     VALUE                         : DESCRIPTION
#_______________________________________________________________________________
SET                .         SOH18 _1_1                    : 
ACQUISITION-PRODUCT .         DLIS/U                        : 
CREATION-TIME      .         2026/5/13 10_46               : 
DLIS_FRAME_DIRECTION .         INCREASING                    : 
DLIS_FRAME_NAME    .         1                             : 
DLIS_FRAME_SPACING .ft       0.5                           : 
FIELD-NAME         .         EGBEMA                        : 
FILE-ID            .         SOH18 .1                      : 
FILE-NUMBER        .         1                             : 
FILE-SET-NAME      .         LIS-TO-DLIS-CONVERSION        : 
FILE-SET-NUMBER    .         9939                          : 
FILE-TYPE          .         PTF                           : 
INDEX-TYPE         .         BOREHOLE-DEPTH                : 
NAME-SPACE-NAME    .                                       : 
NAME-SPACE-VERSION .         0                             : 
OriginalDatasetName .         1                             : 
PRODUCER-CODE      .         440                           : 
PRODUCER-NAME      .         Schlumberger                  : 
PRODUCT            .         DLIS/U                        : 
PROGRAMS           .         LIS-TO-DLIS                   : 
TLFamily_DEPT      .         Measured Depth                : 
TLFamily_LN        .                                       : 
TLFamily_SN        .         Resistivity - Shallow         : 
TLFamily_SP        .         Spontaneous Potential         : 
VERSION            .         0.1                           : 
WELL-ID            .         10804/01                      : 
WELL-NAME          .         EGBM-006                      : 
~Curve Information
#_______________________________________________________________________________
#
#LOGNAME           .UNIT     LOG_ID                        : DESCRIPTION
#_______________________________________________________________________________
DEPT               .ft                                     :  {F}
LN                 .ohm.m                                  :  {F}
SN                 .ohm.m                                  :  {F}
SP                 .mV                                     :  {F}
~Ascii
# ...
7915       0.7907367  1.750802   62.66948  
7915.5     0.7878987  1.749342   62.79314  
7916       0.781476   1.747882   62.91679  
7916.5     0.7694156  1.746423   63.04045  
7917       0.7573552  1.733806   63.66821  
7917.5     0.7452948  1.709723   64.50684  
7918       0.7332345  1.663286   65.34546  
7918.5     0.7221216  1.622627   65.47707  
7919       0.7155122  1.606576   65.31982  
7919.5     0.7089027  1.604084   65.16258  
7920       0.7022933  1.636925   65.00534  
7920.5     0.6956838  1.669765   64.84808  
7921       0.6890743  1.69698    64.69084  
7921.5     0.6824648  1.7073     64.35771  
7922       0.6758554  1.72207    64.05957  
7922.5     0.669246   1.746153   64.32024  
7923       0.6626365  1.770236   64.58092  
7923.5     0.6578164  1.794319   64.84158  
7924       0.6539255  1.798553   65.10226  
7924.5     0.6500345  1.7699     65.36293  
7925       0.6461437  1.706627   65.62361  
7925.5     0.6422527  1.685555   65.88428  
7926       0.6383618  1.664482   66.14494  
7926.5     0.6344709  1.64341    66.40562  
7927       0.6305799  1.622336   66.62025  
7927.5     0.6289309  1.569247   66.79245  
7928       0.6289309  1.532934   66.96466  
7928.5     0.6289309  1.520893   67.13687  
7929       0.6289309  1.507094   67.12283  
7929.5     0.6289309  1.490344   67.08197  
7930       0.6289309  1.473594   67.04111  
7930.5     0.6289309  1.464851   67.00023  
7931       0.6289309  1.469512   66.95937  
7931.5     0.6289309  1.474173   66.9185   
7932       0.6244677  1.478833   66.87762  
7932.5     0.6191658  1.492608   66.87436  
7933       0.6138639  1.524718   67.02991  
7933.5     0.608562   1.556829   67.18544  
7934       0.60326    1.58894    67.34099  
7934.5     0.5979581  1.61159    67.5148   
7935       0.5926561  1.621226   67.78874  
7935.5     0.5873543  1.616404   68.0627   
7936       0.5820524  1.595001   68.25049  
7936.5     0.5767504  1.573598   68.22638  
7937       0.5714484  1.552196   68.20226  
7937.5     0.5661465  1.530793   68.17815  
7938       0.5621642  1.518823   68.15404  
7938.5     0.5582095  1.509647   68.12993  
7939       0.5542548  1.501443   68.10582  
7939.5     0.5503     1.520709   68.63669  
7940       0.5463454  1.503685   69.32564  
7940.5     0.5423906  1.47327    69.98309  
7941       0.5384359  1.441077   69.9557   
7941.5     0.5344812  1.407545   69.92831  
7942       0.5305265  1.419587   69.90091  
7942.5     0.5265718  1.427339   69.87352  
7943       0.5226171  1.431044   69.84612  
7943.5     0.5186623  1.434749   69.86668  
7944       0.5147076  1.438811   69.99228  
7944.5     0.5107529  1.445379   70.11786  
7945       0.5067981  1.451947   70.24345  
7945.5     0.5050197  1.459641   70.36903  
7946       0.5296346  1.470587   70.49463  
7946.5     0.5542495  1.481534   70.59859  
7947       0.5788645  1.482878   70.38333  
7947.5     0.6034794  1.469119   70.16806  
7948       0.6280943  1.455359   69.9528   
7948.5     0.6527092  1.445536   69.86082  
7949       0.6619011  1.437828   69.94121  
7949.5     0.6641142  1.43012    70.09184  
7950       0.6663274  1.427382   70.32367  
7950.5     0.6685406  1.432364   70.55551  
7951       0.6707537  1.437346   70.77904  
7951.5     0.6729668  1.442328   70.9046   
7952       0.67518    1.458152   71.03018  
7952.5     0.6773932  1.480897   71.15575  
7953       0.6796063  1.503642   71.28131  
7953.5     0.6818194  1.526387   71.40689  
7954       0.6840326  1.549132   71.53246  
7954.5     0.6862457  1.548813   71.34888  
7955       0.6884589  1.546405   71.10069  
7955.5     0.690672   1.551602   70.85249  
7956       0.6860404  1.573839   70.60431  
7956.5     0.6739784  1.57619    70.46255  
7957       0.6619166  1.566051   70.48082  
7957.5     0.6498547  1.56046    70.49908  
7958       0.6377928  1.583576   70.51735  
7958.5     0.6257309  1.606692   70.53561  
7959       0.6136689  1.629808   70.55388  
7959.5     0.6016071  1.620333   70.57214  
7960       0.5930114  1.606284   70.59041  
7960.5     0.5862157  1.592237   70.60867  
7961       0.5794201  1.568563   71.08057  
7961.5     0.5726244  1.541646   71.66255  
7962       0.5658287  1.514729   72.24454  
7962.5     0.559033   1.487813   72.80864  
7963       0.5522374  1.467699   72.75909  
7963.5     0.5454417  1.462349   72.70956  
7964       0.5386461  1.456998   72.66002  
7964.5     0.5331171  1.451647   72.61047  
7965       0.529462   1.467568   72.56093  
7965.5     0.5258069  1.488978   72.51138  
7966       0.5221518  1.510388   72.46184  
7966.5     0.5184968  1.526731   72.41229  
7967       0.5148417  1.529741   72.36275  
7967.5     0.5111866  1.531352   72.53078  
7968       0.5075315  1.526976   72.89767  
7968.5     0.5038764  1.522598   73.26457  
7969       0.5087372  1.526169   73.4006   
7969.5     0.5157294  1.546605   73.32968  
7970       0.5227218  1.567041   73.31879  
7970.5     0.5297141  1.587478   73.43935  
7971       0.5367063  1.608373   73.55989  
7971.5     0.5436987  1.653518   73.68738  
7972       0.550691   1.698663   73.81769  
7972.5     0.5576832  1.743808   73.94801  
7973       0.5646756  1.788952   74.07834  
7973.5     0.5716678  1.803555   74.20866  
7974       0.5786601  1.812587   74.43764  
7974.5     0.5856525  1.808658   74.67871  
7975       0.5926447  1.80063    74.9198   
7975.5     0.599637   1.805284   75.19402  
7976       0.6066293  1.827954   75.4873   
7976.5     0.6136216  1.83806    75.78059  
7977       0.6206139  1.797036   76.07388  
7977.5     0.6276062  1.756012   76.36717  
7978       0.6289309  1.714988   76.38208  
7978.5     0.6289309  1.683391   76.33481  
7979       0.6289309  1.656298   76.28754  
7979.5     0.6289309  1.629205   76.24026  
7980       0.6289309  1.602111   76.19299  
7980.5     0.6289309  1.575018   76.14572  
7981       0.6289309  1.547924   76.12906  
7981.5     0.6289309  1.532182   76.25597  
7982       0.6289309  1.532182   76.38286  
7982.5     0.6289309  1.532182   76.50977  
7983       0.6289309  1.532182   76.63667  
7983.5     0.6316384  1.534325   76.69203  
7984       0.63535    1.537684   76.50452  
7984.5     0.6390615  1.541044   76.317    
7985       0.642773   1.544405   76.12949  
7985.5     0.6464845  1.547765   75.94197  
7986       0.6501961  1.552082   75.75446  
7986.5     0.6539077  1.586074   75.78336  
7987       0.6576191  1.620066   76.18524  
7987.5     0.6571728  1.625184   76.58713  
7988       0.6446958  1.623725   76.98901  
7988.5     0.6322187  1.622265   77.35779  
7989       0.6197417  1.620805   77.28891  
7989.5     0.6072645  1.626266   77.22002  
7990       0.5947875  1.638304   77.15112  
7990.5     0.5823104  1.650342   77.08223  
7991       0.5698333  1.66238    77.01614  
7991.5     0.5573562  1.657903   76.9527   
7992       0.5448792  1.650766   76.88927  
7992.5     0.532402   1.643629   76.82582  
7993       0.519925   1.638392   76.76239  
7993.5     0.507448   1.636813   76.97577  
7994       0.4949708  1.635234   77.40363  
7994.5     0.4824937  1.633656   77.83147  
7995       0.4737735  1.632076   78.25931  
7995.5     0.4891734  1.630497   78.5349   
7996       0.5045735  1.628918   78.674    
7996.5     0.5199734  1.627338   78.8131   
7997       0.5353733  1.626866   78.93993  
7997.5     0.5507733  1.628134   78.99234  
7998       0.5659848  1.629401   79.04475  
7998.5     0.559954   1.630669   79.09717  
7999       0.5539232  1.631936   79.14958  
7999.5     0.5478925  1.637136   79.202    
8000       0.5418618  1.647451   79.26753  
8000.5     0.535831   1.659863   79.40663  
8001       0.5298002  1.673625   79.54573  
8001.5     0.5237695  1.687651   79.68483  
8002       0.5177387  1.70175    79.87605  
8002.5     0.5117079  1.715848   80.08324  
8003       0.5056771  1.729947   80.29041  
8003.5     0.5091635  1.744045   80.49759  
8004       0.5195392  1.747517   80.70477  
8004.5     0.5299151  1.737378   80.91196  
8005       0.5402908  1.727241   81.11914  
8005.5     0.5506667  1.721921   81.32631  
