~Version
 VERS              .         3.0                           : CWLS LOG ASCII STANDARD - VERSION 3.0
 WRAP              .         NO                            : ONE LINE PER DEPTH STEP
 DLM               .         SPACE                         : DELIMITING CHARACTER(SPACE TAB OR COMMA)
~Well Information
#_______________________________________________________________________________
#
#PARAMETER_NAME    .UNIT     VALUE                         : DESCRIPTION
#_______________________________________________________________________________
STRT               .ft       3001                          : First reference value
STOP               .ft       8404                          : Last reference value
STEP               .ft       0.5                           : Step increment
NULL               .         -9999                         : Missing value
COMP               .                                       : Company
WELL               .         EGBM-006                      : Well name
FLD                .         EGBEMA                        : Field
LOC                .                                       : Location
SRVC               .                                       : Service Company
CTRY               .                                       : Country
DATE               .         1967/01/30                    : Service Date
X                  .                                       : X or East-West coordinate
Y                  .                                       : Y or North South coordinate
GDAT               .                                       : Geodetic Datum
HZCS               .                                       : Horizontal Co-ordinate System
APIN               .         10804/01                      : 
BHT                .degF     171                           : 
BLI                .ft       8000                          : 
BS                 .in       9.625                         : 
CREATION-TIME      .         2067/1/30 0_0                 : 
CSIZ               .in       10.75                         : 
DFD                .g/cm3    1.19                          : 
DFT                .         BENTONITE SPERSENE XP-20      : 
DFV                .s        0                             : 
ELZ                .         -999.25                       : 
FIELD-NAME         .         EGBEMA                        : 
FILE-ID            .         SOH21 .4                      : 
FILE-NUMBER        .         101                           : 
FILE-SET-NAME      .                                       : 
FILE-SET-NUMBER    .         0                             : 
FILE-TYPE          .         PTF                           : 
HIDE               .         4540_300_185_6_1_DATE_67/01/30_SOH_21_SEQ_4: 
LCC                .         0                             : 
LMF                .         1                             : 
MCST               .degF     69                            : 
MFST               .degF     69                            : 
MST                .degF     92                            : 
NAME-SPACE-NAME    .         LIS                           : 
NAME-SPACE-VERSION .         0                             : 
PRODUC             .         SHELL(PARASOL)                : 
PRODUCER-CODE      .         0                             : 
PRODUCER-NAME      .         Schlumberger                  : 
PRODUCT            .                                       : 
PROGRAMS           .                                       : 
R1                 .         INFORMATION NOT AVAILABLE     : 
R2                 .         RERUNS ON 200 SCALE FROM 3950 TO CSG SHOE 5950 TO 5400: 
R3                 .         CALIPER CURVE IS RECORDING 1/4" TOO BIG ACCORDING TO CASING CHECK: 
R4                 .         PREVIOUS LOG                  : 
R5                 .         LATER                         : 
RMCS               .ohm.m    1.27                          : 
RMFS               .ohm.m    1.05                          : 
RMS                .ohm.m    1.09                          : 
TCS                .h        -999.25                       : 
TDD                .ft       8400                          : 
TDL                .ft       8400                          : 
TLI                .ft       5100                          : 
VERSION            .         2P01                          : 
WELL-ID            .         10804/01                      : 
WELL-NAME          .         EGBM-006                      : 
WN                 .         EGBM-006                      : 
~Parameter Information Block
#_______________________________________________________________________________
#
#PARAMETER_NAME    .UNIT     VALUE                         : DESCRIPTION
#_______________________________________________________________________________
SET                .         SOH18 _1_1                    : 
ACQUISITION-PRODUCT .         DLIS/U                        : 
CREATION-TIME      .         2026/5/13 10_46               : 
DLIS_FRAME_DIRECTION .         INCREASING                    : 
DLIS_FRAME_NAME    .         1                             : 
DLIS_FRAME_SPACING .ft       0.5                           : 
FIELD-NAME         .         EGBEMA                        : 
FILE-ID            .         SOH18 .1                      : 
FILE-NUMBER        .         1                             : 
FILE-SET-NAME      .         LIS-TO-DLIS-CONVERSION        : 
FILE-SET-NUMBER    .         9939                          : 
FILE-TYPE          .         PTF                           : 
INDEX-TYPE         .         BOREHOLE-DEPTH                : 
NAME-SPACE-NAME    .                                       : 
NAME-SPACE-VERSION .         0                             : 
OriginalDatasetName .         1                             : 
PRODUCER-CODE      .         440                           : 
PRODUCER-NAME      .         Schlumberger                  : 
PRODUCT            .         DLIS/U                        : 
PROGRAMS           .         LIS-TO-DLIS                   : 
TLFamily_DEPT      .         Measured Depth                : 
TLFamily_LN        .                                       : 
TLFamily_SN        .         Resistivity - Shallow         : 
TLFamily_SP        .         Spontaneous Potential         : 
VERSION            .         0.1                           : 
WELL-ID            .         10804/01                      : 
WELL-NAME          .         EGBM-006                      : 
~Curve Information
#_______________________________________________________________________________
#
#LOGNAME           .UNIT     LOG_ID                        : DESCRIPTION
#_______________________________________________________________________________
DEPT               .ft                                     :  {F}
LN                 .ohm.m                                  :  {F}
SN                 .ohm.m                                  :  {F}
SP                 .mV                                     :  {F}
~Ascii
# ...
7551       0.9253006  2.396054   61.88174  
7551.5     0.9286867  2.351398   61.81816  
7552       0.9320729  2.314485   61.75458  
7552.5     0.935459   2.287765   61.79039  
7553       0.9388452  2.261044   61.87988  
7553.5     0.9326487  2.234323   61.96938  
7554       0.9179305  2.235348   62.03976  
7554.5     0.9032123  2.235819   61.98224  
7555       0.8884941  2.224632   61.9247   
7555.5     0.873776   2.213446   61.91765  
7556       0.8590578  2.202259   61.98869  
7556.5     0.8443607  2.191072   62.01456  
7557       0.8297927  2.179885   61.82867  
7557.5     0.8152249  2.190969   61.64278  
7558       0.800657   2.216155   61.45689  
7558.5     0.7860892  2.241341   61.37598  
7559       0.7869403  2.230062   61.32346  
7559.5     0.7908176  2.213527   61.27094  
7560       0.794695   2.196992   61.21843  
7560.5     0.7985723  2.180457   61.16591  
7561       0.8024496  2.179606   61.11339  
7561.5     0.806327   2.185378   61.15009  
7562       0.8102043  2.19115    61.21049  
7562.5     0.8140815  2.199343   61.2709   
7563       0.8219033  2.210564   61.33131  
7563.5     0.8310331  2.221786   61.39171  
7564       0.8401629  2.233006   61.15633  
7564.5     0.8492928  2.244279   60.70335  
7565       0.8584225  2.255597   60.25037  
7565.5     0.8675523  2.258059   60        
7566       0.876682   2.241473   60        
7566.5     0.8858118  2.224889   60        
7567       0.8949416  2.208303   60        
7567.5     0.9040713  2.202472   60.0293   
7568       0.9102674  2.205907   60.23071  
7568.5     0.9128803  2.227971   60.43211  
7569       0.9154932  2.257005   60.4456   
7569.5     0.9181062  2.254256   60.41205  
7570       0.9207191  2.251508   60.37849  
7570.5     0.9233322  2.248759   60.34494  
7571       0.9259452  2.246011   60.32353  
7571.5     0.9285581  2.257384   60.40408  
7572       0.9311711  2.285666   60.48463  
7572.5     0.933784   2.312123   60.56517  
7573       0.9363971  2.332745   60.64815  
7573.5     0.93901    2.342931   60.74107  
7574       0.9422247  2.338352   60.83398  
7574.5     0.9461659  2.333773   60.92691  
7575       0.950107   2.355233   60.69429  
7575.5     0.954048   2.389187   60.38365  
7576       0.9579892  2.413424   60.073    
7576.5     0.9619303  2.42625    59.76236  
7577       0.9658713  2.453718   59.40959  
7577.5     0.9698125  2.495543   58.92641  
7578       0.968152   2.537367   58.44324  
7578.5     0.9608681  2.591072   58.32266  
7579       0.9535842  2.656338   58.40897  
7579.5     0.9463003  2.693505   58.49527  
7580       0.9516187  2.716344   58.58157  
7580.5     1.008859   2.720447   59.02989  
7581       1.066098   2.687162   59.48288  
7581.5     1.094681   2.624521   59.65823  
7582       1.089217   2.555775   59.80321  
7582.5     1.083754   2.53058    59.94818  
7583       1.078289   2.505385   59.7261   
7583.5     1.072825   2.516924   59.29987  
7584       1.067362   2.543623   59.09187  
7584.5     1.061898   2.563447   59.17819  
7585       1.056434   2.585007   58.64145  
7585.5     1.05097    2.606567   58.69708  
7586       1.045506   2.628128   58.59639  
7586.5     1.040042   2.644848   58.4957   
7587       1.034578   2.656165   58.46544  
7587.5     1.034482   2.681291   58.59967  
7588       1.034482   2.746368   58.7339   
7588.5     1.036851   2.808448   58.86813  
7589       1.057756   2.800433   58.89763  
7589.5     1.078662   2.79402    58.89763  
7590       1.099567   2.789365   58.99081  
7590.5     1.120472   2.784711   59.12503  
7591       1.141377   2.780056   59.11258  
7591.5     1.158336   2.788949   58.82494  
7592       1.144979   2.815399   58.53728  
7592.5     1.131624   2.841848   58.58905  
7593       1.118268   2.896175   58.85751  
7593.5     1.104913   2.949156   59.12599  
7594       1.107295   2.982218   59.3743   
7594.5     1.131331   3.008977   59.42075  
7595       1.155368   3.006571   59.46721  
7595.5     1.179403   3.004166   59.51367  
7596       1.20344    2.989398   59.64854  
7596.5     1.22257    2.965352   59.82112  
7597       1.22257    2.941307   60.08308  
7597.5     1.22257    2.909816   60.35771  
7598       1.22257    2.868939   60.63103  
7598.5     1.22257    2.828062   60.75816  
7599       1.196477   2.823827   60.88528  
7599.5     1.127789   2.826834   60.72423  
7600       1.0591     2.87808    60.30891  
7600.5     1.008786   2.947554   59.89359  
7601       0.9701213  3.019689   59.47826  
7601.5     0.9482546  3.091825   59.28514  
7602       0.980726   3.16396    59.48647  
7602.5     1.043422   3.178683   59.38335  
7603       1.106117   3.118758   59.20215  
7603.5     1.132817   3.022577   59.07581  
7604       1.139495   2.944114   59.18564  
7604.5     1.146173   2.917623   59.29546  
7605       1.152851   2.939474   59.40529  
7605.5     1.159529   2.914538   59.51511  
7606       1.180598   2.866447   59.61684  
7606.5     1.202455   2.844173   59.71751  
7607       1.22431    2.839116   59.81819  
7607.5     1.246165   2.851944   59.91888  
7608       1.268021   2.864771   60.02762  
7608.5     1.281708   2.877599   60.16975  
7609       1.264837   2.89363    60.3119   
7609.5     1.247967   2.912867   60.05229  
7610       1.231096   2.932102   59.78386  
7610.5     1.214226   2.956765   59.80246  
7611       1.197355   2.98208    59.98828  
7611.5     1.180485   3.0183     60.17412  
7612       1.163614   3.069825   60.07117  
7612.5     1.155196   3.073861   59.06454  
7613       1.149186   3.045007   58.76839  
7613.5     1.143176   3.016152   58.81004  
7614       1.137166   3.020403   58.8517   
7614.5     1.131156   3.025211   58.89336  
7615       1.139565   3.02183    59.1259   
7615.5     1.159189   3.004853   59.38025  
7616       1.178813   2.996244   59.4351   
7616.5     1.198438   3.03152    59.21548  
7617       1.218061   3.059113   58.99586  
7617.5     1.237686   3.056927   58.91393  
7618       1.253918   3.054741   58.94339  
7618.5     1.253918   3.066637   58.97285  
7619       1.253918   3.10625    59.00233  
7619.5     1.253918   3.142654   59.0318   
7620       1.253918   3.155774   59.11336  
7620.5     1.252133   3.18904    59.39203  
7621       1.243938   3.231463   59.3969   
7621.5     1.235744   3.244483   59.14255  
7622       1.227548   3.22444    58.89171  
7622.5     1.219353   3.204395   58.73216  
7623       1.211158   3.174738   58.57262  
7623.5     1.202963   3.126648   58.41306  
7624       1.194768   3.064146   58.25351  
7624.5     1.186572   2.999768   58.09396  
7625       1.178377   2.959693   57.9344   
7625.5     1.170182   2.919618   57.86484  
7626       1.161987   2.913031   58.40862  
7626.5     1.164509   2.918375   58.95239  
7627       1.170753   2.923718   59.11182  
7627.5     1.176998   2.938372   58.91858  
7628       1.183243   2.986463   58.72534  
7628.5     1.189487   3.034553   58.39284  
7629       1.195732   3.073667   57.66754  
7629.5     1.201977   3.109919   57.77678  
7630       1.208221   3.114291   57.92171  
7630.5     1.214465   3.118665   58.06664  
7631       1.22071    3.12993    58.06902  
7631.5     1.237121   3.172868   58.01009  
7632       1.257844   3.215806   57.95114  
7632.5     1.278567   3.258743   57.8922   
7633       1.299291   3.309324   57.83325  
7633.5     1.320014   3.36673    57.78264  
7634       1.340737   3.424135   57.74712  
7634.5     1.361461   3.48154    57.71158  
7635       1.380568   3.527711   57.67606  
7635.5     1.38964    3.56206    57.64053  
7636       1.398711   3.596411   57.52632  
7636.5     1.407784   3.630761   57.55905  
7637       1.416855   3.646425   57.68623  
7637.5     1.425926   3.667271   57.72829  
7638       1.434999   3.711675   57.25854  
7638.5     1.445321   3.730407   56.78879  
7639       1.45989    3.730407   56.81311  
7639.5     1.474461   3.748343   56.96414  
7640       1.48903    3.797848   57.11516  
7640.5     1.503599   3.847352   57.26619  
7641       1.518168   3.896857   57.39542  
7641.5     1.532739   3.946362   57.51157  
