~Version
 VERS              .         3.0                           : CWLS LOG ASCII STANDARD - VERSION 3.0
 WRAP              .         NO                            : ONE LINE PER DEPTH STEP
 DLM               .         SPACE                         : DELIMITING CHARACTER(SPACE TAB OR COMMA)
~Well Information
#_______________________________________________________________________________
#
#PARAMETER_NAME    .UNIT     VALUE                         : DESCRIPTION
#_______________________________________________________________________________
STRT               .ft       3001                          : First reference value
STOP               .ft       8404                          : Last reference value
STEP               .ft       0.5                           : Step increment
NULL               .         -9999                         : Missing value
COMP               .                                       : Company
WELL               .         EGBM-006                      : Well name
FLD                .         EGBEMA                        : Field
LOC                .                                       : Location
SRVC               .                                       : Service Company
CTRY               .                                       : Country
DATE               .         1967/01/30                    : Service Date
X                  .                                       : X or East-West coordinate
Y                  .                                       : Y or North South coordinate
GDAT               .                                       : Geodetic Datum
HZCS               .                                       : Horizontal Co-ordinate System
APIN               .         10804/01                      : 
BHT                .degF     171                           : 
BLI                .ft       8000                          : 
BS                 .in       9.625                         : 
CREATION-TIME      .         2067/1/30 0_0                 : 
CSIZ               .in       10.75                         : 
DFD                .g/cm3    1.19                          : 
DFT                .         BENTONITE SPERSENE XP-20      : 
DFV                .s        0                             : 
ELZ                .         -999.25                       : 
FIELD-NAME         .         EGBEMA                        : 
FILE-ID            .         SOH21 .4                      : 
FILE-NUMBER        .         101                           : 
FILE-SET-NAME      .                                       : 
FILE-SET-NUMBER    .         0                             : 
FILE-TYPE          .         PTF                           : 
HIDE               .         4540_300_185_6_1_DATE_67/01/30_SOH_21_SEQ_4: 
LCC                .         0                             : 
LMF                .         1                             : 
MCST               .degF     69                            : 
MFST               .degF     69                            : 
MST                .degF     92                            : 
NAME-SPACE-NAME    .         LIS                           : 
NAME-SPACE-VERSION .         0                             : 
PRODUC             .         SHELL(PARASOL)                : 
PRODUCER-CODE      .         0                             : 
PRODUCER-NAME      .         Schlumberger                  : 
PRODUCT            .                                       : 
PROGRAMS           .                                       : 
R1                 .         INFORMATION NOT AVAILABLE     : 
R2                 .         RERUNS ON 200 SCALE FROM 3950 TO CSG SHOE 5950 TO 5400: 
R3                 .         CALIPER CURVE IS RECORDING 1/4" TOO BIG ACCORDING TO CASING CHECK: 
R4                 .         PREVIOUS LOG                  : 
R5                 .         LATER                         : 
RMCS               .ohm.m    1.27                          : 
RMFS               .ohm.m    1.05                          : 
RMS                .ohm.m    1.09                          : 
TCS                .h        -999.25                       : 
TDD                .ft       8400                          : 
TDL                .ft       8400                          : 
TLI                .ft       5100                          : 
VERSION            .         2P01                          : 
WELL-ID            .         10804/01                      : 
WELL-NAME          .         EGBM-006                      : 
WN                 .         EGBM-006                      : 
~Parameter Information Block
#_______________________________________________________________________________
#
#PARAMETER_NAME    .UNIT     VALUE                         : DESCRIPTION
#_______________________________________________________________________________
SET                .         SOH18 _1_1                    : 
ACQUISITION-PRODUCT .         DLIS/U                        : 
CREATION-TIME      .         2026/5/13 10_46               : 
DLIS_FRAME_DIRECTION .         INCREASING                    : 
DLIS_FRAME_NAME    .         1                             : 
DLIS_FRAME_SPACING .ft       0.5                           : 
FIELD-NAME         .         EGBEMA                        : 
FILE-ID            .         SOH18 .1                      : 
FILE-NUMBER        .         1                             : 
FILE-SET-NAME      .         LIS-TO-DLIS-CONVERSION        : 
FILE-SET-NUMBER    .         9939                          : 
FILE-TYPE          .         PTF                           : 
INDEX-TYPE         .         BOREHOLE-DEPTH                : 
NAME-SPACE-NAME    .                                       : 
NAME-SPACE-VERSION .         0                             : 
OriginalDatasetName .         1                             : 
PRODUCER-CODE      .         440                           : 
PRODUCER-NAME      .         Schlumberger                  : 
PRODUCT            .         DLIS/U                        : 
PROGRAMS           .         LIS-TO-DLIS                   : 
TLFamily_DEPT      .         Measured Depth                : 
TLFamily_LN        .                                       : 
TLFamily_SN        .         Resistivity - Shallow         : 
TLFamily_SP        .         Spontaneous Potential         : 
VERSION            .         0.1                           : 
WELL-ID            .         10804/01                      : 
WELL-NAME          .         EGBM-006                      : 
~Curve Information
#_______________________________________________________________________________
#
#LOGNAME           .UNIT     LOG_ID                        : DESCRIPTION
#_______________________________________________________________________________
DEPT               .ft                                     :  {F}
LN                 .ohm.m                                  :  {F}
SN                 .ohm.m                                  :  {F}
SP                 .mV                                     :  {F}
~Ascii
3001.0     -0.2143299 7.06641    67.24361  
3001.5     -0.2478578 8.881037   69.62492  
3002       -0.2813858 10.75003   71.53114  
3002.5     0.3078465  12.12284   72.95598  
3003       6.013884   13.75669   74.61351  
3003.5     11.56359   14.83589   75.32617  
3004       14.59332   15.46343   75.41928  
3004.5     16.60878   15.79867   75.35233  
3005       18.30112   16.00459   75.17157  
3005.5     19.25325   16.23721   74.84277  
3006       19.93465   16.36363   74.51396  
3006.5     20.10471   16.3584    73.9702   
3007       19.56746   16.22115   73.26123  
3007.5     18.37735   16.06218   72.42894  
3008       17.08401   15.82195   71.36526  
3008.5     15.74501   15.42674   70.20079  
3009       14.58617   14.84572   68.364    
3009.5     13.54449   14.02521   66.52721  
3010       12.67739   12.95905   64.56006  
3010.5     11.97206   12.08495   62.41399  
3011       11.26674   11.48457   60.66945  
3011.5     10.56142   10.97678   59.87708  
3012       10.2355    10.49626   59.76747  
3012.5     9.910891   10.27141   60.59105  
3013       9.597221   10.06122   61.65758  
3013.5     9.359144   9.731604   63.03517  
3014       9.121065   9.250759   64.3938   
3014.5     8.941372   8.517006   65.70903  
3015       8.816095   7.750025   66.68681  
3015.5     8.684849   7.331402   67.52267  
3016       8.404785   7.194148   67.92448  
3016.5     8.124722   7.090353   68.26393  
3017       8.074535   7.118617   68.37874  
3017.5     8.074535   7.14688    68.49353  
3018       8.203199   6.889515   68.52144  
3018.5     8.579102   6.699316   68.45447  
3019       8.955002   6.596621   68.50375  
3019.5     9.490032   6.716734   69.32861  
3020       10.05016   7.013714   70.15349  
3020.5     10.05623   7.457242   71.40125  
3021       9.758673   8.013821   72.87437  
3021.5     9.21814    9.136751   74.55415  
3022       8.485603   11.06206   76.70665  
3022.5     9.103901   13.04181   79.04042  
3023       9.937017   15.37994   81.55116  
3023.5     11.16245   16.9469    83.79068  
3024       13.54368   18.20808   84.8867   
3024.5     17.179     19.46928   85.67754  
3025       20.93327   20.39046   86.22246  
3025.5     24.4449    20.98143   86.44849  
3026       26.98392   21.30173   86.62419  
3026.5     29.3494    21.80956   86.56075  
3027       31.201     22.38361   86.49728  
3027.5     33.0526    22.90939   86.77753  
3028       33.94734   23.08096   87.20802  
3028.5     34.74081   23.30629   87.50604  
3029       35.54805   23.64545   87.71838  
3029.5     36.42516   23.99014   87.6179   
3030       37.30226   24.38321   87.08929  
3030.5     37.74097   24.68889   86.28568  
3031       37.97903   24.83974   85.50078  
3031.5     38.22775   24.62137   84.72589  
3032       38.60358   24.42381   84.59119  
3032.5     38.9794    24.18443   84.54404  
3033       38.86343   23.93407   84.41299  
3033.5     38.41704   23.84927   84.17189  
3034       37.97066   23.76448   84.56352  
3034.5     37.52428   23.56801   85.13083  
3035       36.76259   23.2552    85.34895  
3035.5     35.57227   22.77478   85.29874  
3036       34.38196   22.25438   85.24852  
3036.5     33.13664   21.68398   84.84589  
3037       31.75861   20.99004   83.98474  
3037.5     30.38058   20.07257   83.1236   
3038       29.30829   19.3511    82.09914  
3038.5     28.30589   18.64648   81.00331  
3039       27.39021   17.87315   79.90747  
3039.5     26.64632   17.08131   78.50772  
3040       25.72354   16.24577   77.04402  
3040.5     24.25847   15.41025   75.92473  
3041       22.28772   14.62965   74.82536  
3041.5     19.90698   14.00132   73.82076  
3042       17.52644   13.26588   72.81613  
3042.5     15.33406   12.36896   71.91722  
3043       13.39995   11.21919   71.04056  
3043.5     11.67447   9.705639   70.16388  
3044       10.36505   8.065605   69.13748  
3044.5     9.055616   7.024622   68.11325  
3045       8.264124   6.41327    67.14879  
3045.5     7.668993   5.989317   66.76773  
3046       7.073862   5.668173   66.50943  
3046.5     6.4993     5.459289   66.50943  
3047       6.188791   5.250403   66.50943  
3047.5     5.878283   5.083835   66.50943  
3048       5.564749   4.963744   66.71913  
3048.5     5.212088   4.843654   67.06354  
3049       4.859426   4.923634   67.20126  
3049.5     4.506764   5.034515   67.28163  
3050       4.297534   5.145397   66.93352  
3050.5     4.20598    5.215137   66.40146  
3051       4.114426   5.239156   65.72337  
3051.5     4.050636   5.263174   65.20573  
3052       4.135666   5.242059   65.05505  
3052.5     4.220695   5.213795   64.9371   
3053       4.305726   5.276668   64.9371   
3053.5     4.39405    5.389697   64.82832  
3054       4.485603   5.481857   63.99385  
3054.5     4.577158   5.54593    63.36484  
3055       4.658385   5.640053   63.00316  
3055.5     4.658385   5.768166   62.64148  
3056       4.658385   6.023869   61.91476  
3056.5     4.609047   6.401318   61.11124  
3057       4.476789   6.849178   60.35567  
3057.5     4.347826   7.701138   59.65248  
3058       4.347826   8.512892   58.94928  
3058.5     4.347826   9.168001   58.42438  
3059       4.668072   9.519547   58.23402  
3059.5     5.064843   9.449492   58.04367  
3060       5.498064   9.203165   58.50806  
3060.5     5.97425    8.75477    59.0706   
3061       6.21118    8.306229   60.03679  
3061.5     6.21118    7.855803   61.04141  
3062       6.21118    7.405377   61.98178  
3062.5     6.21118    7.004233   62.87276  
3063       6.21118    6.603897   63.76375  
3063.5     6.21118    6.152724   64.54041  
3064       6.231605   5.6723     65.2292   
3064.5     6.316623   5.342072   65.918    
3065       6.401642   5.083422   66.22215  
3065.5     6.48666    5.07837    66.44536  
3066       6.436983   5.154981   66.66858  
3066.5     6.292694   5.339784   66.8239   
3067       6.148406   5.490434   66.8239   
3067.5     6.004117   5.627688   66.8239   
3068       5.90062    5.764942   66.8239   
3068.5     5.90062    5.768025   66.8239   
3069       5.90062    5.768025   66.79306  
3069.5     5.90062    5.768025   66.75761  
3070       5.90062    5.768025   66.72217  
3070.5     5.763734   5.895998   66.68671  
3071       5.623702   6.05138    66.58905  
3071.5     5.48367    6.360202   66.41046  
3072       5.343638   6.656004   66.23186  
3072.5     5.333264   6.918048   66.05325  
3073       5.432457   6.999747   65.88765  
3073.5     5.531651   6.974943   65.72327  
3074       5.590062   6.885608   65.57155  
3074.5     5.590062   6.778873   65.69846  
3075       5.590062   6.820691   65.82536  
3075.5     5.590062   6.954516   65.8156   
3076       5.590062   7.062119   65.70079  
3076.5     5.590062   6.942005   65.586    
3077       5.564739   6.548245   65.97614  
3077.5     5.394702   6.424113   66.47252  
3078       5.224664   6.394984   66.63171  
3078.5     5.054626   6.394984   66.57431  
3079       4.906783   6.023127   66.51692  
3079.5     4.781483   5.688792   66.40961  
3080       4.656182   5.379971   66.2948   
3080.5     4.530882   5.106133   66.23425  
3081       4.405581   4.929051   66.53563  
3081.5     4.276531   4.842036   66.83263  
3082       4.144274   4.906093   67.03351  
3082.5     4.012016   4.995905   67.09402  
3083       3.87976    5.156039   67.00128  
3083.5     3.747502   5.316175   66.86319  
3084       3.941663   5.181983   66.71251  
3084.5     4.196718   5.000081   66.79092  
3085       4.451775   4.778317   66.9695   
3085.5     4.673977   4.639091   67.14807  
3086       4.756066   4.543007   67.2825   
3086.5     4.838155   4.409124   67.20715  
3087       4.920243   4.258983   67.14388  
3087.5     4.933084   4.269725   67.20734  
3088       4.844918   4.382754   67.27078  
3088.5     4.756753   4.545748   67.18269  
3089       4.668588   4.873863   66.99725  
3089.5     4.577426   5.254935   66.81181  
3090       4.485872   5.608406   66.57936  
3090.5     4.394318   5.826776   66.17754  
3091       4.431527   5.936958   65.77571  
3091.5     4.601587   5.999623   65.37268  
