~Version
 VERS              .         3.0                           : CWLS LOG ASCII STANDARD - VERSION 3.0
 WRAP              .         NO                            : ONE LINE PER DEPTH STEP
 DLM               .         SPACE                         : DELIMITING CHARACTER(SPACE TAB OR COMMA)
~Well Information
#_______________________________________________________________________________
#
#PARAMETER_NAME    .UNIT     VALUE                         : DESCRIPTION
#_______________________________________________________________________________
STRT               .ft       3001                          : First reference value
STOP               .ft       8404                          : Last reference value
STEP               .ft       0.5                           : Step increment
NULL               .         -9999                         : Missing value
COMP               .                                       : Company
WELL               .         EGBM-006                      : Well name
FLD                .         EGBEMA                        : Field
LOC                .                                       : Location
SRVC               .                                       : Service Company
CTRY               .                                       : Country
DATE               .         1967/01/30                    : Service Date
X                  .                                       : X or East-West coordinate
Y                  .                                       : Y or North South coordinate
GDAT               .                                       : Geodetic Datum
HZCS               .                                       : Horizontal Co-ordinate System
APIN               .         10804/01                      : 
BHT                .degF     171                           : 
BLI                .ft       8000                          : 
BS                 .in       9.625                         : 
CREATION-TIME      .         2067/1/30 0_0                 : 
CSIZ               .in       10.75                         : 
DFD                .g/cm3    1.19                          : 
DFT                .         BENTONITE SPERSENE XP-20      : 
DFV                .s        0                             : 
ELZ                .         -999.25                       : 
FIELD-NAME         .         EGBEMA                        : 
FILE-ID            .         SOH21 .4                      : 
FILE-NUMBER        .         101                           : 
FILE-SET-NAME      .                                       : 
FILE-SET-NUMBER    .         0                             : 
FILE-TYPE          .         PTF                           : 
HIDE               .         4540_300_185_6_1_DATE_67/01/30_SOH_21_SEQ_4: 
LCC                .         0                             : 
LMF                .         1                             : 
MCST               .degF     69                            : 
MFST               .degF     69                            : 
MST                .degF     92                            : 
NAME-SPACE-NAME    .         LIS                           : 
NAME-SPACE-VERSION .         0                             : 
PRODUC             .         SHELL(PARASOL)                : 
PRODUCER-CODE      .         0                             : 
PRODUCER-NAME      .         Schlumberger                  : 
PRODUCT            .                                       : 
PROGRAMS           .                                       : 
R1                 .         INFORMATION NOT AVAILABLE     : 
R2                 .         RERUNS ON 200 SCALE FROM 3950 TO CSG SHOE 5950 TO 5400: 
R3                 .         CALIPER CURVE IS RECORDING 1/4" TOO BIG ACCORDING TO CASING CHECK: 
R4                 .         PREVIOUS LOG                  : 
R5                 .         LATER                         : 
RMCS               .ohm.m    1.27                          : 
RMFS               .ohm.m    1.05                          : 
RMS                .ohm.m    1.09                          : 
TCS                .h        -999.25                       : 
TDD                .ft       8400                          : 
TDL                .ft       8400                          : 
TLI                .ft       5100                          : 
VERSION            .         2P01                          : 
WELL-ID            .         10804/01                      : 
WELL-NAME          .         EGBM-006                      : 
WN                 .         EGBM-006                      : 
~Parameter Information Block
#_______________________________________________________________________________
#
#PARAMETER_NAME    .UNIT     VALUE                         : DESCRIPTION
#_______________________________________________________________________________
SET                .         SOH18 _1_1                    : 
ACQUISITION-PRODUCT .         DLIS/U                        : 
CREATION-TIME      .         2026/5/13 10_46               : 
DLIS_FRAME_DIRECTION .         INCREASING                    : 
DLIS_FRAME_NAME    .         1                             : 
DLIS_FRAME_SPACING .ft       0.5                           : 
FIELD-NAME         .         EGBEMA                        : 
FILE-ID            .         SOH18 .1                      : 
FILE-NUMBER        .         1                             : 
FILE-SET-NAME      .         LIS-TO-DLIS-CONVERSION        : 
FILE-SET-NUMBER    .         9939                          : 
FILE-TYPE          .         PTF                           : 
INDEX-TYPE         .         BOREHOLE-DEPTH                : 
NAME-SPACE-NAME    .                                       : 
NAME-SPACE-VERSION .         0                             : 
OriginalDatasetName .         1                             : 
PRODUCER-CODE      .         440                           : 
PRODUCER-NAME      .         Schlumberger                  : 
PRODUCT            .         DLIS/U                        : 
PROGRAMS           .         LIS-TO-DLIS                   : 
TLFamily_DEPT      .         Measured Depth                : 
TLFamily_LN        .                                       : 
TLFamily_SN        .         Resistivity - Shallow         : 
TLFamily_SP        .         Spontaneous Potential         : 
VERSION            .         0.1                           : 
WELL-ID            .         10804/01                      : 
WELL-NAME          .         EGBM-006                      : 
~Curve Information
#_______________________________________________________________________________
#
#LOGNAME           .UNIT     LOG_ID                        : DESCRIPTION
#_______________________________________________________________________________
DEPT               .ft                                     :  {F}
LN                 .ohm.m                                  :  {F}
SN                 .ohm.m                                  :  {F}
SP                 .mV                                     :  {F}
~Ascii
# ...
5458       9.610252   25.11072   27.53561  
5458.5     14.64357   28.38208   26.96785  
5459       25.56451   32.18387   26.59729  
5459.5     33.90201   35.98567   26.22673  
5460       42.10104   40.05553   25.86243  
5460.5     50.22659   44.23752   25.60857  
5461       58.36453   48.41986   25.54521  
5461.5     66.51205   52.6035    25.48184  
5462       74.65959   56.78712   25.16049  
5462.5     82.71968   60.31027   24.80841  
5463       90.34366   63.60516   24.5675   
5463.5     98.08794   66.55658   24.2534   
5464       105.9537   68.53908   23.61589  
5464.5     115.0546   70.47511   22.97838  
5465       121.511    71.32512   22.259    
5465.5     126.3134   72.17513   21.53969  
5466       130.1254   72.32704   21.33894  
5466.5     131.7276   72.32704   21.13823  
5467       133.2925   72.11162   20.93755  
5467.5     134.9973   71.47774   20.76363  
5468       136.939    70.84386   20.86397  
5468.5     138.8807   69.53778   20.96432  
5469       140.8224   68.12172   21.06467  
5469.5     143.218    67.22554   21.19701  
5470       146.5679   66.62349   21.33084  
5470.5     149.9178   66.02144   21.33661  
5471       153.4056   65.41939   21.25893  
5471.5     157.1886   67.14354   21.18123  
5472       160.9716   69.01671   21.10355  
5472.5     165.2028   75.36502   20.85718  
5473       169.7649   80.44188   20.47701  
5473.5     174.5766   84.62386   20.0901   
5474       181.8002   88.72578   19.62167  
5474.5     191.0516   92.14876   19.15324  
5475       207.6431   95.57172   18.98869  
5475.5     220.2004   98.44841   18.93852  
5476       231.761    100.9973   18.88835  
5476.5     243.3631   103.307    19.01065  
5477       253.855    105.264    19.25143  
5477.5     262.9832   106.8271   19.03424  
5478       268.6475   107.5351   18.55243  
5478.5     274.3115   108.2445   18.10561  
5479       277.0237   108.9671   17.67557  
5479.5     278.4207   109.6896   17.50798  
5480       278.3647   110.2846   17.38756  
5480.5     276.4395   110.7433   17.19077  
5481       273.0859   111.202    16.74722  
5481.5     271.1917   110.9008   16.30368  
5482       270.8928   110.3343   15.61033  
5482.5     272.0964   109.7677   14.83585  
5483       273.1284   109.2012   14.68276  
5483.5     274.1196   108.4429   14.57807  
5484       274.9636   107.2389   14.47338  
5484.5     275.7043   106.035    14.66173  
5485       275.1096   104.831    14.87423  
5485.5     274.3494   103.627    15.33628  
5486       273.052    102.423    15.9032   
5486.5     270.9768   101.2104   16.2981   
5487       268.9014   99.73883   16.5106   
5487.5     266.8259   98.26724   16.72227  
5488       264.7935   96.93889   16.93166  
5488.5     262.8591   95.67744   17.14102  
5489       262.217    94.416     17.38385  
5489.5     261.4807   93.74435   17.72108  
5490       259.8333   93.11072   18.05832  
5490.5     258.1858   92.84608   18.39555  
5491       256.616    93.0181    18.70636  
5491.5     255.0953   93.38513   19.01711  
5492       253.6266   93.86674   19.32787  
5492.5     252.5029   94.34836   19.63861  
5493       251.5724   95.09375   19.86215  
5493.5     251.5724   96.29753   20.08115  
5494       253.0089   97.50131   20.28302  
5494.5     254.9651   98.81383   20.28302  
5495       256.8855   100.4893   20.28302  
5495.5     258.7864   102.1649   20.61368  
5496       260.7017   103.5332   20.94827  
5496.5     262.6907   103.8586   21.13327  
5497       264.6797   104.1839   21.23361  
5497.5     266.5251   104.5093   21.33395  
5498       267.6125   104.8347   21.47961  
5498.5     268.7      104.9362   21.66971  
5499       269.7874   104.6954   21.85252  
5499.5     270.7415   104.4547   21.73209  
5500       270.6208   103.4145   21.61166  
5500.5     270.5005   102.1531   21.51476  
5501       269.9905   100.8885   21.45137  
5501.5     269.0876   99.5507    21.38799  
5502       267.1772   98.21289   21.03302  
5502.5     263.8064   97.50529   20.65666  
5503       259.8845   97.08029   20.51941  
5503.5     255.3113   97.00645   20.46945  
5504       252.5837   97.32751   20.67012  
5504.5     249.9083   97.48427   20.87079  
5505       248.1691   97.48427   21.00768  
5505.5     246.43     97.47386   21.1281   
5506       245.3484   97.12982   21.30379  
5506.5     244.5458   96.78578   21.72527  
5507       243.505    96.2634    22.14676  
5507.5     242.3819   95.30025   22.41319  
5508       239.3725   94.32043   22.56374  
5508.5     235.8409   93.30661   22.94255  
5509       230.7742   92.2928    23.56532  
5509.5     225.38     90.50536   24.18808  
5510       219.9858   88.57887   24.81085  
5510.5     213.1203   86.65237   25.08385  
5511       204.2756   83.95927   25.35532  
5511.5     194.0981   80.71785   25.86243  
5512       183.8659   77.47643   26.36952  
5512.5     174.7384   74.25371   26.50639  
5513       166.2306   71.11214   26.81512  
5513.5     155.5489   67.97055   27.52347  
5514       143.8518   64.67699   28.16582  
5514.5     135.4282   60.71201   28.33791  
5515       127.5664   56.74702   28.50998  
5515.5     120.1314   53.28777   28.75429  
5516       112.7473   49.88945   29.11557  
5516.5     106.5633   46.75844   29.47684  
5517       100.4634   44.22823   29.93925  
5517.5     94.3801    41.8889    30.43179  
5518       88.29721   39.99673   30.92433  
5518.5     81.8139    38.37805   31.18068  
5519       74.92067   37.38637   31.41003  
5519.5     68.02742   36.29018   31.63048  
5520       61.04283   34.05397   31.80249  
5520.5     54.00229   31.74826   31.9745   
5521       48.16167   29.24037   32.21115  
5521.5     42.54614   26.7325    32.53963  
5522       37.36134   24.09099   32.8681   
5522.5     32.58234   21.29254   33.49652  
5523       28.16846   19.03914   34.37941  
5523.5     25.50134   15.73626   35.20213  
5524       22.64151   12.87513   35.98164  
5524.5     19.06024   11.47344   36.84241  
5525       17.55927   10.45712   37.84557  
5525.5     16.35271   9.990238   38.2101   
5526       15.36598   9.587517   38.32794  
5526.5     14.59609   9.436905   38.1674   
5527       13.93534   9.551945   37.82634  
5527.5     13.37358   9.872427   36.99834  
5528       13.00837   10.28979   36.13123  
5528.5     12.73134   10.73527   35.08781  
5529       12.58694   11.19197   34.09793  
5529.5     12.631     11.64866   33.29491  
5530       12.72212   12.10536   32.49188  
5530.5     12.92271   12.67939   32.16467  
5531       13.1233    13.26257   31.92778  
5531.5     13.26762   13.87625   32.14029  
5532       13.40981   14.52764   32.35278  
5532.5     13.61734   15.26951   32.88675  
5533       13.82488   16.32025   33.4888   
5533.5     14.03242   17.30199   33.59969  
5534       14.30705   18.29436   33.69972  
5534.5     14.75652   19.19728   33.79236  
5535       15.2609    19.93681   33.56511  
5535.5     15.88286   19.84048   33.33333  
5536       16.71574   19.96394   33.33333  
5536.5     17.66107   20.18286   33.33333  
5537       18.38535   20.40176   33.27335  
5537.5     18.83888   20.55051   33.20996  
5538       19.05267   20.6843    33.11139  
5538.5     18.88242   20.44366   32.97247  
5539       18.4324    19.76656   32.83356  
5539.5     17.72835   19.45372   32.71176  
5540       16.86397   19.32408   32.81648  
5540.5     15.91452   18.19919   32.9212   
5541       14.93155   16.80731   33.03006  
5541.5     14.19819   15.53245   33.19617  
5542       13.64144   14.44864   33.36229  
5542.5     12.95068   12.85495   33.5284   
5543       12.15444   11.5155    33.73245  
5543.5     11.46985   10.45656   34.03346  
5544       10.82135   9.563631   34.33447  
5544.5     10.26584   9.024076   34.63548  
5545       9.66328    8.62464    34.93649  
5545.5     9.012091   8.413956   35.10655  
5546       8.550638   8.323631   35.18182  
5546.5     8.131084   8.341162   34.81534  
5547       7.760529   8.513178   33.99129  
5547.5     7.550429   8.629236   33.16769  
5548       7.389984   8.705271   32.38493  
5548.5     7.358491   8.775024   31.60219  
