~Version
 VERS              .         3.0                           : CWLS LOG ASCII STANDARD - VERSION 3.0
 WRAP              .         NO                            : ONE LINE PER DEPTH STEP
 DLM               .         SPACE                         : DELIMITING CHARACTER(SPACE TAB OR COMMA)
~Well Information
#_______________________________________________________________________________
#
#PARAMETER_NAME    .UNIT     VALUE                         : DESCRIPTION
#_______________________________________________________________________________
STRT               .ft       3001                          : First reference value
STOP               .ft       8404                          : Last reference value
STEP               .ft       0.5                           : Step increment
NULL               .         -9999                         : Missing value
COMP               .                                       : Company
WELL               .         EGBM-006                      : Well name
FLD                .         EGBEMA                        : Field
LOC                .                                       : Location
SRVC               .                                       : Service Company
CTRY               .                                       : Country
DATE               .         1967/01/30                    : Service Date
X                  .                                       : X or East-West coordinate
Y                  .                                       : Y or North South coordinate
GDAT               .                                       : Geodetic Datum
HZCS               .                                       : Horizontal Co-ordinate System
APIN               .         10804/01                      : 
BHT                .degF     171                           : 
BLI                .ft       8000                          : 
BS                 .in       9.625                         : 
CREATION-TIME      .         2067/1/30 0_0                 : 
CSIZ               .in       10.75                         : 
DFD                .g/cm3    1.19                          : 
DFT                .         BENTONITE SPERSENE XP-20      : 
DFV                .s        0                             : 
ELZ                .         -999.25                       : 
FIELD-NAME         .         EGBEMA                        : 
FILE-ID            .         SOH21 .4                      : 
FILE-NUMBER        .         101                           : 
FILE-SET-NAME      .                                       : 
FILE-SET-NUMBER    .         0                             : 
FILE-TYPE          .         PTF                           : 
HIDE               .         4540_300_185_6_1_DATE_67/01/30_SOH_21_SEQ_4: 
LCC                .         0                             : 
LMF                .         1                             : 
MCST               .degF     69                            : 
MFST               .degF     69                            : 
MST                .degF     92                            : 
NAME-SPACE-NAME    .         LIS                           : 
NAME-SPACE-VERSION .         0                             : 
PRODUC             .         SHELL(PARASOL)                : 
PRODUCER-CODE      .         0                             : 
PRODUCER-NAME      .         Schlumberger                  : 
PRODUCT            .                                       : 
PROGRAMS           .                                       : 
R1                 .         INFORMATION NOT AVAILABLE     : 
R2                 .         RERUNS ON 200 SCALE FROM 3950 TO CSG SHOE 5950 TO 5400: 
R3                 .         CALIPER CURVE IS RECORDING 1/4" TOO BIG ACCORDING TO CASING CHECK: 
R4                 .         PREVIOUS LOG                  : 
R5                 .         LATER                         : 
RMCS               .ohm.m    1.27                          : 
RMFS               .ohm.m    1.05                          : 
RMS                .ohm.m    1.09                          : 
TCS                .h        -999.25                       : 
TDD                .ft       8400                          : 
TDL                .ft       8400                          : 
TLI                .ft       5100                          : 
VERSION            .         2P01                          : 
WELL-ID            .         10804/01                      : 
WELL-NAME          .         EGBM-006                      : 
WN                 .         EGBM-006                      : 
~Parameter Information Block
#_______________________________________________________________________________
#
#PARAMETER_NAME    .UNIT     VALUE                         : DESCRIPTION
#_______________________________________________________________________________
SET                .         SOH18 _1_1                    : 
ACQUISITION-PRODUCT .         DLIS/U                        : 
CREATION-TIME      .         2026/5/13 10_46               : 
DLIS_FRAME_DIRECTION .         INCREASING                    : 
DLIS_FRAME_NAME    .         1                             : 
DLIS_FRAME_SPACING .ft       0.5                           : 
FIELD-NAME         .         EGBEMA                        : 
FILE-ID            .         SOH18 .1                      : 
FILE-NUMBER        .         1                             : 
FILE-SET-NAME      .         LIS-TO-DLIS-CONVERSION        : 
FILE-SET-NUMBER    .         9939                          : 
FILE-TYPE          .         PTF                           : 
INDEX-TYPE         .         BOREHOLE-DEPTH                : 
NAME-SPACE-NAME    .                                       : 
NAME-SPACE-VERSION .         0                             : 
OriginalDatasetName .         1                             : 
PRODUCER-CODE      .         440                           : 
PRODUCER-NAME      .         Schlumberger                  : 
PRODUCT            .         DLIS/U                        : 
PROGRAMS           .         LIS-TO-DLIS                   : 
TLFamily_DEPT      .         Measured Depth                : 
TLFamily_LN        .                                       : 
TLFamily_SN        .         Resistivity - Shallow         : 
TLFamily_SP        .         Spontaneous Potential         : 
VERSION            .         0.1                           : 
WELL-ID            .         10804/01                      : 
WELL-NAME          .         EGBM-006                      : 
~Curve Information
#_______________________________________________________________________________
#
#LOGNAME           .UNIT     LOG_ID                        : DESCRIPTION
#_______________________________________________________________________________
DEPT               .ft                                     :  {F}
LN                 .ohm.m                                  :  {F}
SN                 .ohm.m                                  :  {F}
SP                 .mV                                     :  {F}
~Ascii
# ...
4366       17.97614   16.97523   73.97212  
4366.5     18.74168   17.27818   73.97212  
4367       19.64276   17.38203   73.83752  
4367.5     20.78583   17.35068   73.67744  
4368       21.30052   17.30696   73.65854  
4368.5     21.3166    17.40814   73.65854  
4369       21.3166    17.51962   73.50574  
4369.5     21.3773    17.51962   73.34018  
4370       21.64407   17.3723    73.17461  
4370.5     21.91083   17.34729   73.00194  
4371       22.1776    17.39403   72.78372  
4371.5     22.60834   17.411     72.56551  
4372       23.10866   17.46649   72.33461  
4372.5     23.60898   17.48822   72.06779  
4373       24.03476   17.42856   71.80096  
4373.5     24.40414   17.08142   71.58421  
4374       24.77354   16.79703   71.37239  
4374.5     25.13084   16.58224   71.30661  
4375       25.43103   16.49889   71.30661  
4375.5     25.73122   16.53896   71.30661  
4376       26.02361   16.5614    71.27663  
4376.5     26.13792   16.57988   71.20601  
4377       26.25224   16.59837   71.12851  
4377.5     26.24757   16.58385   71.02412  
4378       25.965     16.52373   70.91972  
4378.5     25.62749   16.43202   70.75613  
4379       24.66711   16.2765    70.35608  
4379.5     23.70674   16.12386   69.95602  
4380       22.84503   15.99445   69.38597  
4380.5     22.09467   15.77531   68.79791  
4381       20.85663   15.40468   68.79791  
4381.5     18.82579   15.06331   68.77576  
4382       17.75621   14.97645   68.41566  
4382.5     16.74223   14.97645   68.05559  
4383       15.71615   14.84988   67.6955   
4383.5     14.68185   14.56568   67.28078  
4384       13.59389   13.88674   66.53745  
4384.5     12.87183   13.2078    65.79413  
4385       12.24486   12.379     64.89612  
4385.5     11.3643    11.5445    63.76642  
4386       10.82419   10.72239   62.66713  
4386.5     10.50576   9.900288   61.70667  
4387       10.15463   9.002611   60.80235  
4387.5     9.787704   8.153414   60.0963   
4388       9.46216    7.490642   59.39024  
4388.5     9.221952   7.279156   58.94008  
4389       9.072691   7.351847   58.48991  
4389.5     8.987957   7.448082   58.2814   
4390       8.926195   7.522034   58.16582  
4390.5     8.904358   7.463606   58.3071   
4391       8.835859   7.378988   58.44836  
4391.5     8.854881   7.34201    58.97055  
4392       8.928759   7.469255   59.49574  
4392.5     8.878531   7.5965     59.93379  
4393       8.736305   8.013439   60.41129  
4393.5     8.443319   8.529337   61.50742  
4394       8.123951   9.176792   62.60355  
4394.5     8.199003   10.2032    63.73251  
4395       8.423353   11.35469   65.30208  
4395.5     8.850288   12.46951   66.70502  
4396       9.762781   13.46974   67.82556  
4396.5     10.88634   14.25119   68.80438  
4397       12.16422   14.74598   69.58105  
4397.5     13.54128   15.0548    70.28218  
4398       14.55441   15.39534   70.6642   
4398.5     15.6768    15.66027   71.04622  
4399       16.63727   15.90064   71.30661  
4399.5     17.53438   16.18465   71.30661  
4400       18.13461   16.4427    71.2692   
4400.5     18.69312   16.53888   71.10548  
4401       19.25409   16.53464   70.94176  
4401.5     19.77715   16.52199   70.81378  
4402       19.99551   16.52454   70.75063  
4402.5     20.24736   16.54689   70.68745  
4403       20.51408   16.69713   70.82919  
4403.5     20.79672   16.62646   70.99303  
4404       21.11      16.44165   70.99303  
4404.5     21.42328   16.39972   70.93108  
4405       21.79327   16.5459    70.64528  
4405.5     22.27345   16.59869   70.35948  
4406       22.75365   16.58267   70.26076  
4406.5     23.23383   16.61455   70.3609   
4407       23.75275   16.59103   70.22754  
4407.5     24.32454   16.52602   70.09419  
4408       24.89633   16.5748    69.84653  
4408.5     25.31213   16.48465   69.54642  
4409       25.65509   16.39452   69.2476   
4409.5     25.99803   16.47997   68.96504  
4410       25.54878   16.63393   68.6825   
4410.5     25.04846   16.73468   68.06477  
4411       24.54814   16.68907   67.38954  
4411.5     23.65901   16.39534   66.57533  
4412       22.6767    15.89694   65.71811  
4412.5     21.69437   15.53675   65.31688  
4413       20.91605   15.63519   64.84569  
4413.5     20.15201   15.91532   64.0453   
4414       19.42322   16.06619   63.3004   
4414.5     19.2231    15.73482   62.70009  
4415       19.02296   15.35419   62.09976  
4415.5     18.82285   14.97635   61.52151  
4416       19.48518   14.53915   60.97577  
4416.5     20.21275   14.17867   60.95818  
4417       20.94032   14.11469   60.95818  
4417.5     21.66789   14.55353   61.23419  
4418       22.68935   15.11179   61.80287  
4418.5     23.89011   15.44841   62.37115  
4419       24.89528   15.5416    62.83809  
4419.5     25.37558   15.57022   63.30502  
4420       25.56419   15.63579   63.72829  
4420.5     25.11398   15.85222   64.1284   
4421       24.46521   16.01846   64.5285   
4421.5     23.13104   16.11452   65.50121  
4422       21.79686   16.13454   66.57256  
4422.5     20.92993   16.43404   68.11555  
4423       20.12976   16.9939    69.55171  
4423.5     19.68294   17.74617   70.67226  
4424       19.55655   18.50737   71.58101  
4424.5     19.47267   18.88994   71.98106  
4425       20.31331   18.86406   72.38113  
4425.5     21.15395   18.68642   72.67044  
4426       21.94693   18.66026   72.95299  
4426.5     22.67767   18.76453   72.94162  
4427       23.40842   19.02336   72.81744  
4427.5     24.08304   19.26091   72.69327  
4428       24.6835    19.43484   72.56909  
4428.5     25.28395   19.39038   72.39476  
4429       25.39185   19.09665   72.2169   
4429.5     25.39185   18.79634   72.03905  
4430       25.39185   18.76234   71.88713  
4430.5     25.37254   18.74821   71.77281  
4431       24.80763   18.70616   71.65849  
4431.5     24.24274   18.52936   71.48715  
4432       23.79271   18.25302   71.28708  
4432.5     23.36885   18.07925   71.08701  
4433       23.26251   18.03542   70.96535  
4433.5     23.37166   17.90601   70.91315  
4434       23.4808    17.68532   70.86095  
4434.5     23.57532   17.37636   70.78569  
4435       23.66423   17.24522   70.68967  
4435.5     23.75316   17.20564   70.59363  
4436       23.84515   17.15436   70.42479  
4436.5     23.94957   16.95764   70.04948  
4437       24.054     16.50206   69.64159  
4437.5     24.00938   15.99126   69.07675  
4438       23.35449   15.54155   68.5119   
4438.5     22.6996    15.21871   68.31305  
4439       21.99762   15.22565   68.13298  
4439.5     21.19745   15.53015   67.92828  
4440       20.39726   15.76402   67.67554  
4440.5     18.54948   15.75835   67.42279  
4441       17.51707   15.49404   67.34717  
4441.5     16.4442    15.14758   67.30101  
4442       15.51788   14.80569   67.25485  
4442.5     14.53522   14.49332   67.38809  
4443       12.8205    14.33521   67.73117  
4443.5     11.68325   14.12508   67.7231   
4444       10.49274   13.71944   67.51128  
4444.5     9.631647   13.27336   66.95029  
4445       8.772814   12.60055   65.8912   
4445.5     8.232557   11.84947   64.80498  
4446       7.709926   10.76336   63.60402  
4446.5     7.357703   9.618002   62.2921   
4447       7.009827   8.256472   60.86659  
4447.5     6.689624   7.246501   59.42436  
4448       6.402635   6.252762   58.11809  
4448.5     6.125934   5.487647   57.35405  
4449       5.752364   4.811852   57.48761  
4449.5     5.559736   4.287621   57.85512  
4450       5.401093   4.034719   58.20525  
4450.5     5.316321   3.878472   58.55537  
4451       5.231748   3.732336   58.90549  
4451.5     5.151697   3.688623   59.05803  
4452       5.063708   3.767661   59.20212  
4452.5     4.889132   4.003574   59.34619  
4453       4.633225   4.420795   59.02557  
4453.5     4.33271    5.03497    58.5004   
4454       4.028518   5.741798   58.05089  
4454.5     3.761755   6.694875   57.65089  
4455       3.793907   7.776855   57.57318  
4455.5     4.295609   8.593433   57.69919  
4456       5.256697   9.650639   58.13577  
4456.5     6.583281   10.26397   58.08757  
