~Version
 VERS              .         3.0                           : CWLS LOG ASCII STANDARD - VERSION 3.0
 WRAP              .         NO                            : ONE LINE PER DEPTH STEP
 DLM               .         SPACE                         : DELIMITING CHARACTER(SPACE TAB OR COMMA)
~Well Information
#_______________________________________________________________________________
#
#PARAMETER_NAME    .UNIT     VALUE                         : DESCRIPTION
#_______________________________________________________________________________
STRT               .ft       3001                          : First reference value
STOP               .ft       8404                          : Last reference value
STEP               .ft       0.5                           : Step increment
NULL               .         -9999                         : Missing value
COMP               .                                       : Company
WELL               .         EGBM-006                      : Well name
FLD                .         EGBEMA                        : Field
LOC                .                                       : Location
SRVC               .                                       : Service Company
CTRY               .                                       : Country
DATE               .         1967/01/30                    : Service Date
X                  .                                       : X or East-West coordinate
Y                  .                                       : Y or North South coordinate
GDAT               .                                       : Geodetic Datum
HZCS               .                                       : Horizontal Co-ordinate System
APIN               .         10804/01                      : 
BHT                .degF     171                           : 
BLI                .ft       8000                          : 
BS                 .in       9.625                         : 
CREATION-TIME      .         2067/1/30 0_0                 : 
CSIZ               .in       10.75                         : 
DFD                .g/cm3    1.19                          : 
DFT                .         BENTONITE SPERSENE XP-20      : 
DFV                .s        0                             : 
ELZ                .         -999.25                       : 
FIELD-NAME         .         EGBEMA                        : 
FILE-ID            .         SOH21 .4                      : 
FILE-NUMBER        .         101                           : 
FILE-SET-NAME      .                                       : 
FILE-SET-NUMBER    .         0                             : 
FILE-TYPE          .         PTF                           : 
HIDE               .         4540_300_185_6_1_DATE_67/01/30_SOH_21_SEQ_4: 
LCC                .         0                             : 
LMF                .         1                             : 
MCST               .degF     69                            : 
MFST               .degF     69                            : 
MST                .degF     92                            : 
NAME-SPACE-NAME    .         LIS                           : 
NAME-SPACE-VERSION .         0                             : 
PRODUC             .         SHELL(PARASOL)                : 
PRODUCER-CODE      .         0                             : 
PRODUCER-NAME      .         Schlumberger                  : 
PRODUCT            .                                       : 
PROGRAMS           .                                       : 
R1                 .         INFORMATION NOT AVAILABLE     : 
R2                 .         RERUNS ON 200 SCALE FROM 3950 TO CSG SHOE 5950 TO 5400: 
R3                 .         CALIPER CURVE IS RECORDING 1/4" TOO BIG ACCORDING TO CASING CHECK: 
R4                 .         PREVIOUS LOG                  : 
R5                 .         LATER                         : 
RMCS               .ohm.m    1.27                          : 
RMFS               .ohm.m    1.05                          : 
RMS                .ohm.m    1.09                          : 
TCS                .h        -999.25                       : 
TDD                .ft       8400                          : 
TDL                .ft       8400                          : 
TLI                .ft       5100                          : 
VERSION            .         2P01                          : 
WELL-ID            .         10804/01                      : 
WELL-NAME          .         EGBM-006                      : 
WN                 .         EGBM-006                      : 
~Parameter Information Block
#_______________________________________________________________________________
#
#PARAMETER_NAME    .UNIT     VALUE                         : DESCRIPTION
#_______________________________________________________________________________
SET                .         SOH18 _1_1                    : 
ACQUISITION-PRODUCT .         DLIS/U                        : 
CREATION-TIME      .         2026/5/13 10_46               : 
DLIS_FRAME_DIRECTION .         INCREASING                    : 
DLIS_FRAME_NAME    .         1                             : 
DLIS_FRAME_SPACING .ft       0.5                           : 
FIELD-NAME         .         EGBEMA                        : 
FILE-ID            .         SOH18 .1                      : 
FILE-NUMBER        .         1                             : 
FILE-SET-NAME      .         LIS-TO-DLIS-CONVERSION        : 
FILE-SET-NUMBER    .         9939                          : 
FILE-TYPE          .         PTF                           : 
INDEX-TYPE         .         BOREHOLE-DEPTH                : 
NAME-SPACE-NAME    .                                       : 
NAME-SPACE-VERSION .         0                             : 
OriginalDatasetName .         1                             : 
PRODUCER-CODE      .         440                           : 
PRODUCER-NAME      .         Schlumberger                  : 
PRODUCT            .         DLIS/U                        : 
PROGRAMS           .         LIS-TO-DLIS                   : 
TLFamily_DEPT      .         Measured Depth                : 
TLFamily_LN        .                                       : 
TLFamily_SN        .         Resistivity - Shallow         : 
TLFamily_SP        .         Spontaneous Potential         : 
VERSION            .         0.1                           : 
WELL-ID            .         10804/01                      : 
WELL-NAME          .         EGBM-006                      : 
~Curve Information
#_______________________________________________________________________________
#
#LOGNAME           .UNIT     LOG_ID                        : DESCRIPTION
#_______________________________________________________________________________
DEPT               .ft                                     :  {F}
LN                 .ohm.m                                  :  {F}
SN                 .ohm.m                                  :  {F}
SP                 .mV                                     :  {F}
~Ascii
# ...
5822       4.669781   5.043905   50.54488  
5822.5     4.677145   4.675363   50.35516  
5823       4.589562   4.306975   50.32417  
5823.5     4.486677   4.144427   50.56447  
5824       4.470602   4.176635   50.80475  
5824.5     4.457964   4.39505    51.07962  
5825       4.484433   4.533062   51.36566  
5825.5     4.553023   4.638228   51.64948  
5826       4.621614   4.736135   51.74559  
5826.5     4.690205   4.829597   51.84171  
5827       4.726962   4.957887   51.93782  
5827.5     4.756976   5.181036   51.85486  
5828       4.717735   5.434291   51.71065  
5828.5     4.653695   5.725946   51.56642  
5829       4.701765   5.974149   51.43649  
5829.5     4.801061   6.18616    51.32208  
5830       4.972537   6.208002   51.20767  
5830.5     5.144013   6.139173   51.05688  
5831       5.315489   6.011018   50.89302  
5831.5     5.485073   5.920289   50.72916  
5832       5.653137   5.8502     50.84441  
5832.5     5.821202   5.780111   51.00461  
5833       5.939048   5.783309   51.0204   
5833.5     6.053878   5.857261   51.06921  
5834       6.168708   5.885185   51.30949  
5834.5     6.333602   5.90235    51.48055  
5835       6.501666   5.949835   51.43605  
5835.5     6.697386   5.997893   51.39156  
5836       6.949482   6.052398   51.34706  
5836.5     7.201579   6.117967   51.22234  
5837       7.476419   6.570175   51.06561  
5837.5     7.760203   7.050714   50.90887  
5838       8.043987   7.550052   50.36154  
5838.5     8.54915    8.130968   49.65462  
5839       9.135984   8.897648   48.8821   
5839.5     9.782423   9.787409   48.04108  
5840       10.49686   10.9163    47.20006  
5840.5     11.29235   12.39184   46.5696   
5841       12.22871   13.98746   45.96892  
5841.5     13.2883    17.32518   45.66826  
5842       14.90748   21.02826   45.65678  
5842.5     17.22714   25.79654   46.0322   
5843       20.88924   30.58043   46.40762  
5843.5     26.68581   34.71944   46.78304  
5844       31.48793   38.85843   47.09576  
5844.5     39.92545   43.05695   47.09576  
5845       48.66045   47.26161   47.09576  
5845.5     58.42175   51.09894   47.02269  
5846       68.2206    54.8531    46.59351  
5846.5     78.19423   57.72516   46.32648  
5847       89.87297   60.26196   45.93381  
5847.5     103.1672   62.49994   45.53333  
5848       111.217    64.23564   45.32935  
5848.5     119.2668   65.96562   45.12906  
5849       125.7716   67.4343    44.46059  
5849.5     131.9448   68.90297   43.517    
5850       135.1111   69.89075   43.05351  
5850.5     138.2625   70.64159   42.71022  
5851       140.054    71.28889   42.07785  
5851.5     141.7048   71.86098   41.4425   
5852       143.0393   72.43306   41.29234  
5852.5     144.3031   72.52747   41.14217  
5853       145.7729   72.52747   40.992    
5853.5     147.6484   72.44736   40.84184  
5854       149.5239   72.28163   41.02411  
5854.5     151.3993   72.11591   41.27443  
5855       153.3105   71.9502    41.52473  
5855.5     155.4115   71.48242   41.94258  
5856       157.4084   70.8817    42.43419  
5856.5     158.0087   70.24725   42.9258   
5857       158.609    69.23041   43.58476  
5857.5     157.9669   68.21356   44.28038  
5858       157.3001   67.19672   44.83119  
5858.5     155.4612   65.97865   45.09824  
5859       152.9337   64.66786   45.36526  
5859.5     150.2456   63.35707   45.64236  
5860       146.6442   62.0463    45.9196   
5860.5     143.0428   60.74991   46.19684  
5861       138.7242   59.47772   46.4877   
5861.5     133.7898   58.20555   46.78807  
5862       129.0937   56.93338   47.08842  
5862.5     125.4301   55.66119   47.52222  
5863       121.7665   54.17513   47.72371  
5863.5     118.0621   52.6731    47.72371  
5864       114.3407   51.17108   47.91104  
5864.5     110.4884   49.66907   48.32899  
5865       105.386    48.15898   48.74695  
5865.5     100.2861   46.64622   49.24591  
5866       95.6165    45.13345   49.8466   
5866.5     90.94687   43.56856   50.44728  
5867       86.46866   41.82065   51.0296   
5867.5     82.0907    40.07272   51.22992  
5868       77.97705   38.34453   51.57387  
5868.5     74.20457   36.65332   52.07434  
5869       70.4321    34.96213   52.1922   
5869.5     67.02368   33.27092   52.27231  
5870       63.77551   31.46533   52.4666   
5870.5     60.92946   29.63467   52.66687  
5871       58.52855   27.84178   52.87801  
5871.5     56.12762   26.50662   53.04361  
5872       53.7267    25.17145   52.93433  
5872.5     51.32578   23.83629   53.33942  
5873       48.86136   22.81435   53.84615  
5873.5     46.20845   22.0499    53.84615  
5874       43.55553   21.28545   53.99345  
5874.5     41.42331   20.79323   54.48482  
5875       39.44617   20.4328    54.99969  
5875.5     37.97606   20.07964   55.44156  
5876       36.91949   19.83925   55.57509  
5876.5     35.86293   19.59888   55.7086   
5877       35.01125   19.31244   55.61784  
5877.5     34.6683    19.55521   55.48433  
5878       34.32535   19.73886   55.35425  
5878.5     33.89175   19.57817   55.22777  
5879       33.38245   19.43401   55.10139  
5879.5     32.87315   19.30888   54.99219  
5880       32.36386   19.2188    54.88298  
5880.5     31.83876   19.09567   54.78807  
5881       31.26262   18.87941   54.78807  
5881.5     30.68649   18.78625   54.78807  
5882       30.11035   18.78558   54.91508  
5882.5     30.00072   18.86571   55.24271  
5883       29.90466   18.99657   54.91653  
5883.5     29.80861   19.02669   54.70213  
5884       29.84352   19.06715   54.75153  
5884.5     29.93243   19.18973   55.009    
5885       30.02136   19.3616    54.83127  
5885.5     30.12776   19.4464    54.4073   
5886       30.31241   19.53348   54.16013  
5886.5     30.49704   19.70821   54.16013  
5887       30.68169   19.78021   54.32315  
5887.5     30.80692   19.73671   54.60048  
5888       30.91606   19.65659   54.45287  
5888.5     31.02521   19.65463   54.29672  
5889       31.03448   19.69891   54.23349  
5889.5     31.03448   19.85916   54.17026  
5890       31.03448   19.97395   54.3493   
5890.5     30.95633   20.03139   54.57454  
5891       30.85629   20.03139   54.72107  
5891.5     30.75626   19.94875   54.73975  
5892       30.4924    19.80457   54.63239  
5892.5     30.13934   19.64075   54.89941  
5893       29.78629   19.46454   54.51787  
5893.5     29.43323   19.36777   54.28012  
5894       29.1375    19.31314   54.06815  
5894.5     29.06004   19.25851   53.91983  
5895       28.9826    19.14566   53.70677  
5895.5     28.90517   19.00357   53.40268  
5896       28.8035    18.71501   53.74599  
5896.5     28.57483   18.48718   53.95287  
5897       28.34615   18.38635   53.75255  
5897.5     28.11748   18.30496   53.51315  
5898       27.88879   18.11273   53.25568  
5898.5     27.66013   17.91083   53.2972   
5899       27.39505   17.67049   53.41689  
5899.5     27.11261   17.42091   53.6837   
5900       26.83015   17.16223   53.45363  
5900.5     26.5477    16.8797    53.63086  
5901       26.23462   16.62849   54.0103   
5901.5     25.82307   16.44972   54.3539   
5902       25.41153   16.34456   54.54613  
5902.5     25         16.23245   54.73836  
5903       24.58846   16.09731   54.9306   
5903.5     24.11171   15.98539   55.02443  
5904       23.6024    16.01674   55.0867   
5904.5     23.09311   16.06041   54.92651  
5905       22.58382   16.03317   54.77991  
5905.5     22.09052   15.9691    54.71983  
5906       21.62585   15.9321    54.65976  
5906.5     21.16119   15.90681   54.68816  
5907       20.69653   15.89669   54.79739  
5907.5     20.40102   15.94174   54.90665  
5908       20.48105   15.98663   55.09111  
5908.5     20.56108   16.03033   55.31636  
5909       20.64111   15.99307   55.50534  
5909.5     20.68965   15.91916   55.66553  
5910       20.68965   15.88441   55.61029  
5910.5     20.68965   15.85557   55.41002  
5911       20.68965   15.85557   55.18512  
5911.5     20.68965   15.85557   54.88484  
5912       20.69257   15.83172   54.78807  
5912.5     20.76532   15.77451   54.78807  
