~Version
 VERS              .         3.0                           : CWLS LOG ASCII STANDARD - VERSION 3.0
 WRAP              .         NO                            : ONE LINE PER DEPTH STEP
 DLM               .         SPACE                         : DELIMITING CHARACTER(SPACE TAB OR COMMA)
~Well Information
#_______________________________________________________________________________
#
#PARAMETER_NAME    .UNIT     VALUE                         : DESCRIPTION
#_______________________________________________________________________________
STRT               .ft       3001                          : First reference value
STOP               .ft       8404                          : Last reference value
STEP               .ft       0.5                           : Step increment
NULL               .         -9999                         : Missing value
COMP               .                                       : Company
WELL               .         EGBM-006                      : Well name
FLD                .         EGBEMA                        : Field
LOC                .                                       : Location
SRVC               .                                       : Service Company
CTRY               .                                       : Country
DATE               .         1967/01/30                    : Service Date
X                  .                                       : X or East-West coordinate
Y                  .                                       : Y or North South coordinate
GDAT               .                                       : Geodetic Datum
HZCS               .                                       : Horizontal Co-ordinate System
APIN               .         10804/01                      : 
BHT                .degF     171                           : 
BLI                .ft       8000                          : 
BS                 .in       9.625                         : 
CREATION-TIME      .         2067/1/30 0_0                 : 
CSIZ               .in       10.75                         : 
DFD                .g/cm3    1.19                          : 
DFT                .         BENTONITE SPERSENE XP-20      : 
DFV                .s        0                             : 
ELZ                .         -999.25                       : 
FIELD-NAME         .         EGBEMA                        : 
FILE-ID            .         SOH21 .4                      : 
FILE-NUMBER        .         101                           : 
FILE-SET-NAME      .                                       : 
FILE-SET-NUMBER    .         0                             : 
FILE-TYPE          .         PTF                           : 
HIDE               .         4540_300_185_6_1_DATE_67/01/30_SOH_21_SEQ_4: 
LCC                .         0                             : 
LMF                .         1                             : 
MCST               .degF     69                            : 
MFST               .degF     69                            : 
MST                .degF     92                            : 
NAME-SPACE-NAME    .         LIS                           : 
NAME-SPACE-VERSION .         0                             : 
PRODUC             .         SHELL(PARASOL)                : 
PRODUCER-CODE      .         0                             : 
PRODUCER-NAME      .         Schlumberger                  : 
PRODUCT            .                                       : 
PROGRAMS           .                                       : 
R1                 .         INFORMATION NOT AVAILABLE     : 
R2                 .         RERUNS ON 200 SCALE FROM 3950 TO CSG SHOE 5950 TO 5400: 
R3                 .         CALIPER CURVE IS RECORDING 1/4" TOO BIG ACCORDING TO CASING CHECK: 
R4                 .         PREVIOUS LOG                  : 
R5                 .         LATER                         : 
RMCS               .ohm.m    1.27                          : 
RMFS               .ohm.m    1.05                          : 
RMS                .ohm.m    1.09                          : 
TCS                .h        -999.25                       : 
TDD                .ft       8400                          : 
TDL                .ft       8400                          : 
TLI                .ft       5100                          : 
VERSION            .         2P01                          : 
WELL-ID            .         10804/01                      : 
WELL-NAME          .         EGBM-006                      : 
WN                 .         EGBM-006                      : 
~Parameter Information Block
#_______________________________________________________________________________
#
#PARAMETER_NAME    .UNIT     VALUE                         : DESCRIPTION
#_______________________________________________________________________________
SET                .         SOH18 _1_1                    : 
ACQUISITION-PRODUCT .         DLIS/U                        : 
CREATION-TIME      .         2026/5/13 10_46               : 
DLIS_FRAME_DIRECTION .         INCREASING                    : 
DLIS_FRAME_NAME    .         1                             : 
DLIS_FRAME_SPACING .ft       0.5                           : 
FIELD-NAME         .         EGBEMA                        : 
FILE-ID            .         SOH18 .1                      : 
FILE-NUMBER        .         1                             : 
FILE-SET-NAME      .         LIS-TO-DLIS-CONVERSION        : 
FILE-SET-NUMBER    .         9939                          : 
FILE-TYPE          .         PTF                           : 
INDEX-TYPE         .         BOREHOLE-DEPTH                : 
NAME-SPACE-NAME    .                                       : 
NAME-SPACE-VERSION .         0                             : 
OriginalDatasetName .         1                             : 
PRODUCER-CODE      .         440                           : 
PRODUCER-NAME      .         Schlumberger                  : 
PRODUCT            .         DLIS/U                        : 
PROGRAMS           .         LIS-TO-DLIS                   : 
TLFamily_DEPT      .         Measured Depth                : 
TLFamily_LN        .                                       : 
TLFamily_SN        .         Resistivity - Shallow         : 
TLFamily_SP        .         Spontaneous Potential         : 
VERSION            .         0.1                           : 
WELL-ID            .         10804/01                      : 
WELL-NAME          .         EGBM-006                      : 
~Curve Information
#_______________________________________________________________________________
#
#LOGNAME           .UNIT     LOG_ID                        : DESCRIPTION
#_______________________________________________________________________________
DEPT               .ft                                     :  {F}
LN                 .ohm.m                                  :  {F}
SN                 .ohm.m                                  :  {F}
SP                 .mV                                     :  {F}
~Ascii
# ...
3729       53.57623   32.31258   88.33249  
3729.5     52.06081   31.4498    87.84415  
3730       50.47571   30.58704   87.15425  
3730.5     48.87068   29.92801   86.46434  
3731       47.26578   29.38922   85.54179  
3731.5     45.66101   28.80258   84.43936  
3732       44.05624   28.14838   83.33694  
3732.5     42.27576   27.31096   82.20755  
3733       40.10158   26.36746   81.05771  
3733.5     37.92738   25.53465   79.90787  
3734       35.7532    24.48997   78.64705  
3734.5     33.18918   23.10744   77.36412  
3735       29.57901   21.49913   75.9247   
3735.5     26.03513   19.83806   74.43324  
3736       22.77837   18.17764   72.86287  
3736.5     19.52161   16.78406   71.22435  
3737       16.62288   15.29601   69.64008  
3737.5     13.74683   13.57442   68.07759  
3738       11.49048   11.74537   66.64944  
3738.5     9.234135   10.09838   65.35588  
3739       7.888401   8.800156   64.44017  
3739.5     6.604388   7.601831   63.70534  
3740       5.586469   6.471918   62.9705   
3740.5     4.573042   5.829104   62.73584  
3741       3.73505    5.317558   62.73584  
3741.5     3.066433   4.94354    62.73584  
3742       2.488976   4.762748   62.76768  
3742.5     2.374352   4.582634   62.81412  
3743       2.259728   4.462106   62.86057  
3743.5     2.194357   4.341578   62.89308  
3744       2.194357   4.332809   62.89308  
3744.5     2.194357   4.332809   62.89308  
3745       2.194357   4.202435   62.89308  
3745.5     2.194357   4.06853    62.89308  
3746       2.194357   3.881007   62.89308  
3746.5     2.194357   3.733982   62.89308  
3747       2.194357   3.882313   62.76331  
3747.5     2.194357   4.142544   62.59866  
3748       2.194357   4.513371   62.43401  
3748.5     2.168171   4.844205   62.04979  
3749       2.07189    5.165631   61.64737  
3749.5     1.975608   5.35757    61.19008  
3750       1.880877   5.527717   60.69293  
3750.5     1.880877   5.66149    60.37735  
3751       1.880877   5.774947   60.37735  
3751.5     2.156746   5.857054   60.37735  
3752       2.500617   5.897217   60.44601  
3752.5     2.821317   5.642251   60.63177  
3753       2.821317   5.225309   60.81754  
3753.5     2.821317   4.804209   61.0033   
3754       2.821317   4.442627   61.57195  
3754.5     2.815487   4.099352   62.14687  
3755       2.622924   3.842211   62.64191  
3755.5     2.43036    3.625631   62.89606  
3756       2.237797   3.551465   63.15021  
3756.5     2.194357   3.643862   63.20753  
3757       2.194357   3.956206   63.20753  
3757.5     2.194357   4.512447   62.97066  
3758       2.194357   4.98967    62.54807  
3758.5     2.308757   5.39758    62.12549  
3759       2.42338    5.556485   61.86388  
3759.5     2.619636   5.646799   61.60968  
3760       3.044431   5.614655   61.51434  
3760.5     3.445151   5.542328   61.5898   
3761       3.381806   5.301306   61.72     
3761.5     3.31846    5.101738   61.93307  
3762       3.255116   4.973167   62.08351  
3762.5     3.19177    4.950618   61.95642  
3763       3.134796   5.077496   61.82932  
3763.5     3.134796   5.204372   61.64958  
3764       3.134796   5.66536    61.44836  
3764.5     3.134796   6.025057   61.24713  
3765       3.388968   6.208401   61.09631  
3765.5     3.689862   6.168225   60.98132  
3766       3.990756   5.999067   60.86635  
3766.5     4.219511   5.774146   61.04443  
3767       4.420107   5.737064   61.2744   
3767.5     4.620703   5.780712   61.47139  
3768       4.416358   5.952918   61.41389  
3768.5     3.93495    6.109613   61.3564   
3769       3.453541   6.254247   61.22418  
3769.5     3.023873   6.398879   60.96999  
3770       2.695593   6.520394   60.71577  
3770.5     2.367313   6.558864   60.69182  
3771       2.194357   6.4712     60.8423   
3771.5     2.194357   6.120183   61.28131  
3772       2.194357   5.7586     61.38179  
3772.5     2.220509   5.573293   61.44887  
3773       2.521402   5.474914   61.47798  
3773.5     2.822296   5.402597   61.47798  
3774       3.123189   5.332694   61.47798  
3774.5     3.543204   5.284483   61.50142  
3775       3.967999   5.236272   61.57686  
3775.5     4.320643   5.211931   61.65547  
3776       4.648924   5.211931   61.74492  
3776.5     4.977203   5.211931   61.83435  
3777       5.015674   5.211931   61.92378  
3777.5     5.015674   5.170907   61.8177   
3778       5.015674   5.128983   61.63196  
3778.5     5.015674   5.087059   61.4462   
3779       5.015674   5.114215   61.2285   
3779.5     5.015674   5.142573   60.94441  
3780       5.015674   5.322017   60.66032  
3780.5     4.810435   5.546959   60.37624  
3781       4.601108   5.953355   60.09216  
3781.5     4.391781   6.401088   59.54501  
3782       4.263892   6.909392   58.96764  
3782.5     4.137214   7.418233   58.39027  
3783       4.410511   7.876998   57.78917  
3783.5     5.066958   8.308382   57.18547  
3784       5.723407   8.665621   56.64899  
3784.5     6.277617   8.655165   56.27165  
3785       6.775683   8.614988   55.97484  
3785.5     7.273748   8.791916   55.97484  
3786       7.771814   9.063103   55.97484  
3786.5     7.991967   9.347927   56.47758  
3787       8.170279   9.641348   57.45024  
3787.5     8.348589   9.934771   59.02921  
3788       8.534767   10.18711   60.66832  
3788.5     8.735361   10.41398   62.32817  
3789       8.935957   10.71129   63.95518  
3789.5     9.162342   11.11305   65.56525  
3790       9.476282   11.39827   66.96173  
3790.5     9.790222   11.57597   68.11478  
3791       10.0727    11.54144   68.34474  
3791.5     10.25101   11.39942   68.57471  
3792       10.42933   11.47359   68.94099  
3792.5     10.60764   11.96789   69.50452  
3793       10.69497   12.88407   69.92918  
3793.5     10.74619   13.56103   70.1879   
3794       10.79741   13.58324   69.97766  
3794.5     10.84862   13.24234   69.49477  
3795       10.89984   12.83928   68.84081  
3795.5     10.95106   12.57194   68.10585  
3796       10.97179   12.37106   67.37091  
3796.5     10.97179   11.85062   66.54884  
3797       10.97179   11.18294   65.68646  
3797.5     10.45402   10.69929   64.82408  
3798       9.852219   10.33529   63.9617   
3798.5     9.134979   10.12868   63.09932  
3799       8.082016   9.922068   62.23694  
3799.5     7.079369   9.691576   61.45274  
3800       6.319148   9.391169   60.84904  
3800.5     7.177503   10.12764   68.17255  
3801       6.936412   9.129128   68.07993  
3801.5     6.953829   8.486187   67.79146  
3802       7.091554   7.945483   67.44737  
3802.5     7.263207   7.446671   67.5063   
3803       7.439253   7.026863   67.58659  
3803.5     7.619481   6.761576   67.98459  
3804       7.753267   6.630733   68.2485   
3804.5     7.851118   6.707846   68.32378  
3805       7.910224   6.928602   68.35197  
3805.5     7.883532   7.248406   68.28508  
3806       7.827005   7.490395   68.21819  
3806.5     7.766925   7.681865   67.99571  
3807       7.755102   7.853204   67.7699   
3807.5     7.755102   8.054831   67.74475  
3808       7.739516   8.309654   67.74475  
3808.5     7.683185   8.625555   67.74475  
3809       7.40283    9.105354   67.86345  
3809.5     7.04164    9.585123   68.37958  
3810       6.619877   10.06487   68.97844  
3810.5     6.059341   10.64171   69.70096  
3811       5.451006   11.24885   70.52965  
3811.5     5.11774    11.7925    71.46065  
3812       5.301428   12.17636   72.18315  
3812.5     5.580165   12.05077   72.40735  
3813       5.835578   11.12609   72.269    
3813.5     6.030766   9.231373   71.89273  
3814       6.060806   8.174519   71.47684  
3814.5     6.090846   7.308151   71.00847  
3815       6.011506   6.540431   70.53323  
3815.5     5.931413   5.889576   69.97749  
3816       5.781614   5.217642   69.53485  
3816.5     5.592795   4.67545    69.27686  
3817       5.317168   4.343283   69.04036  
3817.5     5.040427   4.240565   68.82141  
3818       4.912273   4.338933   68.60245  
3818.5     4.795098   4.44212    68.60545  
3819       4.738558   4.4077     68.77338  
3819.5     4.682016   4.257321   69.12756  
