~Version
 VERS              .         3.0                           : CWLS LOG ASCII STANDARD - VERSION 3.0
 WRAP              .         NO                            : ONE LINE PER DEPTH STEP
 DLM               .         SPACE                         : DELIMITING CHARACTER(SPACE TAB OR COMMA)
~Well Information
#_______________________________________________________________________________
#
#PARAMETER_NAME    .UNIT     VALUE                         : DESCRIPTION
#_______________________________________________________________________________
STRT               .ft       3001                          : First reference value
STOP               .ft       8404                          : Last reference value
STEP               .ft       0.5                           : Step increment
NULL               .         -9999                         : Missing value
COMP               .                                       : Company
WELL               .         EGBM-006                      : Well name
FLD                .         EGBEMA                        : Field
LOC                .                                       : Location
SRVC               .                                       : Service Company
CTRY               .                                       : Country
DATE               .         1967/01/30                    : Service Date
X                  .                                       : X or East-West coordinate
Y                  .                                       : Y or North South coordinate
GDAT               .                                       : Geodetic Datum
HZCS               .                                       : Horizontal Co-ordinate System
APIN               .         10804/01                      : 
BHT                .degF     171                           : 
BLI                .ft       8000                          : 
BS                 .in       9.625                         : 
CREATION-TIME      .         2067/1/30 0_0                 : 
CSIZ               .in       10.75                         : 
DFD                .g/cm3    1.19                          : 
DFT                .         BENTONITE SPERSENE XP-20      : 
DFV                .s        0                             : 
ELZ                .         -999.25                       : 
FIELD-NAME         .         EGBEMA                        : 
FILE-ID            .         SOH21 .4                      : 
FILE-NUMBER        .         101                           : 
FILE-SET-NAME      .                                       : 
FILE-SET-NUMBER    .         0                             : 
FILE-TYPE          .         PTF                           : 
HIDE               .         4540_300_185_6_1_DATE_67/01/30_SOH_21_SEQ_4: 
LCC                .         0                             : 
LMF                .         1                             : 
MCST               .degF     69                            : 
MFST               .degF     69                            : 
MST                .degF     92                            : 
NAME-SPACE-NAME    .         LIS                           : 
NAME-SPACE-VERSION .         0                             : 
PRODUC             .         SHELL(PARASOL)                : 
PRODUCER-CODE      .         0                             : 
PRODUCER-NAME      .         Schlumberger                  : 
PRODUCT            .                                       : 
PROGRAMS           .                                       : 
R1                 .         INFORMATION NOT AVAILABLE     : 
R2                 .         RERUNS ON 200 SCALE FROM 3950 TO CSG SHOE 5950 TO 5400: 
R3                 .         CALIPER CURVE IS RECORDING 1/4" TOO BIG ACCORDING TO CASING CHECK: 
R4                 .         PREVIOUS LOG                  : 
R5                 .         LATER                         : 
RMCS               .ohm.m    1.27                          : 
RMFS               .ohm.m    1.05                          : 
RMS                .ohm.m    1.09                          : 
TCS                .h        -999.25                       : 
TDD                .ft       8400                          : 
TDL                .ft       8400                          : 
TLI                .ft       5100                          : 
VERSION            .         2P01                          : 
WELL-ID            .         10804/01                      : 
WELL-NAME          .         EGBM-006                      : 
WN                 .         EGBM-006                      : 
~Parameter Information Block
#_______________________________________________________________________________
#
#PARAMETER_NAME    .UNIT     VALUE                         : DESCRIPTION
#_______________________________________________________________________________
SET                .         SOH18 _1_1                    : 
ACQUISITION-PRODUCT .         DLIS/U                        : 
CREATION-TIME      .         2026/5/13 10_46               : 
DLIS_FRAME_DIRECTION .         INCREASING                    : 
DLIS_FRAME_NAME    .         1                             : 
DLIS_FRAME_SPACING .ft       0.5                           : 
FIELD-NAME         .         EGBEMA                        : 
FILE-ID            .         SOH18 .1                      : 
FILE-NUMBER        .         1                             : 
FILE-SET-NAME      .         LIS-TO-DLIS-CONVERSION        : 
FILE-SET-NUMBER    .         9939                          : 
FILE-TYPE          .         PTF                           : 
INDEX-TYPE         .         BOREHOLE-DEPTH                : 
NAME-SPACE-NAME    .                                       : 
NAME-SPACE-VERSION .         0                             : 
OriginalDatasetName .         1                             : 
PRODUCER-CODE      .         440                           : 
PRODUCER-NAME      .         Schlumberger                  : 
PRODUCT            .         DLIS/U                        : 
PROGRAMS           .         LIS-TO-DLIS                   : 
TLFamily_DEPT      .         Measured Depth                : 
TLFamily_LN        .                                       : 
TLFamily_SN        .         Resistivity - Shallow         : 
TLFamily_SP        .         Spontaneous Potential         : 
VERSION            .         0.1                           : 
WELL-ID            .         10804/01                      : 
WELL-NAME          .         EGBM-006                      : 
~Curve Information
#_______________________________________________________________________________
#
#LOGNAME           .UNIT     LOG_ID                        : DESCRIPTION
#_______________________________________________________________________________
DEPT               .ft                                     :  {F}
LN                 .ohm.m                                  :  {F}
SN                 .ohm.m                                  :  {F}
SP                 .mV                                     :  {F}
~Ascii
# ...
5094       1.084478   2.144438   43.26614  
5094.5     1.074646   2.110293   43.18593  
5095       1.055806   2.078982   43.17953  
5095.5     1.025702   2.047672   43.26546  
5096       0.9955982  2.018394   43.41248  
5096.5     0.9704415  1.990061   43.59756  
5097       0.9562683  1.963693   43.61256  
5097.5     0.9443576  1.939606   43.47836  
5098       0.9548296  1.917109   43.20073  
5098.5     0.9653015  1.897276   43.10196  
5099       0.9748429  1.878644   43.05183  
5099.5     0.9748429  1.866599   43.00171  
5100       0.9748429  1.864208   43.18053  
5100.5     0.9717716  1.870111   43.46288  
5101       0.9576046  1.884562   43.54884  
5101.5     0.9434378  1.893579   43.64919  
5102       0.9433963  1.894581   43.79071  
5102.5     0.9433963  1.87737    43.922    
5103       0.9399214  1.858047   43.8017   
5103.5     0.9121217  1.836157   43.65933  
5104       0.884322   1.814266   43.50896  
5104.5     0.8565224  1.785538   43.4124   
5105       0.8283322  1.757427   43.34557  
5105.5     0.7999984  1.744292   43.36938  
5106       0.7984881  1.750191   43.60997  
5106.5     0.8225729  1.756845   43.86768  
5107       0.8466576  1.76086    44.07294  
5107.5     0.8731579  1.748111   44.00612  
5108       0.8999254  1.734733   43.93929  
5108.5     0.9266927  1.734104   43.96156  
5109       0.9182365  1.741515   44.00453  
5109.5     0.8513178  1.813812   44.04752  
5110       0.785495   1.904042   44.10727  
5110.5     0.7601397  1.994112   44.25774  
5111       0.7347844  2.081675   44.3705   
5111.5     0.7744136  2.121873   43.96974  
5112       0.8680997  2.141184   44.04604  
5112.5     0.9602786  2.088388   43.76962  
5113       1.046286   2.004713   43.45549  
5113.5     1.095086   1.908572   43.45549  
5114       1.080031   1.817562   43.57849  
5114.5     1.059092   1.775365   43.75034  
5115       1.022964   1.788814   43.6171   
5115.5     0.9868382  1.827044   43.45549  
5116       0.9480231  1.871768   43.45549  
5116.5     0.907872   1.923525   43.45549  
5117       0.8805032  1.97964    43.45549  
5117.5     0.8805032  2.039186   43.45549  
5118       0.9265038  2.059262   43.57349  
5118.5     1.02015    2.030895   43.70715  
5119       1.093263   1.942986   43.84081  
5119.5     1.040886   1.851236   44.02592  
5120       0.9885099  1.776302   44.30356  
5120.5     0.9416382  1.756687   44.30965  
5121       0.9289606  1.768445   43.94875  
5121.5     0.916283   1.794714   43.66846  
5122       0.9119498  1.803838   43.7951   
5122.5     0.9119498  1.758687   43.92175  
5123       0.9119498  1.699681   43.83777  
5123.5     0.9172823  1.639454   43.81844  
5124       0.9574336  1.618938   44.00351  
5124.5     0.9975847  1.601426   43.88901  
5125       1.006289   1.585588   43.54515  
5125.5     1.006289   1.597632   43.45549  
5126       0.9291024  1.632111   43.45549  
5126.5     0.8179358  1.708888   43.45549  
5127       0.888268   1.869393   43.58836  
5127.5     0.9591334  2.019867   43.76881  
5128       1.037317   2.066479   43.93462  
5128.5     1.117586   2.049955   43.99794  
5129       1.170391   1.997417   44.06125  
5129.5     1.186452   1.9666     44.11902  
5130       1.14216    1.967299   44.17371  
5130.5     1.029737   2.009381   44.22839  
5131       1.003285   2.044179   44.24083  
5131.5     1.058868   2.078977   44.24083  
5132       1.114452   2.08805    44.05095  
5132.5     1.167286   2.039727   43.77315  
5133       1.199407   1.958523   44.1351   
5133.5     1.212717   1.868615   44.36301  
5134       1.126663   1.801178   44.24272  
5134.5     1.057759   1.790842   44.24083  
5135       1.023356   1.827733   44.24083  
5135.5     0.9889535  1.877957   44.19843  
5136       1.041721   1.928417   44.13159  
5136.5     1.155107   1.94736    44.00482  
5137       1.247443   1.928815   43.72704  
5137.5     1.304111   1.894412   43.73039  
5138       1.352201   1.874125   43.92944  
5138.5     1.352201   1.878061   44.06314  
5139       1.352201   1.909362   44.19684  
5139.5     1.262065   1.996067   44.16743  
5140       1.149641   2.0941     44.04021  
5140.5     1.072309   2.207546   43.85512  
5141       1.001474   2.341858   43.67004  
5141.5     1.05836    2.467852   43.48495  
5142       1.192198   2.558697   43.5117   
5142.5     1.323577   2.572353   43.57855  
5143       1.448457   2.513556   43.69698  
5143.5     1.573338   2.428328   43.8688   
5144       1.698217   2.399841   43.68124  
5144.5     1.806907   2.45617    43.31108  
5145       1.910172   2.586253   43.24031  
5145.5     1.866998   2.844739   43.18015  
5146       1.727703   3.315976   42.93878  
5146.5     1.288367   3.778476   42.36888  
5147       0.6380802  4.320359   41.79898  
5147.5     0.06821746 5.393152   41.04355  
5148       -0.1090044 6.602429   40.26161  
5148.5     -0.1299483 7.612022   39.48062  
5149       -0.1508923 8.493952   38.70227  
5149.5     0.2385703  8.837595   37.93634  
5150       0.8062209  8.696812   37.4408   
5150.5     1.692112   7.919946   36.94525  
5151       2.469526   6.938968   37.28403  
5151.5     3.108032   6.050064   37.79953  
5152       3.580163   5.408304   38.82957  
5152.5     4.052295   4.896217   39.76448  
5153       4.518677   4.618253   40.22719  
5153.5     4.944815   4.489148   40.50674  
5154       5.332941   4.544286   40.58194  
5154.5     5.670211   4.875201   40.48621  
5155       5.971647   5.405667   40.11603  
5155.5     6.23263    6.007936   39.42189  
5156       6.391754   6.598196   38.70956  
5156.5     6.612513   7.383186   38.20821  
5157       7.112762   8.565733   37.13551  
5157.5     7.726318   9.937943   35.45076  
5158       8.385073   11.82879   34.31902  
5158.5     8.609903   13.95059   33.54744  
5159       8.400747   17.71333   33.46722  
5159.5     10.08482   21.55557   33.38802  
5160       13.14362   26.01866   33.31282  
5160.5     18.73485   30.28004   33.18468  
5161       28.29053   34.21437   32.63797  
5161.5     41.01695   37.82799   32.51494  
5162       51.53349   40.0446    32.59515  
5162.5     62.60246   42.16963   32.41853  
5163       71.79831   43.49597   32.13425  
5163.5     76.61525   44.50978   31.53232  
5164       79.59903   45.35924   31.57645  
5164.5     80.96216   45.68045   31.82306  
5165       80.32552   45.91194   31.75974  
5165.5     78.1172    45.91194   31.69641  
5166       75.36363   45.91194   31.56056  
5166.5     72.47275   45.91194   31.38867  
5167       68.0817    45.91194   31.21678  
5167.5     63.40663   45.03555   31.20419  
5168       59.67894   44.13271   31.20419  
5168.5     56.52922   42.57846   31.20419  
5169       53.82883   40.9361    31.20419  
5169.5     51.16547   39.28769   31.53499  
5170       48.08054   36.95708   31.91095  
5170.5     44.46844   34.62646   32.46532  
5171       40.79979   32.29585   32.84789  
5171.5     36.58456   29.96524   32.99828  
5172       32.36913   27.09763   33.13672  
5172.5     28.10774   24.20735   33.25706  
5173       24.01167   20.89384   33.3774   
5173.5     20.28772   19.72324   33.60576  
5174       17.94594   18.64656   33.86351  
5174.5     15.52411   16.43443   34.06647  
5175       13.62228   13.16928   34.26701  
5175.5     11.92789   11.12208   34.46756  
5176       10.98193   9.864752   34.8571   
5176.5     10.06548   8.808668   35.2867   
5177       9.327431   7.946217   35.93385  
5177.5     8.775097   7.17649    36.3273   
5178       8.413866   6.863389   36.12675  
5178.5     8.076097   6.668297   35.92621  
5179       7.783515   6.507771   35.80193  
5179.5     7.449987   6.351831   36.11176  
5180       7.067708   6.196935   36.65627  
5180.5     6.565818   6.239537   37.14928  
5181       6.123561   6.284679   36.46193  
5181.5     5.756939   6.52353    35.77452  
5182       5.46668    6.765583   35.08681  
5182.5     5.306074   6.969389   34.61411  
5183       5.334599   7.085647   34.52023  
5183.5     5.420349   7.125409   34.76083  
5184       5.568571   7.059737   34.35506  
5184.5     5.649324   6.998207   34.09317  
