~Version
 VERS              .         3.0                           : CWLS LOG ASCII STANDARD - VERSION 3.0
 WRAP              .         NO                            : ONE LINE PER DEPTH STEP
 DLM               .         SPACE                         : DELIMITING CHARACTER(SPACE TAB OR COMMA)
~Well Information
#_______________________________________________________________________________
#
#PARAMETER_NAME    .UNIT     VALUE                         : DESCRIPTION
#_______________________________________________________________________________
STRT               .ft       3001                          : First reference value
STOP               .ft       8404                          : Last reference value
STEP               .ft       0.5                           : Step increment
NULL               .         -9999                         : Missing value
COMP               .                                       : Company
WELL               .         EGBM-006                      : Well name
FLD                .         EGBEMA                        : Field
LOC                .                                       : Location
SRVC               .                                       : Service Company
CTRY               .                                       : Country
DATE               .         1967/01/30                    : Service Date
X                  .                                       : X or East-West coordinate
Y                  .                                       : Y or North South coordinate
GDAT               .                                       : Geodetic Datum
HZCS               .                                       : Horizontal Co-ordinate System
APIN               .         10804/01                      : 
BHT                .degF     171                           : 
BLI                .ft       8000                          : 
BS                 .in       9.625                         : 
CREATION-TIME      .         2067/1/30 0_0                 : 
CSIZ               .in       10.75                         : 
DFD                .g/cm3    1.19                          : 
DFT                .         BENTONITE SPERSENE XP-20      : 
DFV                .s        0                             : 
ELZ                .         -999.25                       : 
FIELD-NAME         .         EGBEMA                        : 
FILE-ID            .         SOH21 .4                      : 
FILE-NUMBER        .         101                           : 
FILE-SET-NAME      .                                       : 
FILE-SET-NUMBER    .         0                             : 
FILE-TYPE          .         PTF                           : 
HIDE               .         4540_300_185_6_1_DATE_67/01/30_SOH_21_SEQ_4: 
LCC                .         0                             : 
LMF                .         1                             : 
MCST               .degF     69                            : 
MFST               .degF     69                            : 
MST                .degF     92                            : 
NAME-SPACE-NAME    .         LIS                           : 
NAME-SPACE-VERSION .         0                             : 
PRODUC             .         SHELL(PARASOL)                : 
PRODUCER-CODE      .         0                             : 
PRODUCER-NAME      .         Schlumberger                  : 
PRODUCT            .                                       : 
PROGRAMS           .                                       : 
R1                 .         INFORMATION NOT AVAILABLE     : 
R2                 .         RERUNS ON 200 SCALE FROM 3950 TO CSG SHOE 5950 TO 5400: 
R3                 .         CALIPER CURVE IS RECORDING 1/4" TOO BIG ACCORDING TO CASING CHECK: 
R4                 .         PREVIOUS LOG                  : 
R5                 .         LATER                         : 
RMCS               .ohm.m    1.27                          : 
RMFS               .ohm.m    1.05                          : 
RMS                .ohm.m    1.09                          : 
TCS                .h        -999.25                       : 
TDD                .ft       8400                          : 
TDL                .ft       8400                          : 
TLI                .ft       5100                          : 
VERSION            .         2P01                          : 
WELL-ID            .         10804/01                      : 
WELL-NAME          .         EGBM-006                      : 
WN                 .         EGBM-006                      : 
~Parameter Information Block
#_______________________________________________________________________________
#
#PARAMETER_NAME    .UNIT     VALUE                         : DESCRIPTION
#_______________________________________________________________________________
SET                .         SOH18 _1_1                    : 
ACQUISITION-PRODUCT .         DLIS/U                        : 
CREATION-TIME      .         2026/5/13 10_46               : 
DLIS_FRAME_DIRECTION .         INCREASING                    : 
DLIS_FRAME_NAME    .         1                             : 
DLIS_FRAME_SPACING .ft       0.5                           : 
FIELD-NAME         .         EGBEMA                        : 
FILE-ID            .         SOH18 .1                      : 
FILE-NUMBER        .         1                             : 
FILE-SET-NAME      .         LIS-TO-DLIS-CONVERSION        : 
FILE-SET-NUMBER    .         9939                          : 
FILE-TYPE          .         PTF                           : 
INDEX-TYPE         .         BOREHOLE-DEPTH                : 
NAME-SPACE-NAME    .                                       : 
NAME-SPACE-VERSION .         0                             : 
OriginalDatasetName .         1                             : 
PRODUCER-CODE      .         440                           : 
PRODUCER-NAME      .         Schlumberger                  : 
PRODUCT            .         DLIS/U                        : 
PROGRAMS           .         LIS-TO-DLIS                   : 
TLFamily_DEPT      .         Measured Depth                : 
TLFamily_LN        .                                       : 
TLFamily_SN        .         Resistivity - Shallow         : 
TLFamily_SP        .         Spontaneous Potential         : 
VERSION            .         0.1                           : 
WELL-ID            .         10804/01                      : 
WELL-NAME          .         EGBM-006                      : 
~Curve Information
#_______________________________________________________________________________
#
#LOGNAME           .UNIT     LOG_ID                        : DESCRIPTION
#_______________________________________________________________________________
DEPT               .ft                                     :  {F}
LN                 .ohm.m                                  :  {F}
SN                 .ohm.m                                  :  {F}
SP                 .mV                                     :  {F}
~Ascii
# ...
8279       0.7849294  1.503595   80.81425  
8279.5     0.7849294  1.484375   81.04945  
8280       0.784153   1.452621   81.28464  
8280.5     0.7480152  1.392527   81.51984  
8281       0.7118772  1.372685   81.75504  
8281.5     0.6757393  1.366683   81.78796  
8282       0.6396013  1.383617   81.8181   
8282.5     0.6034634  1.412463   81.84824  
8283       0.6054009  1.42097    81.87837  
8283.5     0.6163514  1.41652    81.90851  
8284       0.6273019  1.38531    82.05302  
8284.5     0.6382524  1.3541     82.2303   
8285       0.6492029  1.338239   82.40758  
8285.5     0.6601534  1.33571    82.58485  
8286       0.671104   1.334061   82.70016  
8286.5     0.6820545  1.34608    82.70016  
8287       0.693005   1.346589   82.70016  
8287.5     0.7039555  1.335499   82.70016  
8288       0.714906   1.344378   82.70016  
8288.5     0.7244737  1.358104   82.70016  
8289       0.7313553  1.334833   82.69006  
8289.5     0.7382369  1.317286   82.64622  
8290       0.7451185  1.308807   82.60239  
8290.5     0.752      1.305552   82.55855  
8291       0.719483   1.323042   82.51471  
8291.5     0.675681   1.380836   82.47087  
8292       0.6318789  1.472703   82.42703  
8292.5     0.6137936  1.608064   82.39743  
8293       0.5982468  1.698692   82.5618   
8293.5     0.5827     1.779029   82.72617  
8294       0.5671532  1.795054   82.89481  
8294.5     0.5753853  1.799461   83.08022  
8295       0.5871364  1.802667   83.08733  
8295.5     0.5988873  1.747858   82.92296  
8296       0.6106384  1.698288   82.75859  
8296.5     0.6223893  1.653068   82.72116  
8297       0.6438185  1.609832   82.75374  
8297.5     0.6739222  1.569168   82.78632  
8298       0.7040259  1.52854    82.81889  
8298.5     0.7195052  1.489827   82.85149  
8299       0.7129047  1.489827   82.93686  
8299.5     0.7063043  1.513678   83.03336  
8300       0.6997039  1.545728   83.12984  
8300.5     0.6931034  1.563196   83.45505  
8301       0.6865031  1.55883    83.9512   
8301.5     0.6799026  1.508333   84.16232  
8302       0.6733022  1.467236   83.86099  
8302.5     0.6667018  1.442321   83.62268  
8303       0.6601013  1.417407   83.55176  
8303.5     0.6636029  1.392493   83.48083  
8304       0.6684202  1.387429   83.40991  
8304.5     0.6732376  1.384902   83.339    
8305       0.6780548  1.388888   83.26808  
8305.5     0.6828722  1.402243   83.19716  
8306       0.6876894  1.416724   83.13199  
8306.5     0.688895   1.447056   83.07016  
8307       0.6838762  1.477386   83.00833  
8307.5     0.6788573  1.4788     82.9465   
8308       0.6738385  1.460104   82.88467  
8308.5     0.6688197  1.44256    82.89362  
8309       0.6638008  1.428547   82.95938  
8309.5     0.658782   1.414535   83.02513  
8310       0.6537632  1.400521   83.09088  
8310.5     0.6487443  1.386508   83.15665  
8311       0.6437254  1.372495   83.2224   
8311.5     0.6387066  1.358481   83.28816  
8312       0.6336877  1.355989   83.3018   
8312.5     0.6286689  1.353585   83.23482  
8313       0.6327368  1.351565   83.166    
8313.5     0.63834    1.350153   83.0612   
8314       0.6439431  1.34874    82.95641  
8314.5     0.6495461  1.347326   82.85425  
8315       0.6551493  1.345913   82.79947  
8315.5     0.6607524  1.374047   82.74467  
8316       0.6663556  1.403508   82.72278  
8316.5     0.6719587  1.432968   82.84337  
8317       0.6775618  1.462429   82.96396  
8317.5     0.683165   1.48889    83.13147  
8318       0.688768   1.515088   83.32162  
8318.5     0.6889629  1.5417     83.02022  
8319       0.6862259  1.575732   83.10059  
8319.5     0.6834887  1.609764   83.63097  
8320       0.6807516  1.643796   84.16135  
8320.5     0.6780144  1.651889   84.50748  
8321       0.6752772  1.615073   84.13083  
8321.5     0.6725401  1.572679   83.81104  
8322       0.6698029  1.543538   83.9115   
8322.5     0.6670657  1.520927   83.8324   
8323       0.6643286  1.498318   83.61028  
8323.5     0.6615914  1.475707   83.38815  
8324       0.6597646  1.461193   83.16603  
8324.5     0.6621501  1.472282   82.94391  
8325       0.6645355  1.487819   82.72757  
8325.5     0.6669209  1.507039   82.51494  
8326       0.6693064  1.52626    82.57651  
8326.5     0.6716918  1.49423    83.05888  
8327       0.6740772  1.45901    83.54126  
8327.5     0.6764627  1.431452   83.88049  
8328       0.678848   1.404      84.11902  
8328.5     0.6812334  1.383171   84.14523  
8329       0.6836189  1.38221    84.17143  
8329.5     0.6860043  1.381248   84.19765  
8330       0.6883898  1.380288   84.22385  
8330.5     0.6907985  1.379327   84.25006  
8331       0.6946834  1.378366   84.229    
8331.5     0.6985682  1.377405   84.05688  
8332       0.702453   1.377151   84.00285  
8332.5     0.7063378  1.377151   84.11591  
8333       0.7102226  1.377151   84.22894  
8333.5     0.7141074  1.377151   84.342    
8334       0.7179923  1.377151   84.46687  
8334.5     0.7218771  1.39817    84.62762  
8335       0.7191755  1.430197   84.78839  
8335.5     0.7160054  1.462224   84.94914  
8336       0.7128354  1.4754     85.05495  
8336.5     0.7096653  1.486936   85.05495  
8337       0.7064953  1.498471   85.05495  
8337.5     0.7033253  1.492276   85.035    
8338       0.7001551  1.47711    84.94218  
8338.5     0.6969851  1.454773   84.90944  
8339       0.6938151  1.401552   84.93135  
8339.5     0.6902969  1.360709   84.95328  
8340       0.675245   1.319865   84.97519  
8340.5     0.6601932  1.291594   84.9971   
8341       0.6451415  1.281401   85.01903  
8341.5     0.6300896  1.271207   85.04094  
8342       0.5975569  1.261014   84.89656  
8342.5     0.5621175  1.257717   84.45825  
8343       0.526678   1.30947    84.01993  
8343.5     0.4912384  1.334571   83.99197  
8344       0.4765275  1.322556   84.38083  
8344.5     0.4895492  1.328905   84.76968  
8345       0.502571   1.371874   85.15854  
8345.5     0.5155928  1.414844   85.36891  
8346       0.5286145  1.405517   85.36891  
8346.5     0.5417061  1.387494   85.33765  
8347       0.5548431  1.392155   85.27582  
8347.5     0.5679802  1.403461   85.21399  
8348       0.5811172  1.449627   85.15216  
8348.5     0.5942543  1.523342   85.09033  
8349       0.6073912  1.571811   85.11443  
8349.5     0.6205283  1.603829   85.25348  
8350       0.6317592  1.591579   85.39255  
8350.5     0.6405195  1.555534   85.53506  
8351       0.64928    1.531309   85.75833  
8351.5     0.6580403  1.516131   85.9816   
8352       0.6668007  1.502788   86.20486  
8352.5     0.6755612  1.507586   86.25494  
8353       0.6843215  1.49757    86.14859  
8353.5     0.6979009  1.483548   86.04222  
8354       0.7246709  1.469526   85.93585  
8354.5     0.7514408  1.458827   85.83046  
8355       0.7782108  1.449824   85.73402  
8355.5     0.8049808  1.418318   85.63759  
8356       0.8317506  1.370258   85.54117  
8356.5     0.8585206  1.345853   85.79654  
8357       0.8724196  1.345853   86.11806  
8357.5     0.8433428  1.345853   86.15384  
8358       0.8142658  1.339514   86.15384  
8358.5     0.785189   1.329403   86.15384  
8359       0.7561121  1.324584   86.15384  
8359.5     0.7270353  1.349656   86.19736  
8360       0.6979585  1.374727   86.32838  
8360.5     0.6688815  1.403653   86.45943  
8361       0.6647357  1.4537     86.59045  
8361.5     0.6727653  1.503747   86.7215   
8362       0.680795   1.552771   86.85252  
8362.5     0.6888245  1.565419   87.0369   
8363       0.6968542  1.578067   87.32396  
8363.5     0.7048839  1.566022   87.61101  
8364       0.7129135  1.533995   87.82355  
8364.5     0.7209432  1.501967   87.98792  
8365       0.7289728  1.483005   88.15228  
8365.5     0.7370025  1.466979   87.89639  
8366       0.7450321  1.452742   87.49451  
8366.5     0.7530618  1.458506   87.40973  
8367       0.7503382  1.464271   87.40973  
8367.5     0.7469454  1.470035   87.40973  
8368       0.7435524  1.463127   87.40973  
8368.5     0.7401596  1.453517   87.40973  
8369       0.7367667  1.448813   86.77194  
8369.5     0.7333739  1.461634   86.76462  
