~Version
 VERS              .         3.0                           : CWLS LOG ASCII STANDARD - VERSION 3.0
 WRAP              .         NO                            : ONE LINE PER DEPTH STEP
 DLM               .         SPACE                         : DELIMITING CHARACTER(SPACE TAB OR COMMA)
~Well Information
#_______________________________________________________________________________
#
#PARAMETER_NAME    .UNIT     VALUE                         : DESCRIPTION
#_______________________________________________________________________________
STRT               .ft       3001                          : First reference value
STOP               .ft       8404                          : Last reference value
STEP               .ft       0.5                           : Step increment
NULL               .         -9999                         : Missing value
COMP               .                                       : Company
WELL               .         EGBM-006                      : Well name
FLD                .         EGBEMA                        : Field
LOC                .                                       : Location
SRVC               .                                       : Service Company
CTRY               .                                       : Country
DATE               .         1967/01/30                    : Service Date
X                  .                                       : X or East-West coordinate
Y                  .                                       : Y or North South coordinate
GDAT               .                                       : Geodetic Datum
HZCS               .                                       : Horizontal Co-ordinate System
APIN               .         10804/01                      : 
BHT                .degF     171                           : 
BLI                .ft       8000                          : 
BS                 .in       9.625                         : 
CREATION-TIME      .         2067/1/30 0_0                 : 
CSIZ               .in       10.75                         : 
DFD                .g/cm3    1.19                          : 
DFT                .         BENTONITE SPERSENE XP-20      : 
DFV                .s        0                             : 
ELZ                .         -999.25                       : 
FIELD-NAME         .         EGBEMA                        : 
FILE-ID            .         SOH21 .4                      : 
FILE-NUMBER        .         101                           : 
FILE-SET-NAME      .                                       : 
FILE-SET-NUMBER    .         0                             : 
FILE-TYPE          .         PTF                           : 
HIDE               .         4540_300_185_6_1_DATE_67/01/30_SOH_21_SEQ_4: 
LCC                .         0                             : 
LMF                .         1                             : 
MCST               .degF     69                            : 
MFST               .degF     69                            : 
MST                .degF     92                            : 
NAME-SPACE-NAME    .         LIS                           : 
NAME-SPACE-VERSION .         0                             : 
PRODUC             .         SHELL(PARASOL)                : 
PRODUCER-CODE      .         0                             : 
PRODUCER-NAME      .         Schlumberger                  : 
PRODUCT            .                                       : 
PROGRAMS           .                                       : 
R1                 .         INFORMATION NOT AVAILABLE     : 
R2                 .         RERUNS ON 200 SCALE FROM 3950 TO CSG SHOE 5950 TO 5400: 
R3                 .         CALIPER CURVE IS RECORDING 1/4" TOO BIG ACCORDING TO CASING CHECK: 
R4                 .         PREVIOUS LOG                  : 
R5                 .         LATER                         : 
RMCS               .ohm.m    1.27                          : 
RMFS               .ohm.m    1.05                          : 
RMS                .ohm.m    1.09                          : 
TCS                .h        -999.25                       : 
TDD                .ft       8400                          : 
TDL                .ft       8400                          : 
TLI                .ft       5100                          : 
VERSION            .         2P01                          : 
WELL-ID            .         10804/01                      : 
WELL-NAME          .         EGBM-006                      : 
WN                 .         EGBM-006                      : 
~Parameter Information Block
#_______________________________________________________________________________
#
#PARAMETER_NAME    .UNIT     VALUE                         : DESCRIPTION
#_______________________________________________________________________________
SET                .         SOH18 _1_1                    : 
ACQUISITION-PRODUCT .         DLIS/U                        : 
CREATION-TIME      .         2026/5/13 10_46               : 
DLIS_FRAME_DIRECTION .         INCREASING                    : 
DLIS_FRAME_NAME    .         1                             : 
DLIS_FRAME_SPACING .ft       0.5                           : 
FIELD-NAME         .         EGBEMA                        : 
FILE-ID            .         SOH18 .1                      : 
FILE-NUMBER        .         1                             : 
FILE-SET-NAME      .         LIS-TO-DLIS-CONVERSION        : 
FILE-SET-NUMBER    .         9939                          : 
FILE-TYPE          .         PTF                           : 
INDEX-TYPE         .         BOREHOLE-DEPTH                : 
NAME-SPACE-NAME    .                                       : 
NAME-SPACE-VERSION .         0                             : 
OriginalDatasetName .         1                             : 
PRODUCER-CODE      .         440                           : 
PRODUCER-NAME      .         Schlumberger                  : 
PRODUCT            .         DLIS/U                        : 
PROGRAMS           .         LIS-TO-DLIS                   : 
TLFamily_DEPT      .         Measured Depth                : 
TLFamily_LN        .                                       : 
TLFamily_SN        .         Resistivity - Shallow         : 
TLFamily_SP        .         Spontaneous Potential         : 
VERSION            .         0.1                           : 
WELL-ID            .         10804/01                      : 
WELL-NAME          .         EGBM-006                      : 
~Curve Information
#_______________________________________________________________________________
#
#LOGNAME           .UNIT     LOG_ID                        : DESCRIPTION
#_______________________________________________________________________________
DEPT               .ft                                     :  {F}
LN                 .ohm.m                                  :  {F}
SN                 .ohm.m                                  :  {F}
SP                 .mV                                     :  {F}
~Ascii
# ...
6914       2.890951   5.13302    38.32153  
6914.5     2.904278   5.170676   38.3696   
6915       2.951619   5.225999   38.17398  
6915.5     3.031545   5.197433   37.97835  
6916       2.998232   5.167452   37.78273  
6916.5     2.927969   5.128532   37.5871   
6917       2.822336   5.108301   37.57619  
6917.5     2.775765   5.128295   37.78735  
6918       2.763328   5.080721   37.9985   
6918.5     2.781098   5.019478   38.20966  
6919       2.79887    4.83874    38.42081  
6919.5     2.816641   4.628871   38.56784  
6920       2.83659    4.348205   38.50433  
6920.5     2.778289   4.077416   38.44083  
6921       2.611416   3.868134   38.57268  
6921.5     2.444543   3.813088   38.7683   
6922       2.335264   3.893039   38.96393  
6922.5     2.306188   3.972989   39.15955  
6923       2.27711    4.051978   39.35518  
6923.5     2.248034   4.126931   39.506    
6924       2.219229   4.194982   39.65314  
6924.5     2.192575   4.203864   39.80028  
6925       2.165923   4.212748   39.9474   
6925.5     2.179978   4.22163    40.09454  
6926       2.206631   4.279876   40.11145  
6926.5     2.241434   4.373712   40.03102  
6927       2.287725   4.467546   39.9782   
6927.5     2.334016   4.576469   39.9427   
6928       2.380307   4.694836   39.90723  
6928.5     2.426598   4.694836   39.87173  
6929       2.472889   4.694836   39.81345  
6929.5     2.519179   4.65996    39.64894  
6930       2.56547    4.608747   39.48445  
6930.5     2.625126   4.688697   39.38846  
6931       2.685088   4.768647   39.44879  
6931.5     2.745051   4.848598   39.50911  
6932       2.805014   4.85133    39.56944  
6932.5     2.816901   4.851705   39.62978  
6933       2.816901   4.899672   39.67345  
6933.5     2.816901   4.947639   39.53557  
6934       2.816901   4.995606   39.39767  
6934.5     2.816901   5.044979   39.2598   
6935       2.816901   5.108094   39.1219   
6935.5     2.816901   5.17121    38.98401  
6936       2.858024   5.150354   38.84613  
6936.5     2.90445    5.076549   38.70824  
6937       2.950877   5.015447   38.57036  
6937.5     2.997304   4.955496   38.43246  
6938       2.981642   4.933985   38.34357  
6938.5     2.954226   4.999393   38.2574   
6939       2.926809   5.064801   38.17123  
6939.5     2.899392   5.125831   38.21088  
6940       2.879499   5.181185   38.55557  
6940.5     2.879499   5.184536   38.90027  
6941       2.879499   5.169545   38.72287  
6941.5     2.879499   5.125269   38.51651  
6942       2.879499   5.065317   38.43033  
6942.5     2.859755   5.009668   38.34413  
6943       2.825487   5.05463    38.25499  
6943.5     2.79122    5.099592   38.14276  
6944       2.756952   5.144553   38.03052  
6944.5     2.722684   5.189515   37.91827  
6945       2.688416   5.28199    37.80605  
6945.5     2.666121   5.381927   37.6938   
6946       2.69741    5.481866   37.70209  
6946.5     2.728698   5.508607   37.83044  
6947       2.755755   5.485032   37.95879  
6947.5     2.763752   5.415361   38.08714  
6948       2.771749   5.328035   38.2155   
6948.5     2.779745   5.235831   38.34384  
6949       2.792732   5.270257   38.55141  
6949.5     2.81938    5.283993   38.89607  
6950       2.846027   5.27477    39.24074  
6950.5     2.872675   5.265547   39.5854   
6951       2.899322   5.255755   39.44678  
6951.5     2.910798   5.243761   39.11166  
6952       2.910798   5.231767   38.76137  
6952.5     2.910798   5.169783   38.38423  
6953       2.878518   5.073873   38.13222  
6953.5     2.773583   5.086593   38.21265  
6954       2.668649   5.161032   38.23845  
6954.5     2.563714   5.235471   38.14566  
6955       2.470857   5.309909   37.56773  
6955.5     2.45753    5.350239   36.65764  
6956       2.444203   5.323597   35.60217  
6956.5     2.430877   5.136734   34.66127  
6957       2.417551   4.933384   34.82768  
6957.5     2.430866   4.76014    34.99409  
6958       2.478845   4.586897   35.16052  
6958.5     2.526824   4.365767   35.42726  
6959       2.560791   4.125992   35.91878  
6959.5     2.527707   3.927606   36.41028  
6960       2.494623   3.799662   36.90179  
6960.5     2.461539   3.764179   37.4287   
6961       2.441315   3.865224   37.57468  
6961.5     2.441315   4.00913    37.47128  
6962       2.401772   4.153037   37.36789  
6962.5     2.344663   4.296944   37.2645   
6963       2.287553   4.44085    37.15485  
6963.5     2.322109   4.561012   36.89888  
6964       2.361272   4.660951   36.64291  
6964.5     2.400434   4.760888   36.38695  
6965       2.439598   4.848823   36.13098  
6965.5     2.478761   4.919355   35.92455  
6966       2.517924   4.974002   35.73602  
6966.5     2.552389   4.960681   35.5475   
6967       2.583141   4.94736    35.35898  
6967.5     2.613894   4.915006   35.24138  
6968       2.644646   4.879022   35.18002  
6968.5     2.675399   4.835979   35.11868  
6969       2.689145   4.769375   35.05733  
6969.5     2.683694   4.702771   34.99599  
6970       2.678243   4.61939    34.93465  
6970.5     2.672791   4.5389     34.87329  
6971       2.66734    4.549327   34.81195  
6971.5     2.661889   4.559753   34.90155  
6972       2.656438   4.568721   35.01645  
6972.5     2.650987   4.550954   35.13135  
6973       2.645535   4.533188   35.24625  
6973.5     2.640084   4.515422   35.36115  
6974       2.634633   4.499802   35.47604  
6974.5     2.629183   4.486096   35.59094  
6975       2.606421   4.47239    35.70584  
6975.5     2.583421   4.458685   35.82074  
6976       2.56042    4.44498    35.93564  
6976.5     2.537418   4.463649   36.05054  
6977       2.514418   4.483635   36.06299  
6977.5     2.491417   4.50362    36.06299  
6978       2.468416   4.523605   36.06299  
6978.5     2.445415   4.545753   36.06299  
6979       2.422415   4.573965   36.06299  
6979.5     2.427026   4.601642   36.06299  
6980       2.463928   4.617635   36.06299  
6980.5     2.500831   4.630975   36.06299  
6981       2.536441   4.616443   36.06299  
6981.5     2.554433   4.601911   36.06299  
6982       2.572425   4.587379   35.91805  
6982.5     2.590418   4.572847   35.74567  
6983       2.60841    4.618406   35.57329  
6983.5     2.626402   4.680984   35.40091  
6984       2.61688    4.743561   35.22853  
6984.5     2.602489   4.749967   35.00623  
6985       2.588098   4.740374   34.69492  
6985.5     2.573706   4.730782   34.38361  
6986       2.559314   4.756212   34.0723   
6986.5     2.544923   4.814544   33.85826  
6987       2.542093   4.872875   33.85826  
6987.5     2.563258   4.931208   33.85826  
6988       2.584423   4.989539   33.85826  
6988.5     2.605587   5.064607   33.69943  
6989       2.626752   5.147317   33.45811  
6989.5     2.641649   5.230026   33.22284  
6990       2.655762   5.312737   33.10794  
6990.5     2.668451   5.490157   32.99304  
6991       2.680441   5.677829   32.80598  
6991.5     2.69785    5.865499   32.45576  
6992       2.799333   5.965178   32.10553  
6992.5     2.900815   6.055122   31.75531  
6993       3.002298   5.99777    31.57068  
6993.5     3.073944   5.906427   31.85793  
6994       3.130759   5.821596   32.14516  
6994.5     3.187574   5.821596   32.34933  
6995       3.24439    5.821596   32.47635  
6995.5     3.301205   5.742949   32.63699  
6996       3.324635   5.618452   33.6243   
6996.5     3.334426   5.449682   34.16975  
6997       3.344216   5.336075   34.42496  
6997.5     3.354007   5.222466   34.68015  
6998       3.363798   5.178179   34.93533  
6998.5     3.373589   5.155343   35.19054  
6999       3.372878   5.134692   35.44572  
6999.5     3.34948    5.209131   35.70093  
7000       3.326081   5.28357    35.63872  
7000.5     3.302683   5.358008   35.36613  
7001       3.279284   5.440104   35.01582  
7001.5     3.255885   5.54667    34.6655   
7002       3.319164   5.653237   34.31519  
7002.5     3.385509   5.716251   34.25294  
7003       3.451856   5.773809   34.38699  
7003.5     3.518201   5.831367   34.52104  
7004       3.584547   5.899492   34.63388  
7004.5     3.650892   5.973931   34.46632  
