~Version
 VERS              .         3.0                           : CWLS LOG ASCII STANDARD - VERSION 3.0
 WRAP              .         NO                            : ONE LINE PER DEPTH STEP
 DLM               .         SPACE                         : DELIMITING CHARACTER(SPACE TAB OR COMMA)
~Well Information
#_______________________________________________________________________________
#
#PARAMETER_NAME    .UNIT     VALUE                         : DESCRIPTION
#_______________________________________________________________________________
STRT               .ft       3000                          : First reference value
STOP               .ft       8118                          : Last reference value
STEP               .ft       0.5                           : Step increment
NULL               .         -9999                         : Missing value
COMP               .                                       : Company
WELL               .         EGBM-003                      : Well name
FLD                .         EGBEMA                        : Field
LOC                .                                       : Location
SRVC               .                                       : Service Company
CTRY               .                                       : Country
DATE               .         1966/01/07                    : Service Date
X                  .                                       : X or East-West coordinate
Y                  .                                       : Y or North South coordinate
GDAT               .                                       : Geodetic Datum
HZCS               .                                       : Horizontal Co-ordinate System
APIN               .         10806/01                      : 
BHT                .degF     160                           : 
BLI                .ft       8115                          : 
BS                 .in       9.625                         : 
CREATION-TIME      .         2066/1/7 0_0                  : 
CSIZ               .in       10.75                         : 
DFD                .g/cm3    1.21                          : 
DFT                .         SPERSENE                      : 
DFV                .s        43                            : 
ELZ                .         -999.25                       : 
FIELD-NAME         .         EGBEMA                        : 
FILE-ID            .         SOH7  .1                      : 
FILE-NUMBER        .         101                           : 
FILE-SET-NAME      .                                       : 
FILE-SET-NUMBER    .         0                             : 
FILE-TYPE          .         PTF                           : 
HIDE               .         Well/Hole_ EGBM-3  Service Name_ ES  Run Number_ 1: 
LCC                .         0                             : 
LMF                .         1                             : 
MFST               .degF     77                            : 
MST                .degF     79                            : 
NAME-SPACE-NAME    .         LIS                           : 
NAME-SPACE-VERSION .         0                             : 
PRODUC             .         SHELL(PARASOL)                : 
PRODUCER-CODE      .         0                             : 
PRODUCER-NAME      .         Schlumberger                  : 
PRODUCT            .                                       : 
PROGRAMS           .                                       : 
R1                 .         SHELL     LAB      MEASUREMENTS<_techsia_br_>: 
R2                 .         <_techsia_br_>                : 
R3                 .         MUD       1.4? OHMS.  AT   77 DEG F<_techsia_br_>: 
R4                 .         <_techsia_br_>                : 
R5                 .         FILTRATE?.25 OHMS   AT   77 DEG F: 
RMCS               .ohm.m    -999.25                       : 
RMFS               .ohm.m    1.25                          : 
RMS                .ohm.m    1.5                           : 
TCS                .h        -999.25                       : 
TDD                .ft       8120                          : 
TDL                .ft       8116                          : 
TLI                .ft       2998                          : 
VERSION            .         2P01                          : 
WELL-ID            .         10806/01                      : 
WELL-NAME          .         EGBM-003                      : 
WN                 .         EGBM-003                      : 
~Parameter Information Block
#_______________________________________________________________________________
#
#PARAMETER_NAME    .UNIT     VALUE                         : DESCRIPTION
#_______________________________________________________________________________
SET                .         SOH7  _1_1                    : 
ACQUISITION-PRODUCT .         DLIS/U                        : 
CREATION-TIME      .         2026/5/13 10_22               : 
DLIS_FRAME_DIRECTION .         INCREASING                    : 
DLIS_FRAME_NAME    .         1                             : 
DLIS_FRAME_SPACING .ft       0.5                           : 
FIELD-NAME         .         EGBEMA                        : 
FILE-ID            .         SOH7  .1                      : 
FILE-NUMBER        .         4                             : 
FILE-SET-NAME      .         LIS-TO-DLIS-CONVERSION        : 
FILE-SET-NUMBER    .         13886                         : 
FILE-TYPE          .         PTF                           : 
INDEX-TYPE         .         BOREHOLE-DEPTH                : 
NAME-SPACE-NAME    .                                       : 
NAME-SPACE-VERSION .         0                             : 
OriginalDatasetName .         1                             : 
PRODUCER-CODE      .         440                           : 
PRODUCER-NAME      .         Schlumberger                  : 
PRODUCT            .         DLIS/U                        : 
PROGRAMS           .         LIS-TO-DLIS                   : 
TLFamily_DEPT      .         Measured Depth                : 
TLFamily_LN        .                                       : 
TLFamily_SN        .         Resistivity - Shallow         : 
TLFamily_SP        .         Spontaneous Potential         : 
VERSION            .         0.1                           : 
WELL-ID            .         10806/01                      : 
WELL-NAME          .         EGBM-003                      : 
~Curve Information
#_______________________________________________________________________________
#
#LOGNAME           .UNIT     LOG_ID                        : DESCRIPTION
#_______________________________________________________________________________
DEPT               .ft                                     :  {F}
LN                 .ohm.m                                  :  {F}
SN                 .ohm.m                                  :  {F}
SP                 .mV                                     :  {F}
~Ascii
# ...
7368       2.295108   2.549013   58.45735  
7368.5     2.326184   2.609859   58.33749  
7369       2.357261   2.670706   58.21765  
7369.5     2.388337   2.731591   57.96095  
7370       2.419414   2.792563   58.2016   
7370.5     2.450489   2.853537   58.44122  
7371       2.48509    2.914509   58.06136  
7371.5     2.528401   2.992769   57.32013  
7372       2.571712   3.088385   57.5517   
7372.5     2.635684   3.184      57.87183  
7373       2.730976   3.252784   58.18813  
7373.5     2.829162   3.316119   58.07916  
7374       2.899623   3.334047   58.33794  
7374.5     2.939328   3.340777   58.84048  
7375       2.979033   3.347297   59.02478  
7375.5     3.018739   3.373672   58.50427  
7376       3.053719   3.583512   57.49677  
7376.5     3.085067   3.787712   57.37523  
7377       3.116414   3.991913   57.03726  
7377.5     3.147762   4.020373   56.72348  
7378       3.179111   3.98027    56.57967  
7378.5     3.213182   3.924332   56.43585  
7379       3.249283   3.852647   56.30464  
7379.5     3.285383   3.780962   56.41359  
7380       3.321484   3.632662   56.76714  
7380.5     3.358443   3.503284   57.06584  
7381       3.398149   3.421812   57.26248  
7381.5     3.437854   3.400629   57.38908  
7382       3.477559   3.499088   57.32251  
7382.5     3.505477   3.614894   57.25592  
7383       3.505477   3.73832    57.05634  
7383.5     3.515193   3.859962   56.828    
7384       3.558645   4.009542   56.5918   
7384.5     3.638056   4.458666   56.2394   
7385       3.72593    4.786424   55.88699  
7385.5     3.833121   5.049366   55.40877  
7386       3.940312   5.268866   54.46764  
7386.5     4.103941   5.308117   53.64778  
7387       4.294526   5.25321    52.82793  
7387.5     4.462666   5.160251   52.39499  
7388       4.573997   5.067291   53.50702  
7388.5     4.576962   5.092622   54.13419  
7389       4.491917   5.109984   54.69328  
7389.5     4.398149   5.091602   55.00746  
7390       4.305919   5.097416   54.50409  
7390.5     4.213688   5.292927   53.98499  
7391       4.121458   5.348041   53.52399  
7391.5     4.068857   5.313892   53.06259  
7392       4.068857   5.230107   51.98479  
7392.5     4.068857   5.131701   50.11626  
7393       4.124448   4.97185    48.76434  
7393.5     4.183993   4.813864   49.38138  
7394       4.250634   4.754105   50.97354  
7394.5     4.318717   4.661731   52.31131  
7395       4.366523   4.474014   51.83473  
7395.5     4.412751   4.283599   50.10811  
7396       4.394427   4.089379   50.73447  
7396.5     4.376102   3.9061     53.44264  
7397       4.357778   3.746781   54.85912  
7397.5     4.357103   3.653557   55.65416  
7398       4.367931   3.79698    56.11516  
7398.5     4.378759   3.98176    56.14172  
7399       4.403139   4.179132   56.14172  
7399.5     4.432925   4.376502   55.85419  
7400       4.53039    4.481718   55.40268  
7400.5     4.67053    4.556292   55.00949  
7401       4.81067    4.658737   54.86853  
7401.5     4.95081    4.788102   54.72757  
7402       5.097735   5.066906   54.55707  
7402.5     5.284194   5.588736   54.3269   
7403       5.470652   6.026865   51.84311  
7403.5     5.654271   6.464994   49.09013  
7404       5.81802    6.903123   46.33714  
7404.5     5.981531   7.224979   43.58417  
7405       6.134718   7.349887   40.85356  
7405.5     6.269499   7.362466   39.86328  
7406       6.322359   7.375044   38.873    
7406.5     6.302502   7.354004   37.88272  
7407       6.246109   7.321046   37.45485  
7407.5     6.140245   7.288087   37.03195  
7408       6.031466   7.255129   37.17651  
7408.5     5.876634   7.157705   37.85344  
7409       5.721803   7.033132   39.30396  
7409.5     5.582375   6.681682   40.75447  
7410       5.463229   6.330231   42.10817  
7410.5     5.344085   5.998261   43.43979  
7411       5.295807   5.669582   45.68082  
7411.5     5.26473    5.442888   49.98291  
7412       5.233654   5.249483   52.17831  
7412.5     5.161621   5.056079   53.02371  
7413       5.07825    5.02524    53.66267  
7413.5     4.987413   5.156165   54.09448  
7414       4.85596    5.296745   53.88977  
7414.5     4.724505   5.493085   52.69989  
7415       4.593052   5.685795   50.16269  
7415.5     4.478647   5.707519   48.09247  
7416       4.396509   5.601194   47.45313  
7416.5     4.314372   5.436932   48.59171  
7417       4.232234   5.213228   50.05397  
7417.5     4.170867   4.930757   51.37888  
7418       4.127542   4.623584   52.4651   
7418.5     4.084216   4.383782   53.15257  
7419       4.060766   4.195967   54.16679  
7419.5     4.048232   4.10108    54.83499  
7420       4.046402   4.041338   55.39436  
7420.5     4.105974   3.981597   55.59789  
7421       4.17451    3.968111   55.96436  
7421.5     4.249744   3.989198   56.62625  
7422       4.329619   4.010285   56.43301  
7422.5     4.465761   4.031372   56.03311  
7423       4.601903   4.054436   55.79341  
7423.5     4.722058   4.094263   55.55371  
7424       4.80783    4.13409    55.51181  
7424.5     4.893601   4.173918   55.57365  
7425       4.979539   4.398171   55.65353  
7425.5     5.0703     4.826394   54.59601  
7426       5.161062   5.240707   52.64351  
7426.5     5.236254   5.663501   50.32161  
7427       5.239452   6.086294   48.05269  
7427.5     5.173285   6.452843   45.86778  
7428       5.043353   6.499215   43.81026  
7428.5     4.866219   6.499215   42.50108  
7429       4.697267   6.499215   41.96851  
7429.5     4.48334    6.409642   42.05405  
7430       4.269414   5.88452    42.38092  
7430.5     4.055488   5.346682   44.02533  
7431       3.84156    5.03588    47.51753  
7431.5     3.627634   4.773537   51.27333  
7432       3.413708   4.582448   52.42772  
7432.5     3.369112   4.330732   53.10832  
7433       3.355873   4.124185   53.57068  
7433.5     3.354175   3.967593   53.60146  
7434       3.365002   3.811002   54.79951  
7434.5     3.37583    3.65441    56.19008  
7435       3.380281   3.503102   56.92912  
7435.5     3.380281   3.453689   56.92912  
7436       3.380281   3.453689   56.92912  
7436.5     3.380667   3.505124   56.97545  
7437       3.389829   3.567089   57.0753   
7437.5     3.398991   3.629053   56.93481  
7438       3.408154   3.698844   56.67165  
7438.5     3.434178   3.788442   56.7186   
7439       3.470279   3.892082   56.85176  
7439.5     3.506379   4.059409   56.84544  
7440       3.54248    4.167238   56.64568  
7440.5     3.568075   4.204973   56.44591  
7441       3.568075   4.230999   56.27931  
7441.5     3.568075   4.160709   56.20441  
7442       3.545257   4.090419   56.11731  
7442.5     3.520609   4.049463   56.01762  
7443       3.495961   4.013633   56.31735  
7443.5     3.473339   3.982458   56.33644  
7444       3.466121   3.951284   56.11174  
7444.5     3.458902   3.916921   56.03139  
7445       3.451684   3.863823   56.14034  
7445.5     3.444466   3.689226   56.14172  
7446       3.415338   3.541473   56.14172  
7446.5     3.38004    3.443718   56.05133  
7447       3.344743   3.345963   55.86693  
7447.5     3.30913    3.267056   55.67065  
7448       3.27248    3.411826   56.64322  
7448.5     3.23583    3.562768   57.34915  
7449       3.199181   3.672318   57.19627  
7449.5     3.168149   3.736046   56.96577  
7450       3.138371   3.760136   56.73528  
7450.5     3.108595   3.745203   56.53291  
7451       3.077497   3.712284   56.36172  
7451.5     3.045733   3.65254    56.19054  
7452       3.024194   3.592796   56.24886  
7452.5     3.007176   3.533052   56.21965  
7453       2.990159   3.496552   56.14172  
7453.5     2.973141   3.46897    56.14172  
7454       2.956123   3.441389   56.14172  
7454.5     2.940103   3.436993   55.99579  
7455       2.928758   3.484783   55.78697  
7455.5     2.917412   3.532573   55.57542  
7456       2.906067   3.570028   55.8709   
7456.5     2.894722   3.602613   56.45107  
7457       2.883377   3.635199   56.58595  
7457.5     2.868687   3.704928   56.29921  
7458       2.852259   3.784589   56.29921  
7458.5     2.835832   3.970225   56.10262  
