~Version
 VERS              .         3.0                           : CWLS LOG ASCII STANDARD - VERSION 3.0
 WRAP              .         NO                            : ONE LINE PER DEPTH STEP
 DLM               .         SPACE                         : DELIMITING CHARACTER(SPACE TAB OR COMMA)
~Well Information
#_______________________________________________________________________________
#
#PARAMETER_NAME    .UNIT     VALUE                         : DESCRIPTION
#_______________________________________________________________________________
STRT               .ft       3000                          : First reference value
STOP               .ft       8118                          : Last reference value
STEP               .ft       0.5                           : Step increment
NULL               .         -9999                         : Missing value
COMP               .                                       : Company
WELL               .         EGBM-003                      : Well name
FLD                .         EGBEMA                        : Field
LOC                .                                       : Location
SRVC               .                                       : Service Company
CTRY               .                                       : Country
DATE               .         1966/01/07                    : Service Date
X                  .                                       : X or East-West coordinate
Y                  .                                       : Y or North South coordinate
GDAT               .                                       : Geodetic Datum
HZCS               .                                       : Horizontal Co-ordinate System
APIN               .         10806/01                      : 
BHT                .degF     160                           : 
BLI                .ft       8115                          : 
BS                 .in       9.625                         : 
CREATION-TIME      .         2066/1/7 0_0                  : 
CSIZ               .in       10.75                         : 
DFD                .g/cm3    1.21                          : 
DFT                .         SPERSENE                      : 
DFV                .s        43                            : 
ELZ                .         -999.25                       : 
FIELD-NAME         .         EGBEMA                        : 
FILE-ID            .         SOH7  .1                      : 
FILE-NUMBER        .         101                           : 
FILE-SET-NAME      .                                       : 
FILE-SET-NUMBER    .         0                             : 
FILE-TYPE          .         PTF                           : 
HIDE               .         Well/Hole_ EGBM-3  Service Name_ ES  Run Number_ 1: 
LCC                .         0                             : 
LMF                .         1                             : 
MFST               .degF     77                            : 
MST                .degF     79                            : 
NAME-SPACE-NAME    .         LIS                           : 
NAME-SPACE-VERSION .         0                             : 
PRODUC             .         SHELL(PARASOL)                : 
PRODUCER-CODE      .         0                             : 
PRODUCER-NAME      .         Schlumberger                  : 
PRODUCT            .                                       : 
PROGRAMS           .                                       : 
R1                 .         SHELL     LAB      MEASUREMENTS<_techsia_br_>: 
R2                 .         <_techsia_br_>                : 
R3                 .         MUD       1.4? OHMS.  AT   77 DEG F<_techsia_br_>: 
R4                 .         <_techsia_br_>                : 
R5                 .         FILTRATE?.25 OHMS   AT   77 DEG F: 
RMCS               .ohm.m    -999.25                       : 
RMFS               .ohm.m    1.25                          : 
RMS                .ohm.m    1.5                           : 
TCS                .h        -999.25                       : 
TDD                .ft       8120                          : 
TDL                .ft       8116                          : 
TLI                .ft       2998                          : 
VERSION            .         2P01                          : 
WELL-ID            .         10806/01                      : 
WELL-NAME          .         EGBM-003                      : 
WN                 .         EGBM-003                      : 
~Parameter Information Block
#_______________________________________________________________________________
#
#PARAMETER_NAME    .UNIT     VALUE                         : DESCRIPTION
#_______________________________________________________________________________
SET                .         SOH7  _1_1                    : 
ACQUISITION-PRODUCT .         DLIS/U                        : 
CREATION-TIME      .         2026/5/13 10_22               : 
DLIS_FRAME_DIRECTION .         INCREASING                    : 
DLIS_FRAME_NAME    .         1                             : 
DLIS_FRAME_SPACING .ft       0.5                           : 
FIELD-NAME         .         EGBEMA                        : 
FILE-ID            .         SOH7  .1                      : 
FILE-NUMBER        .         4                             : 
FILE-SET-NAME      .         LIS-TO-DLIS-CONVERSION        : 
FILE-SET-NUMBER    .         13886                         : 
FILE-TYPE          .         PTF                           : 
INDEX-TYPE         .         BOREHOLE-DEPTH                : 
NAME-SPACE-NAME    .                                       : 
NAME-SPACE-VERSION .         0                             : 
OriginalDatasetName .         1                             : 
PRODUCER-CODE      .         440                           : 
PRODUCER-NAME      .         Schlumberger                  : 
PRODUCT            .         DLIS/U                        : 
PROGRAMS           .         LIS-TO-DLIS                   : 
TLFamily_DEPT      .         Measured Depth                : 
TLFamily_LN        .                                       : 
TLFamily_SN        .         Resistivity - Shallow         : 
TLFamily_SP        .         Spontaneous Potential         : 
VERSION            .         0.1                           : 
WELL-ID            .         10806/01                      : 
WELL-NAME          .         EGBM-003                      : 
~Curve Information
#_______________________________________________________________________________
#
#LOGNAME           .UNIT     LOG_ID                        : DESCRIPTION
#_______________________________________________________________________________
DEPT               .ft                                     :  {F}
LN                 .ohm.m                                  :  {F}
SN                 .ohm.m                                  :  {F}
SP                 .mV                                     :  {F}
~Ascii
# ...
4001       7.307437   4.72875    62.97244  
4001.5     8.403423   5.705326   62.05428  
4002       9.58045    6.773782   60.21388  
4002.5     10.75747   7.842238   58.98213  
4003       11.9803    8.910696   58.86517  
4003.5     13.43814   9.877157   59.36522  
4004       14.89598   10.22533   59.34192  
4004.5     16.35381   10.61432   59.27875  
4005       17.50938   10.89382   59.1721   
4005.5     17.96768   11.01919   59.00847  
4006       18.31801   11.14587   58.84482  
4006.5     18.75638   11.34838   58.56993  
4007       19.24693   11.55089   58.20064  
4007.5     19.66219   11.70543   57.93895  
4008       19.97607   11.72892   57.6989   
4008.5     20.28998   11.38106   57.40715  
4009       20.60388   11.03841   57.29614  
4009.5     20.91777   11.00334   57.22948  
4010       21.17139   11.55426   57.3524   
4010.5     21.3885    12.13651   57.71246  
4011       21.60562   12.59345   58.07251  
4011.5     21.50531   12.95079   58.68279  
4012       21.17982   13.00161   59.34952  
4012.5     20.53639   12.89166   59.77011  
4013       19.64674   13.08243   59.996    
4013.5     18.73907   13.77347   60.90131  
4014       18.44586   14.2424    61.86163  
4014.5     18.37123   14.44174   62.35172  
4015       18.28336   14.3084    62.70175  
4015.5     18.08435   14.12972   63.05177  
4016       17.61952   14.01737   63.15224  
4016.5     16.91783   13.95468   62.77715  
4017       16.24681   13.89373   62.40205  
4017.5     15.61716   13.60167   61.80475  
4018       14.9875    12.75792   61.2047   
4018.5     14.43186   12.04322   60.60464  
4019       13.94091   11.27704   59.9256   
4019.5     13.49219   10.43248   59.23077  
4020       13.22464   9.847399   58.32101  
4020.5     12.94104   9.275644   57.00783  
4021       12.68153   8.875179   56.08832  
4021.5     12.4427    8.479679   56.68936  
4022       12.23984   8.52482    57.68503  
4022.5     12.07353   9.052683   58.03975  
4023       11.98972   9.648226   58.64552  
4023.5     12.39843   10.03182   59.43182  
4024       12.81235   9.715548   60.08168  
4024.5     13.05304   9.425503   60.34843  
4025       13.01653   9.135456   60.61517  
4025.5     12.41802   8.852636   60.45091  
4026       11.77836   8.590614   60.19379  
4026.5     11.13211   8.979561   60.05486  
4027       10.49367   9.378935   60.17487  
4027.5     10.0041    9.598833   60.08369  
4028       9.514523   9.513781   60.50667  
4028.5     9.049084   9.006121   61.04279  
4029       8.61692    8.529644   60.67351  
4029.5     8.184757   8.05323    60.31165  
4030       7.837121   7.57692    59.95602  
4030.5     7.567466   6.990679   59.60042  
4031       7.424149   6.349311   59.24481  
4031.5     7.333919   5.974012   59.2429   
4032       7.249626   5.610377   59.2429   
4032.5     7.261026   5.31116    59.3228   
4033       7.362209   5.086985   59.54099  
4033.5     7.489602   4.894148   59.31284  
4034       7.773516   5.222937   58.88876  
4034.5     8.25256    5.438343   58.40878  
4035       8.858829   5.536551   58.13799  
4035.5     9.356018   5.596101   57.93105  
4036       9.816654   5.655651   57.72412  
4036.5     10.17434   5.771189   57.51718  
4037       10.5157    5.897287   57.3269   
4037.5     10.8501    6.194922   57.13741  
4038       11.33296   6.813897   57.0347   
4038.5     12.01882   7.416604   56.82048  
4039       12.81488   8.056381   56.50049  
4039.5     13.76597   8.696157   55.75177  
4040       14.73839   9.335934   55.48128  
4040.5     16.26709   9.97571    56.14786  
4041       17.79581   10.34291   56.26773  
4041.5     18.95287   10.58744   57.468    
4042       19.62721   10.94476   58.66827  
4042.5     20.19244   11.30207   59.86853  
4043       20.75768   11.66156   60.99388  
4043.5     21.32292   12.02592   62.1189   
4044       21.54567   12.3773    62.50754  
4044.5     21.24712   12.56787   62.80757  
4045       20.94856   12.52888   63.10759  
4045.5     20.65001   12.41771   63.27939  
4046       20.4494    12.72262   63.40572  
4046.5     20.6665    13.34566   63.53052  
4047       20.88362   13.7317    63.65054  
4047.5     21.10074   13.94686   63.77055  
4048       21.31784   14.04609   63.97464  
4048.5     21.52954   13.98151   64.23183  
4049       21.7403    13.91654   64.48901  
4049.5     21.95105   14.12845   64.7462   
4050       22.1618    14.46198   64.94258  
4050.5     22.29199   14.54049   65.1346   
4051       22.29199   14.37557   65.32663  
4051.5     22.29199   14.23396   65.43318  
4052       22.29199   14.09998   65.49318  
4052.5     22.29199   14.02736   65.55205  
4053       22.24615   14.37129   65.55205  
4053.5     22.1577    14.73695   64.84947  
4054       22.06924   14.28746   64.32263  
4054.5     21.98077   13.85547   64.23233  
4055       20.97752   13.65667   64.71231  
4055.5     20.0052    13.59852   64.66127  
4056       19.03288   13.49466   64.54697  
4056.5     18.04857   13.0699    64.42259  
4057       16.59532   12.60665   64.23309  
4057.5     15.26891   12.21169   64.04361  
4058       14.17878   11.99762   63.89836  
4058.5     13.61004   11.61632   63.43033  
4059       13.04131   10.82897   62.72141  
4059.5     12.48873   9.942341   62.25981  
4060       11.96337   9.314333   62.62247  
4060.5     11.45711   8.373453   62.96536  
4061       11.30434   7.638251   62.42528  
4061.5     11.21997   7.20152    61.88519  
4062       11.14533   7.058575   61.15306  
4062.5     11.13021   7.131367   60.21965  
4063       11.26212   6.922959   59.32217  
4063.5     11.56052   6.727678   58.68204  
4064       11.97852   6.60402    58.25998  
4064.5     12.39651   6.544466   59.36301  
4065       12.8145    6.626336   60.35048  
4065.5     13.41889   7.024786   61.07063  
4066       14.23101   7.481368   61.48254  
4066.5     15.19932   8.096207   61.54922  
4067       16.23433   8.948605   61.60883  
4067.5     17.26935   10.04556   61.60883  
4068       18.30437   11.14252   61.79926  
4068.5     19.44724   12.23948   62.21155  
4069       20.77951   13.33644   63.77208  
4069.5     22.11179   14.4334    64.6516   
4070       23.16165   14.85225   65.32661  
4070.5     24.16734   15.13515   65.77007  
4071       25.14259   15.47243   66.0974   
4071.5     26.06537   15.82972   66.42473  
4072       26.98816   16.13618   66.71303  
4072.5     27.91093   16.35455   66.98999  
4073       28.83371   16.37712   67.26695  
4073.5     29.75648   16.34734   67.39706  
4074       30.20183   16.41985   67.26372  
4074.5     30.30566   16.55867   67.13039  
4075       30.40952   16.84865   66.8316   
4075.5     30.30998   17.0154    66.53152  
4076       30.05037   17.05789   66.71193  
4076.5     29.79076   17.05789   66.89059  
4077       29.53114   16.98827   66.9402   
4077.5     29.27151   16.96564   66.8602   
4078       29.0119    17.29047   67.0665   
4078.5     28.79947   17.44557   67.64102  
4079       28.63187   17.51691   68.00101  
4079.5     28.46425   17.45735   68.55124  
4080       28.29665   17.40092   69.22514  
4080.5     28.12904   17.38391   70.16817  
4081       27.96144   17.35695   70.79315  
4081.5     27.79384   17.29741   70.88916  
4082       27.6304    17.23785   70.98517  
4082.5     27.67633   17.20229   71.0656   
4083       27.72226   17.4388    70.98816  
4083.5     27.76819   17.4073    70.91072  
4084       27.81412   17.18718   70.83328  
4084.5     27.86005   17.22211   70.75517  
4085       27.90598   17.40572   70.63515  
4085.5     27.95322   17.34203   70.51514  
4086       28.0063    16.9847    70.39513  
4086.5     28.05937   16.87456   70.28391  
4087       28.11246   17.09419   70.28391  
4087.5     28.16553   17.42393   70.28391  
4088       28.2186    17.66069   70.67113  
4088.5     28.23744   17.65424   71.13339  
4089       28.16281   17.41608   71.60011  
4089.5     28.08817   17.17786   72.06682  
4090       28.01352   17.34821   72.89053  
4090.5     27.95683   17.43227   73.51358  
4091       28.17397   17.51634   73.76933  
4091.5     28.39108   17.54878   73.87373  
