~Version
 VERS              .         3.0                           : CWLS LOG ASCII STANDARD - VERSION 3.0
 WRAP              .         NO                            : ONE LINE PER DEPTH STEP
 DLM               .         SPACE                         : DELIMITING CHARACTER(SPACE TAB OR COMMA)
~Well Information
#_______________________________________________________________________________
#
#PARAMETER_NAME    .UNIT     VALUE                         : DESCRIPTION
#_______________________________________________________________________________
STRT               .ft       3000                          : First reference value
STOP               .ft       8118                          : Last reference value
STEP               .ft       0.5                           : Step increment
NULL               .         -9999                         : Missing value
COMP               .                                       : Company
WELL               .         EGBM-003                      : Well name
FLD                .         EGBEMA                        : Field
LOC                .                                       : Location
SRVC               .                                       : Service Company
CTRY               .                                       : Country
DATE               .         1966/01/07                    : Service Date
X                  .                                       : X or East-West coordinate
Y                  .                                       : Y or North South coordinate
GDAT               .                                       : Geodetic Datum
HZCS               .                                       : Horizontal Co-ordinate System
APIN               .         10806/01                      : 
BHT                .degF     160                           : 
BLI                .ft       8115                          : 
BS                 .in       9.625                         : 
CREATION-TIME      .         2066/1/7 0_0                  : 
CSIZ               .in       10.75                         : 
DFD                .g/cm3    1.21                          : 
DFT                .         SPERSENE                      : 
DFV                .s        43                            : 
ELZ                .         -999.25                       : 
FIELD-NAME         .         EGBEMA                        : 
FILE-ID            .         SOH7  .1                      : 
FILE-NUMBER        .         101                           : 
FILE-SET-NAME      .                                       : 
FILE-SET-NUMBER    .         0                             : 
FILE-TYPE          .         PTF                           : 
HIDE               .         Well/Hole_ EGBM-3  Service Name_ ES  Run Number_ 1: 
LCC                .         0                             : 
LMF                .         1                             : 
MFST               .degF     77                            : 
MST                .degF     79                            : 
NAME-SPACE-NAME    .         LIS                           : 
NAME-SPACE-VERSION .         0                             : 
PRODUC             .         SHELL(PARASOL)                : 
PRODUCER-CODE      .         0                             : 
PRODUCER-NAME      .         Schlumberger                  : 
PRODUCT            .                                       : 
PROGRAMS           .                                       : 
R1                 .         SHELL     LAB      MEASUREMENTS<_techsia_br_>: 
R2                 .         <_techsia_br_>                : 
R3                 .         MUD       1.4? OHMS.  AT   77 DEG F<_techsia_br_>: 
R4                 .         <_techsia_br_>                : 
R5                 .         FILTRATE?.25 OHMS   AT   77 DEG F: 
RMCS               .ohm.m    -999.25                       : 
RMFS               .ohm.m    1.25                          : 
RMS                .ohm.m    1.5                           : 
TCS                .h        -999.25                       : 
TDD                .ft       8120                          : 
TDL                .ft       8116                          : 
TLI                .ft       2998                          : 
VERSION            .         2P01                          : 
WELL-ID            .         10806/01                      : 
WELL-NAME          .         EGBM-003                      : 
WN                 .         EGBM-003                      : 
~Parameter Information Block
#_______________________________________________________________________________
#
#PARAMETER_NAME    .UNIT     VALUE                         : DESCRIPTION
#_______________________________________________________________________________
SET                .         SOH7  _1_1                    : 
ACQUISITION-PRODUCT .         DLIS/U                        : 
CREATION-TIME      .         2026/5/13 10_22               : 
DLIS_FRAME_DIRECTION .         INCREASING                    : 
DLIS_FRAME_NAME    .         1                             : 
DLIS_FRAME_SPACING .ft       0.5                           : 
FIELD-NAME         .         EGBEMA                        : 
FILE-ID            .         SOH7  .1                      : 
FILE-NUMBER        .         4                             : 
FILE-SET-NAME      .         LIS-TO-DLIS-CONVERSION        : 
FILE-SET-NUMBER    .         13886                         : 
FILE-TYPE          .         PTF                           : 
INDEX-TYPE         .         BOREHOLE-DEPTH                : 
NAME-SPACE-NAME    .                                       : 
NAME-SPACE-VERSION .         0                             : 
OriginalDatasetName .         1                             : 
PRODUCER-CODE      .         440                           : 
PRODUCER-NAME      .         Schlumberger                  : 
PRODUCT            .         DLIS/U                        : 
PROGRAMS           .         LIS-TO-DLIS                   : 
TLFamily_DEPT      .         Measured Depth                : 
TLFamily_LN        .                                       : 
TLFamily_SN        .         Resistivity - Shallow         : 
TLFamily_SP        .         Spontaneous Potential         : 
VERSION            .         0.1                           : 
WELL-ID            .         10806/01                      : 
WELL-NAME          .         EGBM-003                      : 
~Curve Information
#_______________________________________________________________________________
#
#LOGNAME           .UNIT     LOG_ID                        : DESCRIPTION
#_______________________________________________________________________________
DEPT               .ft                                     :  {F}
LN                 .ohm.m                                  :  {F}
SN                 .ohm.m                                  :  {F}
SP                 .mV                                     :  {F}
~Ascii
# ...
6003       5.78125    5.018464   51.73228  
6003.5     5.78125    4.936401   52.58504  
6004       5.78125    4.895937   53.42104  
6004.5     5.78125    5.029266   54.1842   
6005       5.822735   5.348091   53.28012  
6005.5     5.892604   5.618112   51.91159  
6006       5.960137   5.857229   50.54305  
6006.5     6.023472   6.096348   49.35605  
6007       6.073897   6.274519   48.47415  
6007.5     6.103596   6.387812   47.59227  
6008       6.117632   6.454234   47.28432  
6008.5     6.08062    6.502701   47.05983  
6009       5.942005   6.462848   47.17523  
6009.5     5.794984   6.360169   47.58009  
6010       5.640096   6.213982   48.13133  
6010.5     5.485207   6.061839   48.66333  
6011       5.32723    5.889143   49.03171  
6011.5     5.166042   5.716447   49.21715  
6012       5.004854   5.44828    49.39673  
6012.5     4.843667   5.16424    49.85258  
6013       4.716699   4.897766   51.04984  
6013.5     4.597933   4.68224    51.9108   
6014       4.479166   4.568944   52.50916  
6014.5     4.3604     4.455647   53.16151  
6015       4.260525   4.37595    53.74539  
6015.5     4.173417   4.304206   54.26921  
6016       4.08631    4.233888   54.84518  
6016.5     3.999203   4.170122   55.48987  
6017       3.917259   4.09758    55.29279  
6017.5     3.83809    3.99091    54.97771  
6018       3.758922   3.89008    54.66261  
6018.5     3.679753   3.786437   55.47798  
6019       3.619128   3.704462   56.93155  
6019.5     3.566334   3.69517    58.12962  
6020       3.51354    3.739902   59.02773  
6020.5     3.460746   3.791151   59.13385  
6021       3.407951   3.715564   59.13385  
6021.5     3.369179   3.616202   59.158    
6022       3.330874   3.539646   59.19542  
6022.5     3.292569   3.521203   59.23283  
6023       3.254264   3.52984    59.27025  
6023.5     3.229896   3.543908   59.20882  
6024       3.207273   3.557976   59.01976  
6024.5     3.185504   3.513897   58.8307   
6025       3.169662   3.425508   59.04337  
6025.5     3.155771   3.373987   59.28279  
6026       3.133503   3.337656   59.51872  
6026.5     3.111234   3.319514   59.74673  
6027       3.088965   3.301373   59.97475  
6027.5     3.066697   3.283231   60.1012   
6028       3.044428   3.262481   60.14247  
6028.5     3.02216    3.240273   60.18376  
6029       2.999891   3.218065   60.22505  
6029.5     2.977622   3.195857   60.19905  
6030       2.940866   3.168188   60.1481   
6030.5     2.894515   3.118073   60.09715  
6031       2.848163   3.031991   60.04619  
6031.5     2.801811   2.958107   59.99524  
6032       2.75546    2.901835   59.94429  
6032.5     2.716537   2.853267   59.92125  
6033       2.705901   2.841307   59.92125  
6033.5     2.695266   2.830608   59.92125  
6034       2.684629   2.836816   59.92125  
6034.5     2.673993   2.855034   59.97079  
6035       2.663358   2.873253   60.16092  
6035.5     2.652721   2.88767    60.15506  
6036       2.642086   2.891086   59.99178  
6036.5     2.63145    2.879148   59.82851  
6037       2.61352    2.844847   59.86009  
6037.5     2.584349   2.803399   60.01967  
6038       2.555179   2.766679   60.21181  
6038.5     2.526008   2.761898   60.42307  
6039       2.496838   2.743044   60.66914  
6039.5     2.467668   2.71985    60.41173  
6040       2.438497   2.68712    60.06972  
6040.5     2.409327   2.65439    59.75114  
6041       2.379689   2.63861    59.63142  
6041.5     2.349997   2.632689   59.66667  
6042       2.320304   2.623991   59.7431   
6042.5     2.290611   2.604119   59.81953  
6043       2.260919   2.582193   59.89595  
6043.5     2.231227   2.560267   59.97238  
6044       2.201534   2.54027    60.04881  
6044.5     2.174078   2.52114    60.20009  
6045       2.148627   2.512606   60.39163  
6045.5     2.123177   2.513746   60.32118  
6046       2.097726   2.529687   60.25073  
6046.5     2.072275   2.535971   60.39461  
6047       2.046825   2.537963   60.5941   
6047.5     2.021375   2.539956   60.70866  
6048       1.997282   2.53019    60.70866  
6048.5     1.980315   2.510251   60.60019  
6049       1.963348   2.452514   60.36081  
6049.5     1.946381   2.396242   60.26811  
6050       1.929414   2.348551   60.33464  
6050.5     1.912447   2.318351   60.39868  
6051       1.895479   2.28815    60.44301  
6051.5     1.878512   2.272724   60.48735  
6052       1.869908   2.260322   60.53169  
6052.5     1.863488   2.247919   60.55118  
6053       1.857067   2.238155   60.55118  
6053.5     1.850647   2.235168   60.55118  
6054       1.844226   2.233265   60.55118  
6054.5     1.820841   2.236455   60.55118  
6055       1.796097   2.237367   60.55118  
6055.5     1.771352   2.208445   60.55118  
6056       1.746607   2.151008   60.55118  
6056.5     1.721862   2.096941   60.67027  
6057       1.697117   2.042873   61.10582  
6057.5     1.67972    1.991285   61.01222  
6058       1.666995   1.949192   60.71304  
6058.5     1.654269   1.907099   60.59698  
6059       1.641544   1.865005   60.69676  
6059.5     1.628819   1.835843   60.46896  
6060       1.616094   1.807806   60.19684  
6060.5     1.603368   1.779769   59.92471  
6061       1.594732   1.752725   59.98691  
6061.5     1.598758   1.734009   60.05341  
6062       1.602784   1.715293   60.1714   
6062.5     1.60681    1.697328   60.32106  
6063       1.610835   1.699806   60.59912  
6063.5     1.614861   1.718597   60.80952  
6064       1.618886   1.737389   60.63852  
6064.5     1.622912   1.75618    60.62758  
6065       1.641819   1.772853   60.78374  
6065.5     1.676753   1.788794   60.9399   
6066       1.711688   1.812219   61.1162   
6066.5     1.746622   1.898912   61.31578  
6067       1.781825   2.067096   60.91443  
6067.5     1.847349   2.316777   60.57208  
6068       1.912872   2.538031   60.33261  
6068.5     1.978395   2.726651   60.09314  
6069       2.045606   2.803424   59.9297   
6069.5     2.119852   2.566037   59.95963  
6070       2.189008   2.34396    59.98956  
6070.5     2.205975   2.133271   60.01949  
6071       2.21875    1.967853   60.04942  
6071.5     2.21875    1.872199   60.08147  
6072       2.21875    1.843328   60.21452  
6072.5     2.21875    1.90909    60.10258  
6073       2.227869   2.162184   59.94293  
6073.5     2.281851   2.480188   59.92125  
6074       2.335832   2.798194   59.92125  
6074.5     2.388038   3.116199   60.07361  
6075       2.435551   3.434204   60.24467  
6075.5     2.425512   3.292746   60.32515  
6076       2.413013   3.03828    59.79338  
6076.5     2.377166   2.926692   59.6022   
6077       2.313799   2.839704   59.44505  
6077.5     2.251306   2.781929   59.40878  
6078       2.189733   2.655849   59.3725   
6078.5     2.12816    2.473957   59.33623  
6079       2.066588   2.249242   59.29994  
6079.5     2.019845   2.067257   59.29134  
6080       1.974157   1.945286   59.29134  
6080.5     1.928469   1.897636   59.3477   
6081       1.916151   1.879697   59.77522  
6081.5     1.955754   1.865065   60.07874  
6082       2.017314   1.856747   60.07874  
6082.5     2.089595   1.848429   60.07874  
6083       2.161877   1.842767   60.07874  
6083.5     2.279532   1.842767   59.90508  
6084       2.422107   1.883787   59.76378  
6084.5     2.575253   1.993582   59.76378  
6085       2.741858   2.204195   59.83118  
6085.5     2.917186   2.433794   59.84787  
6086       3.092512   2.663393   59.66368  
6086.5     3.267839   2.892992   59.56052  
6087       3.443167   3.122591   59.49402  
6087.5     3.618493   3.352189   59.25697  
6088       3.730582   3.581788   58.71602  
6088.5     3.820509   3.829109   58.33298  
6089       3.852177   4.098997   57.94995  
6089.5     3.875      4.379072   57.56691  
6090       3.875      4.579536   57.49005  
6090.5     3.864621   4.747003   57.41959  
6091       3.805252   4.807333   57.45724  
6091.5     3.749093   4.841499   57.53206  
6092       3.695112   4.610203   57.60687  
6092.5     3.64113    4.205379   57.68167  
6093       3.608342   3.873423   57.81493  
6093.5     3.584586   3.431806   57.99911  
