~Version
 VERS              .         3.0                           : CWLS LOG ASCII STANDARD - VERSION 3.0
 WRAP              .         NO                            : ONE LINE PER DEPTH STEP
 DLM               .         SPACE                         : DELIMITING CHARACTER(SPACE TAB OR COMMA)
~Well Information
#_______________________________________________________________________________
#
#PARAMETER_NAME    .UNIT     VALUE                         : DESCRIPTION
#_______________________________________________________________________________
STRT               .ft       3000                          : First reference value
STOP               .ft       8118                          : Last reference value
STEP               .ft       0.5                           : Step increment
NULL               .         -9999                         : Missing value
COMP               .                                       : Company
WELL               .         EGBM-003                      : Well name
FLD                .         EGBEMA                        : Field
LOC                .                                       : Location
SRVC               .                                       : Service Company
CTRY               .                                       : Country
DATE               .         1966/01/07                    : Service Date
X                  .                                       : X or East-West coordinate
Y                  .                                       : Y or North South coordinate
GDAT               .                                       : Geodetic Datum
HZCS               .                                       : Horizontal Co-ordinate System
APIN               .         10806/01                      : 
BHT                .degF     160                           : 
BLI                .ft       8115                          : 
BS                 .in       9.625                         : 
CREATION-TIME      .         2066/1/7 0_0                  : 
CSIZ               .in       10.75                         : 
DFD                .g/cm3    1.21                          : 
DFT                .         SPERSENE                      : 
DFV                .s        43                            : 
ELZ                .         -999.25                       : 
FIELD-NAME         .         EGBEMA                        : 
FILE-ID            .         SOH7  .1                      : 
FILE-NUMBER        .         101                           : 
FILE-SET-NAME      .                                       : 
FILE-SET-NUMBER    .         0                             : 
FILE-TYPE          .         PTF                           : 
HIDE               .         Well/Hole_ EGBM-3  Service Name_ ES  Run Number_ 1: 
LCC                .         0                             : 
LMF                .         1                             : 
MFST               .degF     77                            : 
MST                .degF     79                            : 
NAME-SPACE-NAME    .         LIS                           : 
NAME-SPACE-VERSION .         0                             : 
PRODUC             .         SHELL(PARASOL)                : 
PRODUCER-CODE      .         0                             : 
PRODUCER-NAME      .         Schlumberger                  : 
PRODUCT            .                                       : 
PROGRAMS           .                                       : 
R1                 .         SHELL     LAB      MEASUREMENTS<_techsia_br_>: 
R2                 .         <_techsia_br_>                : 
R3                 .         MUD       1.4? OHMS.  AT   77 DEG F<_techsia_br_>: 
R4                 .         <_techsia_br_>                : 
R5                 .         FILTRATE?.25 OHMS   AT   77 DEG F: 
RMCS               .ohm.m    -999.25                       : 
RMFS               .ohm.m    1.25                          : 
RMS                .ohm.m    1.5                           : 
TCS                .h        -999.25                       : 
TDD                .ft       8120                          : 
TDL                .ft       8116                          : 
TLI                .ft       2998                          : 
VERSION            .         2P01                          : 
WELL-ID            .         10806/01                      : 
WELL-NAME          .         EGBM-003                      : 
WN                 .         EGBM-003                      : 
~Parameter Information Block
#_______________________________________________________________________________
#
#PARAMETER_NAME    .UNIT     VALUE                         : DESCRIPTION
#_______________________________________________________________________________
SET                .         SOH7  _1_1                    : 
ACQUISITION-PRODUCT .         DLIS/U                        : 
CREATION-TIME      .         2026/5/13 10_22               : 
DLIS_FRAME_DIRECTION .         INCREASING                    : 
DLIS_FRAME_NAME    .         1                             : 
DLIS_FRAME_SPACING .ft       0.5                           : 
FIELD-NAME         .         EGBEMA                        : 
FILE-ID            .         SOH7  .1                      : 
FILE-NUMBER        .         4                             : 
FILE-SET-NAME      .         LIS-TO-DLIS-CONVERSION        : 
FILE-SET-NUMBER    .         13886                         : 
FILE-TYPE          .         PTF                           : 
INDEX-TYPE         .         BOREHOLE-DEPTH                : 
NAME-SPACE-NAME    .                                       : 
NAME-SPACE-VERSION .         0                             : 
OriginalDatasetName .         1                             : 
PRODUCER-CODE      .         440                           : 
PRODUCER-NAME      .         Schlumberger                  : 
PRODUCT            .         DLIS/U                        : 
PROGRAMS           .         LIS-TO-DLIS                   : 
TLFamily_DEPT      .         Measured Depth                : 
TLFamily_LN        .                                       : 
TLFamily_SN        .         Resistivity - Shallow         : 
TLFamily_SP        .         Spontaneous Potential         : 
VERSION            .         0.1                           : 
WELL-ID            .         10806/01                      : 
WELL-NAME          .         EGBM-003                      : 
~Curve Information
#_______________________________________________________________________________
#
#LOGNAME           .UNIT     LOG_ID                        : DESCRIPTION
#_______________________________________________________________________________
DEPT               .ft                                     :  {F}
LN                 .ohm.m                                  :  {F}
SN                 .ohm.m                                  :  {F}
SP                 .mV                                     :  {F}
~Ascii
# ...
6640       8.238997   7.546248   42.40672  
6640.5     8.203859   7.560328   42.71954  
6641       8.168722   7.574409   43.32631  
6641.5     8.133585   7.58533    43.96364  
6642       8.078394   7.594905   43.52539  
6642.5     8.022175   7.60448    43.07086  
6643       7.965954   7.587373   43.11711  
6643.5     7.909734   7.532961   43.36099  
6644       7.867857   7.478548   43.1212   
6644.5     7.841308   7.380723   42.7795   
6645       7.803781   7.261602   42.44093  
6645.5     7.684325   7.153866   42.95416  
6646       7.54934    7.046129   43.87617  
6646.5     7.374088   7.007921   44.30186  
6647       7.228267   6.955764   44.17291  
6647.5     7.204565   6.862659   44.1405   
6648       7.177709   6.769553   44.10811  
6648.5     7.120497   6.616048   44.0757   
6649       7.07705    6.475384   44.0433   
6649.5     7.006773   6.424061   43.9561   
6650       6.92543    6.445818   45.21587  
6650.5     6.844088   6.492845   46.44937  
6651       6.762745   6.54074    46.6929   
6651.5     6.681402   6.434242   46.00732  
6652       6.60006    6.173413   45.76384  
6652.5     6.481706   5.948304   46.36331  
6653       6.330822   5.748841   47.14561  
6653.5     6.179468   5.549379   48.51125  
6654       6.015205   5.349916   49.60951  
6654.5     5.850943   5.201952   50.44345  
6655       5.765564   5.06512    50.74319  
6655.5     5.704823   4.935564   51.1279   
6656       5.678273   4.911632   51.41731  
6656.5     5.651725   4.887699   51.61723  
6657       5.681095   4.905566   52.10385  
6657.5     5.71096    4.992808   52.75093  
6658       5.793909   5.18993    51.98538  
6658.5     5.883507   5.387052   51.24323  
6659       5.996563   5.500104   51.1342   
6659.5     6.116002   5.602729   51.05162  
6660       6.23544    5.694452   50.12611  
6660.5     6.376277   5.714391   49.9232   
6661       6.519636   5.909328   49.30577  
6661.5     6.662995   6.158422   48.0069   
6662       6.755398   6.34355    46.9778   
6662.5     6.815135   6.463258   46.05986  
6663       6.874872   6.477987   45.63089  
6663.5     6.909478   6.477987   45.09529  
6664       6.943608   6.508795   44.49619  
6664.5     6.977738   6.556666   44.17322  
6665       7.00157    6.529359   44.17322  
6665.5     7.00157    6.465499   44.17322  
6666       6.986858   6.437192   44.18239  
6666.5     6.913371   6.423897   44.38222  
6667       6.821803   6.44746    44.58205  
6667.5     6.71151    6.54325    45.32671  
6668       6.647502   6.623352   46.04494  
6668.5     6.596306   6.676534   45.96999  
6669       6.545111   6.729471   47.1671   
6669.5     6.496565   6.699545   47.18625  
6670       6.47096    6.584134   47.02377  
6670.5     6.445355   6.477987   47.50301  
6671       6.419751   6.493547   48.11674  
6671.5     6.41771    6.577271   48.31786  
6672       6.447577   6.67883    47.96835  
6672.5     6.51592    6.780388   47.69698  
6673       6.669238   6.881947   47.89215  
6673.5     6.833501   6.98386    47.29532  
6674       7.006661   7.086484   46.6929   
6674.5     7.223896   7.189109   46.6929   
6675       7.441131   7.249902   46.24631  
6675.5     7.650178   7.201491   45.72449  
6676       7.837894   7.081784   45.03021  
6676.5     7.958417   7.041878   44.33594  
6677       7.956331   7.006413   43.71446  
6677.5     7.920488   6.970949   43.11526  
6678       7.884646   6.947094   42.91338  
6678.5     7.891879   6.940624   43.00656  
6679       7.904455   6.934155   43.36417  
6679.5     7.917031   6.927685   42.76468  
6680       7.929607   6.921215   42.48689  
6680.5     7.942183   6.925227   42.58681  
6681       7.967286   6.938167   42.6799   
6681.5     7.993834   6.951107   42.77211  
6682       8.020384   6.964047   42.8643   
6682.5     8.046934   6.976987   42.91338  
6683       8.073483   7.026016   42.91338  
6683.5     8.100031   7.092053   42.64613  
6684       8.116135   7.15809    42.53549  
6684.5     8.132061   7.224127   42.73608  
6685       8.147987   7.295199   42.66118  
6685.5     8.163914   7.367024   42.62621  
6686       8.179842   7.438848   42.85297  
6686.5     8.197731   7.510673   42.81163  
6687       8.24198    7.589886   42.88423  
6687.5     8.286228   7.576527   43.07086  
6688       8.330475   7.531636   43.07086  
6688.5     8.366308   7.483193   42.75975  
6689       8.394419   7.4328     42.41565  
6689.5     8.422527   7.389936   42.0508   
6690       8.450638   7.389936   41.68596  
6690.5     8.47641    7.389936   41.32423  
6691       8.460993   7.493799   41.02449  
6691.5     8.445578   7.607183   41.48465  
6692       8.430161   7.737586   42.18361  
6692.5     8.414745   7.891495   42.31468  
6693       8.445669   8.03326    42.12778  
6693.5     8.478289   8.166267   42.0036   
6694       8.597807   8.290398   42.26039  
6694.5     8.669821   8.382454   42.29846  
6695       8.721016   8.427673   42.07797  
6695.5     8.705704   8.299208   42.00304  
6696       8.638552   8.216225   42.16731  
6696.5     8.559347   8.173985   42.53612  
6697       8.50625    8.144655   42.68146  
6697.5     8.453152   8.144655   42.72536  
6698       8.448563   8.112911   42.6055   
6698.5     8.461838   8.059082   42.48564  
6699       8.475113   7.979277   42.16751  
6699.5     8.524443   7.884617   41.75133  
6700       8.58065    7.783831   41.42444  
6700.5     8.547287   7.741187   41.37509  
6701       8.581375   7.719483   41.71712  
6701.5     8.615465   7.733307   41.8868   
6702       8.601456   7.767403   41.8868   
6702.5     8.578737   7.837814   41.8868   
6703       8.550457   7.917428   41.90535  
6703.5     8.463728   7.931034   42.11655  
6704       8.377001   7.931034   42.32776  
6704.5     8.283913   7.862655   42.5159   
6705       8.164625   7.783086   42.67296  
6705.5     8.045338   7.707417   42.67296  
6706       7.926049   7.666253   42.67296  
6706.5     7.806761   7.625088   42.67296  
6707       7.687473   7.583923   42.67296  
6707.5     7.621282   7.530296   42.76703  
6708       7.558513   7.446733   42.86676  
6708.5     7.508429   7.363169   42.96648  
6709       7.474333   7.268957   43.7233   
6709.5     7.469282   7.173472   44.60799  
6710       7.483313   7.117304   45.10968  
6710.5     7.517851   7.061135   45.45171  
6711       7.58744    7.08264    46.29385  
6711.5     7.657029   7.196979   46.69244  
6712       7.741879   7.404922   46.38199  
6712.5     7.882176   7.657402   45.5995   
6713       8.022476   7.874443   44.81703  
6713.5     8.165586   7.96633    44.06219  
6714       8.307943   8.014074   43.6841   
6714.5     8.376097   8.030329   43.306    
6715       8.43515    8.037151   42.98634  
6715.5     8.45006    8.043974   42.71017  
6716       8.465668   8.050797   42.67296  
6716.5     8.490774   8.052034   42.50546  
6717       8.515882   8.026907   42.20125  
6717.5     8.545233   8.00178    42.20125  
6718       8.577768   7.930243   42.14807  
6718.5     8.610302   7.836838   41.94855  
6719       8.604452   7.743433   41.72148  
6719.5     8.580593   7.711598   41.66251  
6720       8.556646   7.711598   41.44249  
6720.5     8.53109    7.711598   41.47218  
6721       8.505531   7.718965   41.8712   
6721.5     8.479975   7.728513   42.46194  
6722       8.445211   7.73806    42.79216  
6722.5     8.394976   7.764142   42.97627  
6723       8.34474    7.80755    42.98741  
6723.5     8.350863   7.850958   42.98741  
6724       8.364893   7.894366   42.98741  
6724.5     8.378922   7.926397   43.04344  
6725       8.392952   7.8908     43.12895  
6725.5     8.404613   7.806547   42.79634  
6726       8.41284    7.722294   42.5448   
6726.5     8.421066   7.685553   42.83018  
6727       8.429293   7.696609   42.6188   
6727.5     8.459763   7.716504   42.64503  
6728       8.505205   7.736399   42.85625  
6728.5     8.55065    7.781392   43.01765  
6729       8.596094   7.838697   43.09743  
6729.5     8.641537   7.896002   43.14465  
6730       8.686531   7.953307   43.14465  
6730.5     8.726288   8.010612   42.71036  
