~Version
 VERS              .         3.0                           : CWLS LOG ASCII STANDARD - VERSION 3.0
 WRAP              .         NO                            : ONE LINE PER DEPTH STEP
 DLM               .         SPACE                         : DELIMITING CHARACTER(SPACE TAB OR COMMA)
~Well Information
#_______________________________________________________________________________
#
#PARAMETER_NAME    .UNIT     VALUE                         : DESCRIPTION
#_______________________________________________________________________________
STRT               .ft       3000                          : First reference value
STOP               .ft       8118                          : Last reference value
STEP               .ft       0.5                           : Step increment
NULL               .         -9999                         : Missing value
COMP               .                                       : Company
WELL               .         EGBM-003                      : Well name
FLD                .         EGBEMA                        : Field
LOC                .                                       : Location
SRVC               .                                       : Service Company
CTRY               .                                       : Country
DATE               .         1966/01/07                    : Service Date
X                  .                                       : X or East-West coordinate
Y                  .                                       : Y or North South coordinate
GDAT               .                                       : Geodetic Datum
HZCS               .                                       : Horizontal Co-ordinate System
APIN               .         10806/01                      : 
BHT                .degF     160                           : 
BLI                .ft       8115                          : 
BS                 .in       9.625                         : 
CREATION-TIME      .         2066/1/7 0_0                  : 
CSIZ               .in       10.75                         : 
DFD                .g/cm3    1.21                          : 
DFT                .         SPERSENE                      : 
DFV                .s        43                            : 
ELZ                .         -999.25                       : 
FIELD-NAME         .         EGBEMA                        : 
FILE-ID            .         SOH7  .1                      : 
FILE-NUMBER        .         101                           : 
FILE-SET-NAME      .                                       : 
FILE-SET-NUMBER    .         0                             : 
FILE-TYPE          .         PTF                           : 
HIDE               .         Well/Hole_ EGBM-3  Service Name_ ES  Run Number_ 1: 
LCC                .         0                             : 
LMF                .         1                             : 
MFST               .degF     77                            : 
MST                .degF     79                            : 
NAME-SPACE-NAME    .         LIS                           : 
NAME-SPACE-VERSION .         0                             : 
PRODUC             .         SHELL(PARASOL)                : 
PRODUCER-CODE      .         0                             : 
PRODUCER-NAME      .         Schlumberger                  : 
PRODUCT            .                                       : 
PROGRAMS           .                                       : 
R1                 .         SHELL     LAB      MEASUREMENTS<_techsia_br_>: 
R2                 .         <_techsia_br_>                : 
R3                 .         MUD       1.4? OHMS.  AT   77 DEG F<_techsia_br_>: 
R4                 .         <_techsia_br_>                : 
R5                 .         FILTRATE?.25 OHMS   AT   77 DEG F: 
RMCS               .ohm.m    -999.25                       : 
RMFS               .ohm.m    1.25                          : 
RMS                .ohm.m    1.5                           : 
TCS                .h        -999.25                       : 
TDD                .ft       8120                          : 
TDL                .ft       8116                          : 
TLI                .ft       2998                          : 
VERSION            .         2P01                          : 
WELL-ID            .         10806/01                      : 
WELL-NAME          .         EGBM-003                      : 
WN                 .         EGBM-003                      : 
~Parameter Information Block
#_______________________________________________________________________________
#
#PARAMETER_NAME    .UNIT     VALUE                         : DESCRIPTION
#_______________________________________________________________________________
SET                .         SOH7  _1_1                    : 
ACQUISITION-PRODUCT .         DLIS/U                        : 
CREATION-TIME      .         2026/5/13 10_22               : 
DLIS_FRAME_DIRECTION .         INCREASING                    : 
DLIS_FRAME_NAME    .         1                             : 
DLIS_FRAME_SPACING .ft       0.5                           : 
FIELD-NAME         .         EGBEMA                        : 
FILE-ID            .         SOH7  .1                      : 
FILE-NUMBER        .         4                             : 
FILE-SET-NAME      .         LIS-TO-DLIS-CONVERSION        : 
FILE-SET-NUMBER    .         13886                         : 
FILE-TYPE          .         PTF                           : 
INDEX-TYPE         .         BOREHOLE-DEPTH                : 
NAME-SPACE-NAME    .                                       : 
NAME-SPACE-VERSION .         0                             : 
OriginalDatasetName .         1                             : 
PRODUCER-CODE      .         440                           : 
PRODUCER-NAME      .         Schlumberger                  : 
PRODUCT            .         DLIS/U                        : 
PROGRAMS           .         LIS-TO-DLIS                   : 
TLFamily_DEPT      .         Measured Depth                : 
TLFamily_LN        .                                       : 
TLFamily_SN        .         Resistivity - Shallow         : 
TLFamily_SP        .         Spontaneous Potential         : 
VERSION            .         0.1                           : 
WELL-ID            .         10806/01                      : 
WELL-NAME          .         EGBM-003                      : 
~Curve Information
#_______________________________________________________________________________
#
#LOGNAME           .UNIT     LOG_ID                        : DESCRIPTION
#_______________________________________________________________________________
DEPT               .ft                                     :  {F}
LN                 .ohm.m                                  :  {F}
SN                 .ohm.m                                  :  {F}
SP                 .mV                                     :  {F}
~Ascii
# ...
7641       2.359885   2.496151   57.03296  
7641.5     2.368894   2.474495   56.95543  
7642       2.377901   2.459817   56.82959  
7642.5     2.386909   2.445803   56.76352  
7643       2.395918   2.42836    57.13116  
7643.5     2.404925   2.409302   57.42921  
7644       2.414099   2.416755   57.41054  
7644.5     2.433665   2.435083   57.51851  
7645       2.453231   2.449743   57.6609   
7645.5     2.472797   2.460917   57.6609   
7646       2.492364   2.46372    57.58365  
7646.5     2.51193    2.468517   57.36853  
7647       2.531496   2.519167   57.36023  
7647.5     2.551062   2.582691   56.91173  
7648       2.570683   2.646216   56.62035  
7648.5     2.60149    2.709741   56.87598  
7649       2.632296   2.736184   56.87598  
7649.5     2.663102   2.796604   57.0531   
7650       2.693909   2.903802   57.34694  
7650.5     2.748418   3.029262   57.24779  
7651       2.804586   3.150205   56.97189  
7651.5     2.855825   3.266488   56.83493  
7652       2.904973   3.361083   56.77202  
7652.5     2.95412    3.422351   56.74248  
7653       3.003267   3.464731   56.87598  
7653.5     3.044799   3.475863   56.87598  
7654       3.061851   3.479039   56.87598  
7654.5     3.078902   3.488439   57.4104   
7655       3.095955   3.502736   58.10733  
7655.5     3.110491   3.517033   57.46732  
7656       3.123055   3.531886   56.95509  
7656.5     3.130686   3.54678    56.71899  
7657       3.067867   3.544345   56.71899  
7657.5     3.005049   3.517903   56.71899  
7658       2.944028   3.466274   56.71899  
7658.5     2.884362   3.405646   56.7545   
7659       2.824696   3.337564   56.79572  
7659.5     2.770568   3.263344   56.83693  
7660       2.724152   3.186592   56.88858  
7660.5     2.677734   3.119814   57.12762  
7661       2.631318   3.072156   57.36665  
7661.5     2.584902   3.030689   57.63115  
7662       2.560231   3.008699   57.88684  
7662.5     2.545312   3.007964   58.07072  
7663       2.530392   3.022962   58.25459  
7663.5     2.515471   3.034877   58.43848  
7664       2.507836   2.970994   58.44583  
7664.5     2.507836   2.897695   58.23457  
7665       2.507836   2.833604   57.78638  
7665.5     2.50421    2.782756   57.34694  
7666       2.486524   2.741197   57.34694  
7666.5     2.468838   2.72532    57.39674  
7667       2.451151   2.731277   57.55614  
7667.5     2.414498   2.739174   57.81789  
7668       2.368082   2.751885   57.81789  
7668.5     2.321666   2.763923   57.81789  
7669       2.275249   2.771477   57.81789  
7669.5     2.228832   2.743607   57.81789  
7670       2.191459   2.660558   57.79843  
7670.5     2.154737   2.559971   57.70988  
7671       2.118016   2.459384   57.62135  
7671.5     2.081295   2.358798   57.53281  
7672       2.044574   2.258211   57.50392  
7672.5     2.020025   2.157624   57.50392  
7673       1.998321   2.129768   57.8644   
7673.5     1.976617   2.138834   58.49005  
7674       1.954913   2.110239   58.3593   
7674.5     1.933208   2.101282   58.04117  
7675       1.911808   2.098635   58.0009   
7675.5     1.899244   2.098011   58.05286  
7676       1.886681   2.100518   58.10483  
7676.5     1.874117   2.103026   58.19557  
7677       1.861553   2.109388   58.33968  
7677.5     1.850492   2.116196   58.41109  
7678       1.872871   2.124253   58.31912  
7678.5     1.895251   2.134585   58.22469  
7679       1.917631   2.134585   58.12906  
7679.5     1.940011   2.176045   58.03343  
7680       1.943573   2.219386   57.97488  
7680.5     1.943573   2.242009   57.97488  
7681       1.939792   2.22337    57.97221  
7681.5     1.922111   2.188825   57.8584   
7682       1.904429   2.182441   57.7446   
7682.5     1.886748   2.202298   57.6609   
7683       1.888473   2.199361   57.6609   
7683.5     1.899844   2.203955   57.53015  
7684       1.911215   2.215822   57.37074  
7684.5     1.98018    2.19204    57.45984  
7685       2.054763   2.130325   57.50392  
7685.5     2.077368   2.073758   57.47963  
7686       2.087746   2.035506   57.37102  
7686.5     2.098125   2.008812   57.53299  
7687       2.06784    1.999281   57.6212   
7687.5     2.026686   2.045751   57.53578  
7688       1.985532   2.102093   57.67036  
7688.5     1.944377   2.147702   57.77702  
7689       1.930921   2.137486   57.68506  
7689.5     1.918016   2.083654   57.71964  
7690       1.905111   2.036011   57.7993   
7690.5     1.892207   2.011856   57.81789  
7691       1.878635   2.024986   57.81789  
7691.5     1.860271   2.039079   57.68541  
7692       1.841908   2.048938   58.1015   
7692.5     1.823544   2.058797   57.75984  
7693       1.80518    2.068656   57.56392  
7693.5     1.786834   2.053966   57.80295  
7694       1.786834   2.011589   58.00464  
7694.5     1.786834   1.969444   58.20384  
7695       1.788446   1.94032    58.40305  
7695.5     1.795077   1.911196   58.52864  
7696       1.801708   1.872638   58.63409  
7696.5     1.808339   1.833398   58.73956  
7697       1.81497    1.798686   58.84502  
7697.5     1.815251   1.765921   58.85318  
7698       1.809567   1.757485   58.41336  
7698.5     1.803884   1.778716   57.83521  
7699       1.798201   1.822403   58.04625  
7699.5     1.792517   1.855118   58.61115  
7700       1.786834   1.804926   58.99529  
7700.5     1.777653   1.757166   58.87816  
7701       1.768472   1.723125   58.40581  
7701.5     1.759292   1.751715   57.98749  
7702       1.750111   1.798154   57.56917  
7702.5     1.74093    1.84411    57.34694  
7703       1.73175    1.890066   57.34694  
7703.5     1.724137   1.93586    57.44667  
7704       1.724137   1.977541   57.71831  
7704.5     1.724137   2.019222   57.98994  
7705       1.73488    2.050571   58.18623  
7705.5     1.760827   2.078247   58.30008  
7706       1.786773   2.054697   58.41393  
7706.5     1.812718   2.021555   58.56866  
7707       1.838665   1.9959     58.44344  
7707.5     1.864611   1.982166   58.24416  
7708       1.887018   1.978195   58.19324  
7708.5     1.903481   2.016043   58.33382  
7709       1.919942   2.05601    58.44583  
7709.5     1.936403   2.09686    58.44583  
7710       1.950817   2.113653   58.44583  
7710.5     1.963652   2.129122   58.48254  
7711       1.976485   2.149973   58.56496  
7711.5     1.98932    2.169861   58.64737  
7712       2.002153   2.188919   58.72978  
7712.5     2.014987   2.201039   58.71638  
7713       2.027822   2.207848   58.64809  
7713.5     2.040655   2.234911   58.57977  
7714       2.05349    2.268747   58.51147  
7714.5     2.066323   2.298274   58.44389  
7715       2.079157   2.325502   58.39409  
7715.5     2.091991   2.352731   58.3443   
7716       2.106455   2.374371   58.29449  
7716.5     2.123922   2.393999   57.93558  
7717       2.14139    2.399766   57.71393  
7717.5     2.158858   2.382031   57.88467  
7718       2.176326   2.360369   58.04254  
7718.5     2.193794   2.338706   58.18599  
7719       2.213935   2.325833   58.32942  
7719.5     2.234164   2.314836   58.44583  
7720       2.254394   2.303837   58.40794  
7720.5     2.274624   2.297339   58.26736  
7721       2.294853   2.297339   58.13618  
7721.5     2.315083   2.293269   58.25571  
7722       2.335312   2.28612    58.37523  
7722.5     2.360464   2.278972   58.51923  
7723       2.403093   2.295829   58.69856  
7723.5     2.445724   2.315073   58.87791  
7724       2.488354   2.337318   58.91679  
7724.5     2.526355   2.354059   58.91679  
7725       2.560461   2.355503   58.75386  
7725.5     2.594566   2.356948   58.49281  
7726       2.628673   2.358392   58.25832  
7726.5     2.662778   2.359836   58.38257  
7727       2.716042   2.365253   58.31601  
7727.5     2.842421   2.370972   58.44185  
7728       2.9688     2.376689   58.56767  
7728.5     3.199284   2.39319    58.71049  
7729       3.437994   2.415612   58.69577  
7729.5     3.702439   2.453345   58.60016  
7730       4.000769   2.512918   58.50456  
7730.5     4.407005   2.632249   58.52267  
7731       4.907296   2.895815   58.45996  
7731.5     5.531032   3.463741   58.22092  
