~Version
 VERS              .         3.0                           : CWLS LOG ASCII STANDARD - VERSION 3.0
 WRAP              .         NO                            : ONE LINE PER DEPTH STEP
 DLM               .         SPACE                         : DELIMITING CHARACTER(SPACE TAB OR COMMA)
~Well Information
#_______________________________________________________________________________
#
#PARAMETER_NAME    .UNIT     VALUE                         : DESCRIPTION
#_______________________________________________________________________________
STRT               .ft       3000                          : First reference value
STOP               .ft       8118                          : Last reference value
STEP               .ft       0.5                           : Step increment
NULL               .         -9999                         : Missing value
COMP               .                                       : Company
WELL               .         EGBM-003                      : Well name
FLD                .         EGBEMA                        : Field
LOC                .                                       : Location
SRVC               .                                       : Service Company
CTRY               .                                       : Country
DATE               .         1966/01/07                    : Service Date
X                  .                                       : X or East-West coordinate
Y                  .                                       : Y or North South coordinate
GDAT               .                                       : Geodetic Datum
HZCS               .                                       : Horizontal Co-ordinate System
APIN               .         10806/01                      : 
BHT                .degF     160                           : 
BLI                .ft       8115                          : 
BS                 .in       9.625                         : 
CREATION-TIME      .         2066/1/7 0_0                  : 
CSIZ               .in       10.75                         : 
DFD                .g/cm3    1.21                          : 
DFT                .         SPERSENE                      : 
DFV                .s        43                            : 
ELZ                .         -999.25                       : 
FIELD-NAME         .         EGBEMA                        : 
FILE-ID            .         SOH7  .1                      : 
FILE-NUMBER        .         101                           : 
FILE-SET-NAME      .                                       : 
FILE-SET-NUMBER    .         0                             : 
FILE-TYPE          .         PTF                           : 
HIDE               .         Well/Hole_ EGBM-3  Service Name_ ES  Run Number_ 1: 
LCC                .         0                             : 
LMF                .         1                             : 
MFST               .degF     77                            : 
MST                .degF     79                            : 
NAME-SPACE-NAME    .         LIS                           : 
NAME-SPACE-VERSION .         0                             : 
PRODUC             .         SHELL(PARASOL)                : 
PRODUCER-CODE      .         0                             : 
PRODUCER-NAME      .         Schlumberger                  : 
PRODUCT            .                                       : 
PROGRAMS           .                                       : 
R1                 .         SHELL     LAB      MEASUREMENTS<_techsia_br_>: 
R2                 .         <_techsia_br_>                : 
R3                 .         MUD       1.4? OHMS.  AT   77 DEG F<_techsia_br_>: 
R4                 .         <_techsia_br_>                : 
R5                 .         FILTRATE?.25 OHMS   AT   77 DEG F: 
RMCS               .ohm.m    -999.25                       : 
RMFS               .ohm.m    1.25                          : 
RMS                .ohm.m    1.5                           : 
TCS                .h        -999.25                       : 
TDD                .ft       8120                          : 
TDL                .ft       8116                          : 
TLI                .ft       2998                          : 
VERSION            .         2P01                          : 
WELL-ID            .         10806/01                      : 
WELL-NAME          .         EGBM-003                      : 
WN                 .         EGBM-003                      : 
~Parameter Information Block
#_______________________________________________________________________________
#
#PARAMETER_NAME    .UNIT     VALUE                         : DESCRIPTION
#_______________________________________________________________________________
SET                .         SOH7  _1_1                    : 
ACQUISITION-PRODUCT .         DLIS/U                        : 
CREATION-TIME      .         2026/5/13 10_22               : 
DLIS_FRAME_DIRECTION .         INCREASING                    : 
DLIS_FRAME_NAME    .         1                             : 
DLIS_FRAME_SPACING .ft       0.5                           : 
FIELD-NAME         .         EGBEMA                        : 
FILE-ID            .         SOH7  .1                      : 
FILE-NUMBER        .         4                             : 
FILE-SET-NAME      .         LIS-TO-DLIS-CONVERSION        : 
FILE-SET-NUMBER    .         13886                         : 
FILE-TYPE          .         PTF                           : 
INDEX-TYPE         .         BOREHOLE-DEPTH                : 
NAME-SPACE-NAME    .                                       : 
NAME-SPACE-VERSION .         0                             : 
OriginalDatasetName .         1                             : 
PRODUCER-CODE      .         440                           : 
PRODUCER-NAME      .         Schlumberger                  : 
PRODUCT            .         DLIS/U                        : 
PROGRAMS           .         LIS-TO-DLIS                   : 
TLFamily_DEPT      .         Measured Depth                : 
TLFamily_LN        .                                       : 
TLFamily_SN        .         Resistivity - Shallow         : 
TLFamily_SP        .         Spontaneous Potential         : 
VERSION            .         0.1                           : 
WELL-ID            .         10806/01                      : 
WELL-NAME          .         EGBM-003                      : 
~Curve Information
#_______________________________________________________________________________
#
#LOGNAME           .UNIT     LOG_ID                        : DESCRIPTION
#_______________________________________________________________________________
DEPT               .ft                                     :  {F}
LN                 .ohm.m                                  :  {F}
SN                 .ohm.m                                  :  {F}
SP                 .mV                                     :  {F}
~Ascii
3000.0     12.59804   11.15988   88.60063  
3000.5     15.02661   12.29721   89.10808  
3001       17.5732    13.08023   88.57603  
3001.5     19.92284   13.30202   87.27695  
3002       20.66043   12.83752   85.89113  
3002.5     20.84036   12.4001    84.23097  
3003       20.18683   11.96269   82.1633   
3003.5     19.26721   11.51859   78.06519  
3004       18.33507   11.04135   73.97229  
3004.5     17.38724   10.56412   70.7558   
3005       16.4285    10.15819   68.10515  
3005.5     15.46977   9.787088   65.64899  
3006       14.65205   9.237045   65.78348  
3006.5     14.15612   8.689318   66.45572  
3007       13.66019   8.469978   66.57922  
3007.5     13.16426   8.676281   66.15681  
3008       13.05273   8.885015   65.73441  
3008.5     13.33471   8.932846   65.88977  
3009       13.6167    8.629091   66.19905  
3009.5     13.89868   8.444193   67.13837  
3010       14.1706    8.277191   67.13837  
3010.5     14.07073   8.323112   68.06821  
3011       13.97086   9.038839   67.94849  
3011.5     13.87099   9.737602   67.32642  
3012       14.2385    10.30455   66.33192  
3012.5     14.67426   10.40681   65.76047  
3013       15.11003   10.28889   65.84598  
3013.5     14.98742   9.564638   66.02321  
3014       14.85426   8.796465   66.26259  
3014.5     14.54251   8.135738   66.50195  
3015       14.11953   7.952851   66.79935  
3015.5     13.90191   8.038305   67.03984  
3016       14.01605   8.645914   66.81151  
3016.5     14.1302    9.289717   65.99187  
3017       14.63989   9.766895   65.23582  
3017.5     15.38889   10.07391   64.57045  
3018       15.88666   9.792845   64.29428  
3018.5     16.15297   9.411123   64.15094  
3019       16.36305   9.037415   64.15094  
3019.5     16.26718   8.705414   64.49814  
3020       16.17131   8.373413   65.12711  
3020.5     16.07544   8.06727    65.74075  
3021       15.9366    7.920442   65.86046  
3021.5     15.79133   7.868679   65.98016  
3022       15.64607   7.942093   66.00504  
3022.5     15.50081   8.077463   65.94205  
3023       15.47183   8.236494   65.86678  
3023.5     15.54447   8.230968   64.97043  
3024       15.6171    7.957106   64.03043  
3024.5     15.68973   7.59217    64.22987  
3025       15.72439   7.29882    64.55055  
3025.5     15.60456   7.118127   64.94958  
3026       15.48474   7.015869   65.71152  
3026.5     15.16026   7.006568   66.22198  
3027       15.23316   7.130399   66.36282  
3027.5     15.35929   7.303943   66.50366  
3028       15.5823    7.477488   66.12677  
3028.5     15.94185   7.599918   65.75833  
3029       16.30141   7.636625   65.43919  
3029.5     16.83072   7.291685   65.33379  
3030       17.40598   6.811052   65.53331  
3030.5     17.98122   6.365656   66.12878  
3031       18.52925   6.104544   66.80199  
3031.5     19.05028   6.067681   67.11629  
3032       19.5713    6.290336   67.29166  
3032.5     20.37303   6.815396   67.14206  
3033       21.47945   7.812064   66.99245  
3033.5     23.41292   9.481285   66.42789  
3034       25.6626    10.56955   64.91533  
3034.5     28.05977   11.64893   63.4192   
3035       30.45695   12.72832   62.39342  
3035.5     33.16901   13.8077    61.95467  
3036       35.5657    14.88708   61.74342  
3036.5     37.9624    15.83045   61.45085  
3037       40.26924   16.27094   61.07291  
3037.5     42.34641   16.63358   60.69496  
3038       44.3288    16.91989   60.09825  
3038.5     46.10031   17.20621   58.02159  
3039       47.87183   17.4745    56.92461  
3039.5     49.4556    17.67902   57.19704  
3040       50.57436   18.16922   60.06288  
3040.5     51.67087   19.07872   62.52303  
3041       52.71947   19.64503   64.98317  
3041.5     53.44991   19.74921   66.95529  
3042       53.01422   19.38371   67.84007  
3042.5     52.07597   18.90092   68.72487  
3043       50.98991   18.52744   69.517    
3043.5     49.91124   18.15393   70.2099   
3044       48.83258   17.82153   70.90282  
3044.5     48.32852   17.62271   70.97757  
3045       48.07626   17.42389   71.04408  
3045.5     47.8098    17.22507   71.10304  
3046       47.48589   17.02625   71.15746  
3046.5     47.16197   16.72118   71.21185  
3047       46.83806   16.31215   71.42871  
3047.5     46.51414   15.91071   71.70493  
3048       46.1526    15.51306   71.98112  
3048.5     45.71681   15.11541   72.224    
3049       45.28102   14.76595   72.395    
3049.5     44.84523   14.4623    72.15733  
3050       44.40944   14.15865   71.47342  
3050.5     43.69034   13.82619   70.78951  
3051       42.97122   13.47624   70.4745   
3051.5     41.47943   13.12629   70.30351  
3052       38.07738   12.77633   70.13252  
3052.5     34.24261   12.33979   69.95839  
3053       31.28825   11.86262   69.71075  
3053.5     29.35953   11.38545   69.46312  
3054       28.05223   10.6727    69.21548  
3054.5     26.74495   9.923529   68.91435  
3055       25.43753   8.838058   68.43559  
3055.5     24.13002   7.824998   67.95683  
3056       22.82251   7.000523   67.47807  
3056.5     21.8445    6.83627    67.10393  
3057       21.04553   7.096543   66.60068  
3057.5     20.39111   7.502588   65.65048  
3058       20.1035    8.021341   64.38716  
3058.5     19.81587   8.540091   63.12384  
3059       19.52826   8.83717    62.29674  
3059.5     19.22868   8.94729    61.66299  
3060       18.92908   8.854919   61.2188   
3060.5     18.62949   8.722383   60.99715  
3061       18.32988   8.598719   60.7755   
3061.5     18.06421   8.48509    60.55385  
3062       17.80743   8.37146    60.8822   
3062.5     17.55064   8.338558   62.40523  
3063       17.27367   8.338558   63.65585  
3063.5     16.83789   7.718848   64.77812  
3064       16.4021    7.215106   65.18239  
3064.5     15.96632   6.784764   65.08344  
3065       15.53053   6.582875   65.04216  
3065.5     15.10941   6.380986   65.00089  
3066       14.69251   6.179097   64.95959  
3066.5     14.27562   5.994479   65.04602  
3067       13.94721   5.81347    65.28777  
3067.5     13.64761   5.632461   65.54428  
3068       13.34801   5.45571    65.76849  
3068.5     13.04841   5.523882   66.01729  
3069       12.87224   5.652617   66.56123  
3069.5     12.79734   6.051827   66.42528  
3070       12.72244   6.3998     65.86208  
3070.5     12.64754   6.463428   65.29887  
3071       12.59842   6.498906   65.25157  
3071.5     12.59842   6.294392   65.29262  
3072       12.59842   6.053684   65.82465  
3072.5     12.59842   5.712916   66.49854  
3073       12.59842   5.415642   67.18906  
3073.5     12.59842   5.177022   67.87958  
3074       12.59842   4.938402   68.2692   
3074.5     12.59842   4.808646   68.33218  
3075       12.59842   4.706388   68.39517  
3075.5     12.60281   5.089411   68.29385  
3076       12.90241   5.527588   68.18976  
3076.5     13.60603   6.068425   68.08568  
3077       14.325     6.609262   67.27562  
3077.5     15.22819   7.150101   66.72238  
3078       16.49712   7.680181   66.59531  
3078.5     17.80434   8.186268   66.77948  
3079       19.45213   8.692352   67.06609  
3079.5     21.09995   9.198439   67.38527  
3080       23.21742   9.704525   67.70445  
3080.5     25.3356    10.36118   68.02364  
3081       27.45377   11.1389    68.7809   
3081.5     29.57195   12.24012   69.63573  
3082       31.69011   13.14985   71.55754  
3082.5     33.9053    13.99412   75.16862  
3083       36.30215   14.83838   78.64703  
3083.5     38.69901   15.68485   80.15793  
3084       41.02875   16.74513   81.18866  
3084.5     42.36038   17.64618   81.66748  
3085       43.692     18.27924   81.71031  
3085.5     44.42899   18.53375   81.64732  
3086       44.9084    18.74547   81.589    
3086.5     45.39616   18.89615   81.54112  
3087       45.99532   19.04683   81.49324  
3087.5     46.59448   18.96027   81.42705  
3088       47.19365   18.85182   80.629    
3088.5     47.8188    18.74268   79.35083  
3089       48.48462   18.60634   77.86438  
3089.5     49.15044   18.5071    76.73123  
3090       49.81624   18.57072   76.41508  
3090.5     50.48206   18.67439   77.78693  
