~Version
 VERS              .         3.0                           : CWLS LOG ASCII STANDARD - VERSION 3.0
 WRAP              .         NO                            : ONE LINE PER DEPTH STEP
 DLM               .         SPACE                         : DELIMITING CHARACTER(SPACE TAB OR COMMA)
~Well Information
#_______________________________________________________________________________
#
#PARAMETER_NAME    .UNIT     VALUE                         : DESCRIPTION
#_______________________________________________________________________________
STRT               .ft       3000                          : First reference value
STOP               .ft       8118                          : Last reference value
STEP               .ft       0.5                           : Step increment
NULL               .         -9999                         : Missing value
COMP               .                                       : Company
WELL               .         EGBM-003                      : Well name
FLD                .         EGBEMA                        : Field
LOC                .                                       : Location
SRVC               .                                       : Service Company
CTRY               .                                       : Country
DATE               .         1966/01/07                    : Service Date
X                  .                                       : X or East-West coordinate
Y                  .                                       : Y or North South coordinate
GDAT               .                                       : Geodetic Datum
HZCS               .                                       : Horizontal Co-ordinate System
APIN               .         10806/01                      : 
BHT                .degF     160                           : 
BLI                .ft       8115                          : 
BS                 .in       9.625                         : 
CREATION-TIME      .         2066/1/7 0_0                  : 
CSIZ               .in       10.75                         : 
DFD                .g/cm3    1.21                          : 
DFT                .         SPERSENE                      : 
DFV                .s        43                            : 
ELZ                .         -999.25                       : 
FIELD-NAME         .         EGBEMA                        : 
FILE-ID            .         SOH7  .1                      : 
FILE-NUMBER        .         101                           : 
FILE-SET-NAME      .                                       : 
FILE-SET-NUMBER    .         0                             : 
FILE-TYPE          .         PTF                           : 
HIDE               .         Well/Hole_ EGBM-3  Service Name_ ES  Run Number_ 1: 
LCC                .         0                             : 
LMF                .         1                             : 
MFST               .degF     77                            : 
MST                .degF     79                            : 
NAME-SPACE-NAME    .         LIS                           : 
NAME-SPACE-VERSION .         0                             : 
PRODUC             .         SHELL(PARASOL)                : 
PRODUCER-CODE      .         0                             : 
PRODUCER-NAME      .         Schlumberger                  : 
PRODUCT            .                                       : 
PROGRAMS           .                                       : 
R1                 .         SHELL     LAB      MEASUREMENTS<_techsia_br_>: 
R2                 .         <_techsia_br_>                : 
R3                 .         MUD       1.4? OHMS.  AT   77 DEG F<_techsia_br_>: 
R4                 .         <_techsia_br_>                : 
R5                 .         FILTRATE?.25 OHMS   AT   77 DEG F: 
RMCS               .ohm.m    -999.25                       : 
RMFS               .ohm.m    1.25                          : 
RMS                .ohm.m    1.5                           : 
TCS                .h        -999.25                       : 
TDD                .ft       8120                          : 
TDL                .ft       8116                          : 
TLI                .ft       2998                          : 
VERSION            .         2P01                          : 
WELL-ID            .         10806/01                      : 
WELL-NAME          .         EGBM-003                      : 
WN                 .         EGBM-003                      : 
~Parameter Information Block
#_______________________________________________________________________________
#
#PARAMETER_NAME    .UNIT     VALUE                         : DESCRIPTION
#_______________________________________________________________________________
SET                .         SOH7  _1_1                    : 
ACQUISITION-PRODUCT .         DLIS/U                        : 
CREATION-TIME      .         2026/5/13 10_22               : 
DLIS_FRAME_DIRECTION .         INCREASING                    : 
DLIS_FRAME_NAME    .         1                             : 
DLIS_FRAME_SPACING .ft       0.5                           : 
FIELD-NAME         .         EGBEMA                        : 
FILE-ID            .         SOH7  .1                      : 
FILE-NUMBER        .         4                             : 
FILE-SET-NAME      .         LIS-TO-DLIS-CONVERSION        : 
FILE-SET-NUMBER    .         13886                         : 
FILE-TYPE          .         PTF                           : 
INDEX-TYPE         .         BOREHOLE-DEPTH                : 
NAME-SPACE-NAME    .                                       : 
NAME-SPACE-VERSION .         0                             : 
OriginalDatasetName .         1                             : 
PRODUCER-CODE      .         440                           : 
PRODUCER-NAME      .         Schlumberger                  : 
PRODUCT            .         DLIS/U                        : 
PROGRAMS           .         LIS-TO-DLIS                   : 
TLFamily_DEPT      .         Measured Depth                : 
TLFamily_LN        .                                       : 
TLFamily_SN        .         Resistivity - Shallow         : 
TLFamily_SP        .         Spontaneous Potential         : 
VERSION            .         0.1                           : 
WELL-ID            .         10806/01                      : 
WELL-NAME          .         EGBM-003                      : 
~Curve Information
#_______________________________________________________________________________
#
#LOGNAME           .UNIT     LOG_ID                        : DESCRIPTION
#_______________________________________________________________________________
DEPT               .ft                                     :  {F}
LN                 .ohm.m                                  :  {F}
SN                 .ohm.m                                  :  {F}
SP                 .mV                                     :  {F}
~Ascii
# ...
5002       4.824976   4.323303   51.66309  
5002.5     4.745231   4.339301   50.92506  
5003       4.657022   4.352774   50.88499  
5003.5     4.524114   4.364202   50.3439   
5004       4.391204   4.375631   49.69298  
5004.5     4.233189   4.282351   49.43607  
5005       4.068773   4.171247   49.44437  
5005.5     3.889277   4.091266   49.89032  
5006       3.703205   4.062992   51.86517  
5006.5     3.514381   4.062992   52.43886  
5007       3.320072   3.98864    51.2395   
5007.5     3.140652   3.837833   50.97415  
5008       3.010135   3.561701   51.70816  
5008.5     2.879618   3.156733   52.76675  
5009       2.758814   2.890415   54.28181  
5009.5     2.656314   2.624098   56.54105  
5010       2.553815   2.35778    57.38885  
5010.5     2.466621   2.091464   57.61726  
5011       2.390072   1.925459   57.84569  
5011.5     2.313523   1.904883   58.20587  
5012       2.250753   1.886926   58.5847   
5012.5     2.218858   1.870934   58.86978  
5013       2.186962   1.853608   59.00305  
5013.5     2.155066   1.831211   59.13632  
5014       2.129281   1.810796   59.26959  
5014.5     2.11385    1.796681   59.33913  
5015       2.098419   1.7824     59.39622  
5015.5     2.082988   1.747028   59.44594  
5016       2.06954    1.711656   59.40959  
5016.5     2.06068    1.681021   59.37325  
5017       2.051821   1.657817   59.3369   
5017.5     2.042961   1.673816   59.30057  
5018       2.059896   1.686688   59.38371  
5018.5     2.085072   1.67192    60.23622  
5019       2.119382   1.654365   60.23622  
5019.5     2.179197   1.63255    60.15146  
5020       2.239013   1.610736   60.07176  
5020.5     2.302619   1.599999   60.02563  
5021       2.395617   1.608032   59.97951  
5021.5     2.488615   1.665649   59.93338  
5022       2.585772   1.766437   59.82652  
5022.5     2.684307   1.87415    59.69803  
5023       2.78136    1.965041   59.56953  
5023.5     2.877047   1.893734   59.43063  
5024       2.895948   1.821763   59.1842   
5024.5     2.849802   1.824458   59.13385  
5025       2.802548   2.056922   58.99376  
5025.5     2.846054   2.676438   58.53249  
5026       2.956135   3.295956   58.13167  
5026.5     3.136701   4.852483   57.73782  
5027       3.385568   5.976913   56.63362  
5027.5     4.041545   7.101344   55.15756  
5028       5.056191   8.225777   53.84766  
5028.5     6.112566   9.350206   52.5522   
5029       7.161359   9.964933   51.25674  
5029.5     8.210152   9.961727   50.19249  
5030       9.258945   9.869329   49.25958  
5030.5     10.30774   9.773342   48.32668  
5031       10.64154   9.853853   47.43344  
5031.5     10.58621   9.943619   46.92833  
5032       10.45225   10.01217   46.4232   
5032.5     10.31829   10.02835   45.81055  
5033       10.18433   9.989649   45.2648   
5033.5     10.12588   9.950951   44.92924  
5034       10.07461   9.912251   44.84357  
5034.5     10.02335   9.84955    44.64465  
5035       9.982191   9.753563   44.30191  
5035.5     9.973331   9.618839   44.01575  
5036       9.964472   9.436813   44.0462   
5036.5     9.955614   9.254786   44.31274  
5037       9.877413   9.072758   44.44252  
5037.5     9.768684   8.950964   44.73573  
5038       9.659958   8.862534   45.01894  
5038.5     9.578636   8.792557   45.15221  
5039       9.503883   8.82683    45.28548  
5039.5     9.429132   8.861105   45.41875  
5040       9.35438    8.875986   45.23232  
5040.5     9.307381   8.860987   45.0074   
5041       9.278389   8.823269   44.80229  
5041.5     9.249399   8.730989   44.60239  
5042       9.220407   8.638708   44.4539   
5042.5     9.189718   8.546427   44.37396  
5043       9.154533   8.484415   44.88101  
5043.5     9.11935    8.426498   45.48759  
5044       9.084167   8.36858    45.62086  
5044.5     9.048983   8.315598   45.73152  
5045       9.013237   8.324167   45.37183  
5045.5     8.977362   8.332739   45.19572  
5046       8.941486   8.341309   45.23326  
5046.5     8.905609   8.34988    45.63303  
5047       8.869734   8.358452   45.99538  
5047.5     8.832222   8.367022   46.27766  
5048       8.793432   8.375593   46.53069  
5048.5     8.754641   8.347719   46.47618  
5049       8.715851   8.305998   46.42166  
5049.5     8.677061   8.264275   46.35565  
5050       8.628593   8.223766   46.24323  
5050.5     8.576078   8.183769   46.1308   
5051       8.523563   8.114195   46.01837  
5051.5     8.47105    7.987914   45.90594  
5052       8.418535   7.861634   45.9055   
5052.5     8.367081   7.771682   45.9055   
5053       8.317833   7.688209   45.9055   
5053.5     8.268587   7.604735   45.789    
5054       8.219341   7.560672   45.5885   
5054.5     8.170095   7.524676   45.28857  
5055       8.142662   7.491589   45.07495  
5055.5     8.11874    7.469772   44.97498  
5056       8.094818   7.447956   44.5538   
5056.5     8.070896   7.42614    45.36516  
5057       8.032246   7.404324   45.9055   
5057.5     7.992381   7.401575   45.9055   
5058       7.952517   7.401575   46.01764  
5058.5     7.820078   7.401575   45.9454   
5059       7.529613   7.419779   45.78551  
5059.5     7.205966   7.438234   45.48561  
5060       6.874705   7.45669    45.14287  
5060.5     6.543445   7.453983   45.81926  
5061       6.248323   7.435522   46.71445  
5061.5     6.00912    7.417062   46.95424  
5062       5.769917   7.39053    46.9044   
5062.5     5.530713   7.249469   47.56396  
5063       5.36631    6.881515   47.53061  
5063.5     5.21525    6.482951   47.4164   
5064       4.999019   6.003053   47.29575  
5064.5     4.664364   5.527631   47.1458   
5065       4.33538    5.154313   47.02159  
5065.5     4.131193   4.780995   47.24818  
5066       4.000382   4.457561   48.02544  
5066.5     3.880767   4.170097   50.34723  
5067       3.761152   3.98943    52.79767  
5067.5     3.641538   3.808763   55.24812  
5068       3.494773   3.187008   56.44185  
5068.5     3.318536   2.783858   57.47653  
5069       3.142299   2.380709   58.49197  
5069.5     2.99829    2.362392   59.21188  
5070       2.887515   2.534261   58.82123  
5070.5     2.82579    2.704705   59.23761  
5071       2.764066   2.875149   59.06624  
5071.5     2.702342   3.029781   59.16652  
5072       2.640617   2.73772    59.5811   
5072.5     2.603027   2.545744   59.87247  
5073       2.566781   2.378106   59.67264  
5073.5     2.530534   2.251542   59.47281  
5074       2.494287   2.134446   59.65996  
5074.5     2.457702   2.033422   59.93394  
5075       2.420906   1.932398   60.23387  
5075.5     2.384109   1.858717   60.17014  
5076       2.346336   1.810723   60.10352  
5076.5     2.304731   1.784203   60.00342  
5077       2.263125   1.779216   59.88348  
5077.5     2.225928   1.815747   59.76433  
5078       2.20821    1.925752   60.04994  
5078.5     2.190491   2.069106   60.33557  
5079       2.172772   2.252281   60.49516  
5079.5     2.162756   2.366415   60.26668  
5080       2.157061   2.328037   60.03818  
5080.5     2.151365   2.234743   60.11649  
5081       2.14567    2.138738   60.41533  
5081.5     2.139975   2.03937    60.48587  
5082       2.139541   1.984204   60.49182  
5082.5     2.174978   2.049479   59.6922   
5083       2.210416   2.110574   59.01151  
5083.5     2.245853   2.096653   59.38715  
5084       2.295527   1.926353   60.07874  
5084.5     2.355343   1.785835   60.07874  
5085       2.441787   1.678123   60.05276  
5085.5     2.556576   1.682734   59.89636  
5086       2.671366   1.84868    59.73994  
5086.5     2.78311    2.059825   59.57397  
5087       2.882833   2.27097    59.35185  
5087.5     2.919937   2.482115   59.12973  
5088       2.808798   2.69326    58.90761  
5088.5     2.69442    2.904406   58.70808  
5089       2.580041   3.11555    58.52357  
5089.5     2.48346    3.323669   59.51262  
5090       2.387774   3.443693   59.53883  
5090.5     2.315816   3.544864   59.45889  
5091       2.292665   3.452496   59.37894  
5091.5     2.269512   3.058501   59.29898  
5092       2.24636    2.664507   59.29134  
5092.5     2.229199   2.356176   59.29134  
