~Version
 VERS              .         3.0                           : CWLS LOG ASCII STANDARD - VERSION 3.0
 WRAP              .         NO                            : ONE LINE PER DEPTH STEP
 DLM               .         SPACE                         : DELIMITING CHARACTER(SPACE TAB OR COMMA)
~Well Information
#_______________________________________________________________________________
#
#PARAMETER_NAME    .UNIT     VALUE                         : DESCRIPTION
#_______________________________________________________________________________
STRT               .ft       3000                          : First reference value
STOP               .ft       8118                          : Last reference value
STEP               .ft       0.5                           : Step increment
NULL               .         -9999                         : Missing value
COMP               .                                       : Company
WELL               .         EGBM-003                      : Well name
FLD                .         EGBEMA                        : Field
LOC                .                                       : Location
SRVC               .                                       : Service Company
CTRY               .                                       : Country
DATE               .         1966/01/07                    : Service Date
X                  .                                       : X or East-West coordinate
Y                  .                                       : Y or North South coordinate
GDAT               .                                       : Geodetic Datum
HZCS               .                                       : Horizontal Co-ordinate System
APIN               .         10806/01                      : 
BHT                .degF     160                           : 
BLI                .ft       8115                          : 
BS                 .in       9.625                         : 
CREATION-TIME      .         2066/1/7 0_0                  : 
CSIZ               .in       10.75                         : 
DFD                .g/cm3    1.21                          : 
DFT                .         SPERSENE                      : 
DFV                .s        43                            : 
ELZ                .         -999.25                       : 
FIELD-NAME         .         EGBEMA                        : 
FILE-ID            .         SOH7  .1                      : 
FILE-NUMBER        .         101                           : 
FILE-SET-NAME      .                                       : 
FILE-SET-NUMBER    .         0                             : 
FILE-TYPE          .         PTF                           : 
HIDE               .         Well/Hole_ EGBM-3  Service Name_ ES  Run Number_ 1: 
LCC                .         0                             : 
LMF                .         1                             : 
MFST               .degF     77                            : 
MST                .degF     79                            : 
NAME-SPACE-NAME    .         LIS                           : 
NAME-SPACE-VERSION .         0                             : 
PRODUC             .         SHELL(PARASOL)                : 
PRODUCER-CODE      .         0                             : 
PRODUCER-NAME      .         Schlumberger                  : 
PRODUCT            .                                       : 
PROGRAMS           .                                       : 
R1                 .         SHELL     LAB      MEASUREMENTS<_techsia_br_>: 
R2                 .         <_techsia_br_>                : 
R3                 .         MUD       1.4? OHMS.  AT   77 DEG F<_techsia_br_>: 
R4                 .         <_techsia_br_>                : 
R5                 .         FILTRATE?.25 OHMS   AT   77 DEG F: 
RMCS               .ohm.m    -999.25                       : 
RMFS               .ohm.m    1.25                          : 
RMS                .ohm.m    1.5                           : 
TCS                .h        -999.25                       : 
TDD                .ft       8120                          : 
TDL                .ft       8116                          : 
TLI                .ft       2998                          : 
VERSION            .         2P01                          : 
WELL-ID            .         10806/01                      : 
WELL-NAME          .         EGBM-003                      : 
WN                 .         EGBM-003                      : 
~Parameter Information Block
#_______________________________________________________________________________
#
#PARAMETER_NAME    .UNIT     VALUE                         : DESCRIPTION
#_______________________________________________________________________________
SET                .         SOH7  _1_1                    : 
ACQUISITION-PRODUCT .         DLIS/U                        : 
CREATION-TIME      .         2026/5/13 10_22               : 
DLIS_FRAME_DIRECTION .         INCREASING                    : 
DLIS_FRAME_NAME    .         1                             : 
DLIS_FRAME_SPACING .ft       0.5                           : 
FIELD-NAME         .         EGBEMA                        : 
FILE-ID            .         SOH7  .1                      : 
FILE-NUMBER        .         4                             : 
FILE-SET-NAME      .         LIS-TO-DLIS-CONVERSION        : 
FILE-SET-NUMBER    .         13886                         : 
FILE-TYPE          .         PTF                           : 
INDEX-TYPE         .         BOREHOLE-DEPTH                : 
NAME-SPACE-NAME    .                                       : 
NAME-SPACE-VERSION .         0                             : 
OriginalDatasetName .         1                             : 
PRODUCER-CODE      .         440                           : 
PRODUCER-NAME      .         Schlumberger                  : 
PRODUCT            .         DLIS/U                        : 
PROGRAMS           .         LIS-TO-DLIS                   : 
TLFamily_DEPT      .         Measured Depth                : 
TLFamily_LN        .                                       : 
TLFamily_SN        .         Resistivity - Shallow         : 
TLFamily_SP        .         Spontaneous Potential         : 
VERSION            .         0.1                           : 
WELL-ID            .         10806/01                      : 
WELL-NAME          .         EGBM-003                      : 
~Curve Information
#_______________________________________________________________________________
#
#LOGNAME           .UNIT     LOG_ID                        : DESCRIPTION
#_______________________________________________________________________________
DEPT               .ft                                     :  {F}
LN                 .ohm.m                                  :  {F}
SN                 .ohm.m                                  :  {F}
SP                 .mV                                     :  {F}
~Ascii
# ...
5639       3.882548   2.812069   61.0751   
5639.5     3.895411   2.748926   61.41824  
5640       3.921845   2.714652   61.56734  
5640.5     4.02104    2.680378   61.78952  
5641       4.144326   2.87041    62.06482  
5641.5     4.284914   3.093776   61.58089  
5642       4.425503   3.320992   61.01956  
5642.5     4.507978   3.502946   60.54224  
5643       4.564635   3.532938   60.07492  
5643.5     4.621293   3.562931   57.68896  
5644       4.639827   3.603828   56.80875  
5644.5     4.655692   3.771683   58.39944  
5645       4.677125   4.178659   59.89052  
5645.5     4.698762   4.963287   60.58025  
5646       4.731935   5.489387   59.20125  
5646.5     4.905025   5.795276   57.61115  
5647       5.123769   5.795276   56.19107  
5647.5     5.405785   5.659919   54.89911  
5648       5.687801   5.306334   55.19986  
5648.5     5.969817   4.952749   57.25925  
5649       6.211128   4.792849   58.0856   
5649.5     6.420527   4.807842   58.99149  
5650       6.629926   4.822836   59.5029   
5650.5     6.852331   4.837831   60.03239  
5651       7.108624   4.852824   59.897    
5651.5     7.364917   4.867818   59.72244  
5652       7.62121    4.884943   59.5479   
5652.5     7.984956   4.934574   59.37334  
5653       8.365721   4.984205   59.19879  
5653.5     9.020662   5.033836   59.04347  
5654       9.8398     5.111456   58.90317  
5654.5     10.69071   5.53195    58.80878  
5655       11.9749    7.066385   58.63643  
5655.5     14.05999   9.21332    57.60229  
5656       16.14508   11.36025   56.77115  
5656.5     18.46519   13.50718   57.17912  
5657       24.14224   15.65412   57.70343  
5657.5     29.81931   17.80307   56.17867  
5658       35.56258   19.6557    56.39519  
5658.5     41.45494   20.56396   54.27109  
5659       47.34729   21.94449   50.82513  
5659.5     53.11504   24.01245   48.60754  
5660       58.78076   26.08041   48.42876  
5660.5     64.44649   28.14838   48.20502  
5661       69.99721   30.35728   47.95224  
5661.5     75.51773   32.66031   47.20482  
5662       81.03825   34.96335   45.8714   
5662.5     86.50839   37.22072   44.53798  
5663       91.92987   39.37991   43.44427  
5663.5     97.06779   41.53911   42.42197  
5664       100.5405   43.6983    41.40526  
5664.5     104.0131   45.89317   40.90311  
5665       107.4858   48.14653   40.40094  
5665.5     110.9585   50.39987   40.27933  
5666       114.4589   52.65321   40.41052  
5666.5     118.0286   54.86737   40.11238  
5667       121.5984   56.26659   39.84076  
5667.5     125.1681   57.6658    39.58517  
5668       128.8588   59.06502   39.52977  
5668.5     132.627    59.51918   39.58432  
5669       136.3952   59.86192   39.65891  
5669.5     140.425    60.08124   39.59984  
5670       144.7645   59.52756   39.46222  
5670.5     149.2311   58.97388   39.32462  
5671       154.1342   58.4202    39.21629  
5671.5     159.0373   57.88142   39.21629  
5672       163.9404   57.34834   39.51732  
5672.5     168.8435   57.00787   40.06058  
5673       175.1025   57.14566   40.37872  
5673.5     181.7145   61.21448   40.51047  
5674       188.4612   67.1308    39.9823   
5674.5     197.3185   72.44972   39.50533  
5675       198.2335   75.694     39.03349  
5675.5     198.3657   76.81854   39.65692  
5676       198.4625   77.94308   40.77931  
5676.5     198.517    79.06763   41.58464  
5677       198.5716   80.18713   41.98232  
5677.5     198.6262   81.2822    42.13869  
5678       198.6808   82.37724   41.91646  
5678.5     198.7354   83.47231   41.12125  
5679       198.7899   84.56735   40.88155  
5679.5     198.8445   85.66241   40.08098  
5680       198.8991   86.70692   36.51999  
5680.5     198.9537   87.41576   33.99171  
5681       199.0082   88.1246    32.49515  
5681.5     199.0628   88.83344   34.11122  
5682       199.1174   89.54227   35.02792  
5682.5     199.172    90.2511    35.9225   
5683       199.2266   90.66614   36.81708  
5683.5     199.2812   90.5462    37.71165  
5684       199.3357   90.42625   37.58081  
5684.5     199.3903   90.30632   37.91226  
5685       199.4449   90.18639   38.84308  
5685.5     199.4995   89.94458   39.27687  
5686       199.554    88.63617   39.06357  
5686.5     199.6086   86.11647   38.68971  
5687       199.6632   82.96774   38.35516  
5687.5     199.7178   79.97963   38.07986  
5688       199.7724   77.11894   38.98752  
5688.5     199.8269   74.25826   39.99883  
5689       199.8815   71.49101   39.93222  
5689.5     199.9361   69.27692   39.58571  
5690       199.9907   67.06282   39.94371  
5690.5     179.8246   64.84874   40.35898  
5691       168.6634   61.85362   40.78789  
5691.5     158.1924   58.57034   42.21881  
5692       147.808    55.36531   43.61034  
5692.5     137.4957   52.41319   43.78072  
5693       128.4013   49.46106   44.0898   
5693.5     120.203    46.50894   45.00577  
5694       112.0279   43.76468   45.98587  
5694.5     103.9387   41.06535   46.31706  
5695       95.84944   38.36603   46.64827  
5695.5     88.31612   36.08333   47.8913   
5696       81.17561   34.0041    48.62068  
5696.5     74.61848   31.92488   48.62068  
5697       70.09804   29.84566   48.92993  
5697.5     65.57759   28.23569   49.457    
5698       61.71552   26.7963    49.87788  
5698.5     58.30025   25.3569    50.29878  
5699       54.88498   24.02599   50.52191  
5699.5     51.99425   22.82692   50.72075  
5700       49.48935   21.62723   50.91959  
5700.5     47.03322   21.10735   51.11842  
5701       45.12987   20.38759   51.29025  
5701.5     43.22653   19.66783   51.46063  
5702       41.56525   18.80637   51.63101  
5702.5     40.19495   18.20723   51.80141  
5703       38.82465   17.80748   52.02806  
5703.5     37.45436   17.57271   52.35941  
5704       36.11598   17.42509   52.69073  
5704.5     35.00929   17.39838   52.88231  
5705       33.9026    17.4187    52.23163  
5705.5     32.7959    17.50706   52.15846  
5706       31.68921   17.59541   52.16061  
5706.5     30.58252   17.67642   52.01152  
5707       29.68999   17.75639   51.7984   
5707.5     29.03548   17.84598   51.45764  
5708       28.38095   18.00594   51.48181  
5708.5     27.72644   18.06421   51.70396  
5709       27.07191   17.96298   51.25879  
5709.5     26.45209   17.73108   50.55862  
5710       25.95409   17.49916   51.00325  
5710.5     25.45607   17.26724   52.01875  
5711       24.95805   16.98099   52.15993  
5711.5     24.46005   16.62115   50.96701  
5712       23.96204   16.25688   50.51872  
5712.5     23.60358   15.67598   50.33041  
5713       23.3486    14.87648   50.13348  
5713.5     23.09361   14.08394   49.90984  
5714       22.83864   13.30043   49.6718   
5714.5     22.75146   12.65177   49.34645  
5715       22.68347   12.15776   49.02112  
5715.5     22.61548   11.74578   48.77742  
5716       22.54747   11.78401   49.20326  
5716.5     22.47127   11.97174   49.53326  
5717       22.37608   12.16807   49.43388  
5717.5     22.28091   12.36439   48.87062  
5718       22.18573   12.45053   48.256    
5718.5     22.09055   12.4442    48.22038  
5719       21.99536   12.40691   48.17122  
5719.5     21.90018   12.39768   47.84589  
5720       21.71094   12.38845   48.39935  
5720.5     21.48784   12.37922   48.95583  
5721       21.26474   12.42392   49.18462  
5721.5     21.04164   12.63137   49.04723  
5722       20.90866   12.87558   48.89813  
5722.5     20.85457   12.96326   48.82288  
5723       20.80049   12.78187   49.06154  
5723.5     20.74641   12.63592   49.66113  
5724       20.69234   12.70649   50.3475   
5724.5     20.63824   12.77707   51.08165  
5725       20.70309   12.73043   51.23454  
5725.5     20.80655   12.60127   51.16437  
5726       20.91002   12.52703   51.07549  
5726.5     20.9375    12.5099    50.96707  
5727       20.9375    12.36833   50.85866  
5727.5     20.7382    12.16046   50.74371  
5728       20.29587   11.95803   50.75246  
5728.5     19.56796   11.75812   51.0838   
5729       18.82422   11.56796   51.41515  
5729.5     18.02422   11.39858   51.30505  
