~Version
 VERS              .         3.0                           : CWLS LOG ASCII STANDARD - VERSION 3.0
 WRAP              .         NO                            : ONE LINE PER DEPTH STEP
 DLM               .         SPACE                         : DELIMITING CHARACTER(SPACE TAB OR COMMA)
~Well Information
#_______________________________________________________________________________
#
#PARAMETER_NAME    .UNIT     VALUE                         : DESCRIPTION
#_______________________________________________________________________________
STRT               .ft       3000                          : First reference value
STOP               .ft       8118                          : Last reference value
STEP               .ft       0.5                           : Step increment
NULL               .         -9999                         : Missing value
COMP               .                                       : Company
WELL               .         EGBM-003                      : Well name
FLD                .         EGBEMA                        : Field
LOC                .                                       : Location
SRVC               .                                       : Service Company
CTRY               .                                       : Country
DATE               .         1966/01/07                    : Service Date
X                  .                                       : X or East-West coordinate
Y                  .                                       : Y or North South coordinate
GDAT               .                                       : Geodetic Datum
HZCS               .                                       : Horizontal Co-ordinate System
APIN               .         10806/01                      : 
BHT                .degF     160                           : 
BLI                .ft       8115                          : 
BS                 .in       9.625                         : 
CREATION-TIME      .         2066/1/7 0_0                  : 
CSIZ               .in       10.75                         : 
DFD                .g/cm3    1.21                          : 
DFT                .         SPERSENE                      : 
DFV                .s        43                            : 
ELZ                .         -999.25                       : 
FIELD-NAME         .         EGBEMA                        : 
FILE-ID            .         SOH7  .1                      : 
FILE-NUMBER        .         101                           : 
FILE-SET-NAME      .                                       : 
FILE-SET-NUMBER    .         0                             : 
FILE-TYPE          .         PTF                           : 
HIDE               .         Well/Hole_ EGBM-3  Service Name_ ES  Run Number_ 1: 
LCC                .         0                             : 
LMF                .         1                             : 
MFST               .degF     77                            : 
MST                .degF     79                            : 
NAME-SPACE-NAME    .         LIS                           : 
NAME-SPACE-VERSION .         0                             : 
PRODUC             .         SHELL(PARASOL)                : 
PRODUCER-CODE      .         0                             : 
PRODUCER-NAME      .         Schlumberger                  : 
PRODUCT            .                                       : 
PROGRAMS           .                                       : 
R1                 .         SHELL     LAB      MEASUREMENTS<_techsia_br_>: 
R2                 .         <_techsia_br_>                : 
R3                 .         MUD       1.4? OHMS.  AT   77 DEG F<_techsia_br_>: 
R4                 .         <_techsia_br_>                : 
R5                 .         FILTRATE?.25 OHMS   AT   77 DEG F: 
RMCS               .ohm.m    -999.25                       : 
RMFS               .ohm.m    1.25                          : 
RMS                .ohm.m    1.5                           : 
TCS                .h        -999.25                       : 
TDD                .ft       8120                          : 
TDL                .ft       8116                          : 
TLI                .ft       2998                          : 
VERSION            .         2P01                          : 
WELL-ID            .         10806/01                      : 
WELL-NAME          .         EGBM-003                      : 
WN                 .         EGBM-003                      : 
~Parameter Information Block
#_______________________________________________________________________________
#
#PARAMETER_NAME    .UNIT     VALUE                         : DESCRIPTION
#_______________________________________________________________________________
SET                .         SOH7  _1_1                    : 
ACQUISITION-PRODUCT .         DLIS/U                        : 
CREATION-TIME      .         2026/5/13 10_22               : 
DLIS_FRAME_DIRECTION .         INCREASING                    : 
DLIS_FRAME_NAME    .         1                             : 
DLIS_FRAME_SPACING .ft       0.5                           : 
FIELD-NAME         .         EGBEMA                        : 
FILE-ID            .         SOH7  .1                      : 
FILE-NUMBER        .         4                             : 
FILE-SET-NAME      .         LIS-TO-DLIS-CONVERSION        : 
FILE-SET-NUMBER    .         13886                         : 
FILE-TYPE          .         PTF                           : 
INDEX-TYPE         .         BOREHOLE-DEPTH                : 
NAME-SPACE-NAME    .                                       : 
NAME-SPACE-VERSION .         0                             : 
OriginalDatasetName .         1                             : 
PRODUCER-CODE      .         440                           : 
PRODUCER-NAME      .         Schlumberger                  : 
PRODUCT            .         DLIS/U                        : 
PROGRAMS           .         LIS-TO-DLIS                   : 
TLFamily_DEPT      .         Measured Depth                : 
TLFamily_LN        .                                       : 
TLFamily_SN        .         Resistivity - Shallow         : 
TLFamily_SP        .         Spontaneous Potential         : 
VERSION            .         0.1                           : 
WELL-ID            .         10806/01                      : 
WELL-NAME          .         EGBM-003                      : 
~Curve Information
#_______________________________________________________________________________
#
#LOGNAME           .UNIT     LOG_ID                        : DESCRIPTION
#_______________________________________________________________________________
DEPT               .ft                                     :  {F}
LN                 .ohm.m                                  :  {F}
SN                 .ohm.m                                  :  {F}
SP                 .mV                                     :  {F}
~Ascii
# ...
8005       28.55798   21.66093   37.25101  
8005.5     27.25047   21.46185   36.58936  
8006       25.94296   21.11725   35.9277   
8006.5     24.63528   20.51648   35.59953  
8007       23.32689   19.71271   35.79491  
8007.5     22.58234   18.90894   36.2202   
8008       21.60841   17.87508   36.79288  
8008.5     20.63449   16.44133   37.41216  
8009       19.66055   15.41785   38.03143  
8009.5     18.1579    14.43007   38.82774  
8010       16.2049    13.74111   39.81999  
8010.5     14.2519    13.27135   40.81226  
8011       12.2989    13.0565    41.94095  
8011.5     10.3459    12.90717   43.35909  
8012       8.392904   12.68151   44.77724  
8012.5     6.626759   12.31387   45.93388  
8013       5.471008   10.7756    46.78178  
8013.5     4.576084   8.56428    47.44017  
8014       3.875693   6.28247    49.97871  
8014.5     3.267026   4.914658   53.00058  
8015       2.992979   4.22292    55.616    
8015.5     2.733671   3.846322   57.30388  
8016       2.536239   3.56671    58.07196  
8016.5     2.338806   3.153052   58.49725  
8017       2.210277   2.739393   58.79356  
8017.5     2.084693   2.325734   59.07372  
8018       1.967112   1.912075   59.17058  
8018.5     1.881495   1.740757   59.17058  
8019       1.795877   1.68816    59.17058  
8019.5     1.71026    1.654125   59.13725  
8020       1.63898    1.627239   59.10004  
8020.5     1.580855   1.600354   59.06282  
8021       1.52273    1.573468   59.0256   
8021.5     1.464605   1.546289   59.01408  
8022       1.411613   1.517626   59.01408  
8022.5     1.381003   1.488963   59.01408  
8023       1.350394   1.460294   59.01408  
8023.5     1.319785   1.43162    58.97331  
8024       1.289176   1.402946   58.90714  
8024.5     1.258567   1.432872   58.85759  
8025       1.228208   1.468711   58.85759  
8025.5     1.21731    1.494505   58.85759  
8026       1.206412   1.494505   58.85759  
8026.5     1.195515   1.47888    58.91972  
8027       1.184617   1.451575   58.99416  
8027.5     1.173718   1.424272   59.06859  
8028       1.162636   1.406208   59.14302  
8028.5     1.150939   1.390278   59.14784  
8029       1.139243   1.374348   59.11174  
8029.5     1.127547   1.358417   59.07565  
8030       1.115851   1.345524   59.03957  
8030.5     1.104155   1.335967   58.98227  
8031       1.095113   1.32641    58.87407  
8031.5     1.086551   1.316854   58.85759  
8032       1.07799    1.307843   58.8541   
8032.5     1.070866   1.299311   58.45724  
8033       1.070866   1.290778   58.06935  
8033.5     1.075496   1.282246   57.91402  
8034       1.080914   1.272836   57.75868  
8034.5     1.086332   1.263277   57.6089   
8035       1.091751   1.262166   57.8322   
8035.5     1.09717    1.269938   58.05548  
8036       1.102588   1.272585   58.20294  
8036.5     1.108006   1.269289   58.34308  
8037       1.113425   1.265993   58.30302  
8037.5     1.118843   1.262697   58.17769  
8038       1.124262   1.268497   58.08232  
8038.5     1.129681   1.276044   58.12202  
8039       1.135098   1.283929   58.16174  
8039.5     1.140517   1.292461   58.20145  
8040       1.145936   1.300994   58.22139  
8040.5     1.151354   1.309526   58.17886  
8041       1.156773   1.312402   58.13634  
8041.5     1.162191   1.312402   58.0938   
8042       1.167609   1.312402   58.1008   
8042.5     1.173028   1.312402   58.14661  
8043       1.178447   1.312402   58.19241  
8043.5     1.183865   1.340235   58.23161  
8044       1.189283   1.368703   58.23161  
8044.5     1.194701   1.385768   58.23161  
8045       1.187204   1.392138   58.284    
8045.5     1.171223   1.388462   58.4911   
8046       1.15524    1.365246   58.69821  
8046.5     1.139258   1.340795   58.85759  
8047       1.123276   1.327761   58.83975  
8047.5     1.107294   1.341637   58.74051  
8048       1.098834   1.365786   58.64125  
8048.5     1.093733   1.385383   58.54201  
8049       1.088632   1.370295   58.44276  
8049.5     1.083529   1.355206   58.40791  
8050       1.078428   1.33956    58.45203  
8050.5     1.073327   1.323627   58.49614  
8051       1.068524   1.307693   58.54025  
8051.5     1.064      1.322267   58.5446   
8052       1.059476   1.34407    58.5446   
8052.5     1.054952   1.366563   58.5446   
8053       1.050428   1.381597   58.5446   
8053.5     1.045904   1.391985   58.5446   
8054       1.04138    1.402373   58.5446   
8054.5     1.041628   1.402114   58.60788  
8055       1.045691   1.394569   58.92552  
8055.5     1.049754   1.384765   59.07982  
8056       1.053818   1.353837   58.7317   
8056.5     1.057881   1.322909   58.44588  
8057       1.061945   1.31043    58.16005  
8057.5     1.066009   1.300872   57.92786  
8058       1.070072   1.286818   57.98738  
8058.5     1.070866   1.258154   58.04692  
8059       1.070866   1.231859   58.07512  
8059.5     1.070866   1.212177   58.07512  
8060       1.070866   1.193253   58.07512  
8060.5     1.070866   1.198563   57.99203  
8061       1.070866   1.203873   57.88379  
8061.5     1.073027   1.205651   57.77554  
8062       1.076451   1.200798   58.00764  
8062.5     1.079877   1.19074    58.28792  
8063       1.083302   1.18068    58.34027  
8063.5     1.086727   1.170722   58.26584  
8064       1.090153   1.160766   58.30307  
8064.5     1.093578   1.150808   58.26649  
8065       1.097003   1.146651   57.90135  
8065.5     1.100429   1.143664   57.73119  
8066       1.107256   1.197269   57.68355  
8066.5     1.118494   1.247233   57.63591  
8067       1.129731   1.297197   57.56949  
8067.5     1.140969   1.329206   57.47026  
8068       1.152206   1.335746   57.55328  
8068.5     1.163445   1.322094   57.68562  
8069       1.174682   1.305799   57.76212  
8069.5     1.18592    1.283038   57.76212  
8070       1.19685    1.260277   57.76212  
8070.5     1.19685    1.249607   57.82278  
8071       1.19685    1.276209   57.91441  
8071.5     1.19685    1.312052   57.50539  
8072       1.19685    1.346075   57.47437  
8072.5     1.19685    1.365994   57.77219  
8073       1.19685    1.369265   57.82397  
8073.5     1.19685    1.358241   57.87578  
8074       1.19685    1.34315    57.911    
8074.5     1.19685    1.327221   57.8669   
8075       1.19685    1.321289   57.8228   
8075.5     1.19685    1.326913   57.7787   
8076       1.19685    1.335644   57.92145  
8076.5     1.19685    1.354753   58.17676  
8077       1.19685    1.408909   58.23161  
8077.5     1.19685    1.454106   58.11211  
8078       1.19685    1.473844   58.33936  
8078.5     1.19685    1.469501   58.52151  
8079       1.19685    1.467151   58.45882  
8079.5     1.19685    1.479891   58.39612  
8080       1.19685    1.499257   58.38811  
8080.5     1.198989   1.50647    58.38811  
8081       1.202985   1.500917   58.23743  
8081.5     1.206981   1.483215   57.93956  
8082       1.210977   1.465296   57.92033  
8082.5     1.214972   1.470404   58.09677  
8083       1.218968   1.478714   58.27322  
8083.5     1.222964   1.487024   58.44966  
8084       1.226961   1.501853   58.5446   
8084.5     1.228346   1.517782   58.5446   
8085       1.228346   1.533711   58.5446   
8085.5     1.228346   1.549641   58.60376  
8086       1.228346   1.564281   58.70731  
8086.5     1.228346   1.569905   58.81087  
8087       1.228346   1.575528   58.83144  
8087.5     1.228346   1.550037   58.7838   
8088       1.208897   1.508536   58.73616  
8088.5     1.18849    1.467035   58.67255  
8089       1.168084   1.425534   58.56427  
8089.5     1.147677   1.384033   58.70982  
8090       1.127272   1.357232   59.00768  
8090.5     1.106866   1.338854   58.87701  
8091       1.102362   1.320475   58.73692  
8091.5     1.102362   1.302095   58.59027  
8092       1.102362   1.283717   58.5446   
8092.5     1.102362   1.268914   58.5446   
8093       1.102362   1.257538   58.5446   
8093.5     1.102362   1.246161   58.72054  
8094       1.102362   1.274742   58.76817  
8094.5     1.102362   1.301622   58.81581  
8095       1.102362   1.293693   58.86345  
8095.5     1.102362   1.296796   58.91109  
