~Version
 VERS              .         3.0                           : CWLS LOG ASCII STANDARD - VERSION 3.0
 WRAP              .         NO                            : ONE LINE PER DEPTH STEP
 DLM               .         SPACE                         : DELIMITING CHARACTER(SPACE TAB OR COMMA)
~Well Information
#_______________________________________________________________________________
#
#PARAMETER_NAME    .UNIT     VALUE                         : DESCRIPTION
#_______________________________________________________________________________
STRT               .ft       3000                          : First reference value
STOP               .ft       8118                          : Last reference value
STEP               .ft       0.5                           : Step increment
NULL               .         -9999                         : Missing value
COMP               .                                       : Company
WELL               .         EGBM-003                      : Well name
FLD                .         EGBEMA                        : Field
LOC                .                                       : Location
SRVC               .                                       : Service Company
CTRY               .                                       : Country
DATE               .         1966/01/07                    : Service Date
X                  .                                       : X or East-West coordinate
Y                  .                                       : Y or North South coordinate
GDAT               .                                       : Geodetic Datum
HZCS               .                                       : Horizontal Co-ordinate System
APIN               .         10806/01                      : 
BHT                .degF     160                           : 
BLI                .ft       8115                          : 
BS                 .in       9.625                         : 
CREATION-TIME      .         2066/1/7 0_0                  : 
CSIZ               .in       10.75                         : 
DFD                .g/cm3    1.21                          : 
DFT                .         SPERSENE                      : 
DFV                .s        43                            : 
ELZ                .         -999.25                       : 
FIELD-NAME         .         EGBEMA                        : 
FILE-ID            .         SOH7  .1                      : 
FILE-NUMBER        .         101                           : 
FILE-SET-NAME      .                                       : 
FILE-SET-NUMBER    .         0                             : 
FILE-TYPE          .         PTF                           : 
HIDE               .         Well/Hole_ EGBM-3  Service Name_ ES  Run Number_ 1: 
LCC                .         0                             : 
LMF                .         1                             : 
MFST               .degF     77                            : 
MST                .degF     79                            : 
NAME-SPACE-NAME    .         LIS                           : 
NAME-SPACE-VERSION .         0                             : 
PRODUC             .         SHELL(PARASOL)                : 
PRODUCER-CODE      .         0                             : 
PRODUCER-NAME      .         Schlumberger                  : 
PRODUCT            .                                       : 
PROGRAMS           .                                       : 
R1                 .         SHELL     LAB      MEASUREMENTS<_techsia_br_>: 
R2                 .         <_techsia_br_>                : 
R3                 .         MUD       1.4? OHMS.  AT   77 DEG F<_techsia_br_>: 
R4                 .         <_techsia_br_>                : 
R5                 .         FILTRATE?.25 OHMS   AT   77 DEG F: 
RMCS               .ohm.m    -999.25                       : 
RMFS               .ohm.m    1.25                          : 
RMS                .ohm.m    1.5                           : 
TCS                .h        -999.25                       : 
TDD                .ft       8120                          : 
TDL                .ft       8116                          : 
TLI                .ft       2998                          : 
VERSION            .         2P01                          : 
WELL-ID            .         10806/01                      : 
WELL-NAME          .         EGBM-003                      : 
WN                 .         EGBM-003                      : 
~Parameter Information Block
#_______________________________________________________________________________
#
#PARAMETER_NAME    .UNIT     VALUE                         : DESCRIPTION
#_______________________________________________________________________________
SET                .         SOH7  _1_1                    : 
ACQUISITION-PRODUCT .         DLIS/U                        : 
CREATION-TIME      .         2026/5/13 10_22               : 
DLIS_FRAME_DIRECTION .         INCREASING                    : 
DLIS_FRAME_NAME    .         1                             : 
DLIS_FRAME_SPACING .ft       0.5                           : 
FIELD-NAME         .         EGBEMA                        : 
FILE-ID            .         SOH7  .1                      : 
FILE-NUMBER        .         4                             : 
FILE-SET-NAME      .         LIS-TO-DLIS-CONVERSION        : 
FILE-SET-NUMBER    .         13886                         : 
FILE-TYPE          .         PTF                           : 
INDEX-TYPE         .         BOREHOLE-DEPTH                : 
NAME-SPACE-NAME    .                                       : 
NAME-SPACE-VERSION .         0                             : 
OriginalDatasetName .         1                             : 
PRODUCER-CODE      .         440                           : 
PRODUCER-NAME      .         Schlumberger                  : 
PRODUCT            .         DLIS/U                        : 
PROGRAMS           .         LIS-TO-DLIS                   : 
TLFamily_DEPT      .         Measured Depth                : 
TLFamily_LN        .                                       : 
TLFamily_SN        .         Resistivity - Shallow         : 
TLFamily_SP        .         Spontaneous Potential         : 
VERSION            .         0.1                           : 
WELL-ID            .         10806/01                      : 
WELL-NAME          .         EGBM-003                      : 
~Curve Information
#_______________________________________________________________________________
#
#LOGNAME           .UNIT     LOG_ID                        : DESCRIPTION
#_______________________________________________________________________________
DEPT               .ft                                     :  {F}
LN                 .ohm.m                                  :  {F}
SN                 .ohm.m                                  :  {F}
SP                 .mV                                     :  {F}
~Ascii
# ...
5366       2.920161   1.932503   59.16179  
5366.5     3.140279   2.111447   59.40346  
5367       3.384376   2.616228   59.01578  
5367.5     3.703505   3.211512   58.47958  
5368       4.10398    3.653487   57.89308  
5368.5     4.545788   4.44719    57.02667  
5369       5.002072   5.322857   55.18384  
5369.5     5.381356   6.119364   52.44917  
5370       5.684416   6.624783   49.62947  
5370.5     5.961142   6.936616   47.78477  
5371       6.21454    7.211616   47.44424  
5371.5     6.437526   7.449203   47.10371  
5372       6.587118   7.643818   46.62994  
5372.5     6.718632   7.771671   45.94913  
5373       6.771683   7.768394   45.06961  
5373.5     6.781655   7.703594   44.57597  
5374       6.791628   7.638795   44.87376  
5374.5     6.801601   7.601629   44.59976  
5375       6.758229   7.571938   44.20178  
5375.5     6.705052   7.542247   44.57417  
5376       6.624636   7.512555   44.93207  
5376.5     6.514184   7.472578   45.24281  
5377       6.403731   7.350455   45.55356  
5377.5     6.292786   7.017863   45.86165  
5378       6.173137   6.715317   46.172    
5378.5     6.053489   6.414475   46.54817  
5379       5.851898   6.24315    46.92435  
5379.5     5.612552   6.075464   47.11353  
5380       5.373207   5.990093   47.20518  
5380.5     5.133901   5.934197   47.51384  
5381       4.894594   5.811224   47.14719  
5381.5     4.662453   5.622846   46.86227  
5382       4.468713   5.441863   46.75398  
5382.5     4.274973   5.26088    47.14873  
5383       4.105672   5.092944   48.6803   
5383.5     3.974031   4.942885   50.28676  
5384       3.842391   4.792827   51.21375  
5384.5     3.750264   4.562036   51.52968  
5385       3.670498   4.290687   52.33206  
5385.5     3.598557   3.724323   53.02867  
5386       3.526531   3.53458    53.68439  
5386.5     3.452623   3.392076   54.1678   
5387       3.378716   3.263284   55.26776  
5387.5     3.304808   3.155136   56.3405   
5388       3.2309     3.141927   56.92789  
5388.5     3.156992   3.130615   56.90927  
5389       3.083084   3.119304   56.93953  
5389.5     3.009176   3.084096   57.71159  
5390       2.935268   2.986745   57.52803  
5390.5     2.886932   2.872685   56.99854  
5391       2.84091    2.758166   56.46906  
5391.5     2.794888   2.64829    56.70749  
5392       2.748867   2.61865    57.07451  
5392.5     2.702846   2.598289   58.1469   
5393       2.656824   2.571816   58.67499  
5393.5     2.611767   2.513972   58.36151  
5394       2.578919   2.456128   58.04803  
5394.5     2.546071   2.398617   58.85374  
5395       2.513224   2.343183   59.08817  
5395.5     2.480375   2.287748   59.22835  
5396       2.447528   2.232314   59.27899  
5396.5     2.41468    2.17688    59.27899  
5397       2.384093   2.126301   59.27899  
5397.5     2.357505   2.082932   59.1752   
5398       2.330916   2.039563   58.69858  
5398.5     2.304327   2.006858   58.65204  
5399       2.277739   1.991852   58.65204  
5399.5     2.25115    1.976846   58.58867  
5400       2.232334   1.985417   58.50925  
5400.5     2.223471   1.997296   59.06483  
5401       2.214608   2.019311   58.98538  
5401.5     2.205746   2.044312   58.52707  
5402       2.197892   2.060072   58.49529  
5402.5     2.190171   2.051163   59.24242  
5403       2.182449   2.04375    59.05092  
5403.5     2.174728   2.065908   59.51152  
5404       2.145685   2.12439    59.70511  
5404.5     2.111498   2.16645    59.0103   
5405       2.077311   2.131987   59.42177  
5405.5     2.043124   2.074487   59.90594  
5406       2.013477   2.020668   59.83205  
5406.5     2.002081   1.978007   59.53409  
5407       1.990685   1.935348   59.43573  
5407.5     1.979288   1.892687   59.43573  
5408       1.967892   1.850027   59.50848  
5408.5     1.956495   1.807367   59.81224  
5409       1.964239   1.764707   59.43591  
5409.5     1.981331   1.741282   59.0596   
5410       1.998423   1.722613   58.96552  
5410.5     2.015514   1.703944   59.17249  
5411       2.077879   1.6875     58.9525   
5411.5     2.140871   1.71733    58.53198  
5412       2.219771   1.758498   58.47643  
5412.5     2.315475   1.792533   58.73174  
5413       2.400479   1.824203   59.08617  
5413.5     2.475275   1.850245   59.12225  
5414       2.519685   1.867212   58.69412  
5414.5     2.50096    1.967607   58.89842  
5415       2.416494   2.48498    59.42468  
5415.5     2.332028   3.065483   59.72246  
5416       2.267716   3.645988   59.74921  
5416.5     2.341118   4.89361    59.26242  
5417       2.533592   5.975973   58.59242  
5417.5     2.760971   6.334045   58.33855  
5418       2.988351   5.964534   57.686    
5418.5     3.205993   5.132851   57.09045  
5419       3.332732   4.497807   56.98628  
5419.5     3.233545   4.0549     56.79399  
5420       3.113904   3.916286   56.4691   
5420.5     2.994262   3.895843   57.29372  
5421       2.865405   4.060471   57.60405  
5421.5     2.697863   4.285432   58.23769  
5422       2.53032    4.183142   59.03224  
5422.5     2.427533   3.78123    58.8875   
5423       2.375514   3.328159   58.62276  
5423.5     2.323495   3.022693   58.45116  
5424       2.272625   2.746665   58.36606  
5424.5     2.222761   2.470636   58.18605  
5425       2.172896   2.194609   58.40265  
5425.5     2.133319   1.926888   58.38167  
5426       2.110886   1.831869   58.18311  
5426.5     2.088452   1.73685    57.90329  
5427       2.066019   1.64183    58.03508  
5427.5     2.047244   1.546812   58.33855  
5428       2.047244   1.455925   58.40955  
5428.5     2.047244   1.40218    58.80682  
5429       2.047244   1.38239    58.95694  
5429.5     2.047244   1.373788   58.05568  
5430       2.047244   1.36587    58.14496  
5430.5     2.047244   1.365532   59.33679  
5431       1.994716   1.354311   60.18886  
5431.5     1.932675   1.318114   60.71953  
5432       1.870635   1.284855   60.85703  
5432.5     1.826771   1.437674   60.34642  
5433       1.826771   1.5584     59.70964  
5433.5     1.826771   1.601585   59.43573  
5434       1.826771   1.64477    59.57057  
5434.5     1.83031    1.68579    59.61819  
5435       1.835096   1.715031   59.37988  
5435.5     1.839883   1.74427    59.14157  
5436       1.844669   1.773511   59.12225  
5436.5     1.849456   1.789981   59.12225  
5437       1.854242   1.767219   59.06018  
5437.5     1.860039   1.732238   58.68947  
5438       1.87117    1.70988    58.36456  
5438.5     1.882301   1.687521   58.03967  
5439       1.893432   1.697494   57.86833  
5439.5     1.904563   1.707498   57.96225  
5440       1.915694   1.713857   58.28716  
5440.5     1.937428   1.716572   58.72437  
5441       1.969764   1.719286   59.07512  
5441.5     2.0021     1.722001   58.71767  
5442       2.034435   1.724716   58.40892  
5442.5     2.066772   1.718453   58.79378  
5443       2.12181    1.721317   58.84435  
5443.5     2.190189   1.757832   58.80878  
5444       2.258568   1.791436   58.92203  
5444.5     2.350657   1.825042   58.96552  
5445       2.446407   1.858646   59.11644  
5445.5     2.563488   1.892251   58.68608  
5446       2.683137   1.919579   58.72035  
5446.5     2.829588   1.93125    58.94109  
5447       3.034688   1.93125    58.19928  
5447.5     3.295258   1.93125    58.02507  
5448       3.694219   1.986607   58.40282  
5448.5     4.1073     2.139591   58.11736  
5449       4.576629   2.675084   57.83487  
5449.5     5.139746   3.210577   57.76477  
5450       5.921595   3.947481   57.67567  
5450.5     8.869135   6.423443   57.38647  
5451       11.81668   10.51846   55.95532  
5451.5     14.76422   14.61347   53.52034  
5452       17.71175   18.70847   51.08536  
5452.5     29.46494   21.35576   49.04706  
5453       40.33478   23.78549   48.70085  
5453.5     49.56177   29.72461   48.46001  
5454       58.78877   34.77895   47.7897   
5454.5     68.01578   38.91669   47.1194   
5455       77.24278   42.57173   46.81476  
5455.5     86.46979   47.0563    46.99564  
5456       95.69681   51.68881   46.02786  
5456.5     104.9238   56.02393   45.06009  
