~Version
 VERS              .         3.0                           : CWLS LOG ASCII STANDARD - VERSION 3.0
 WRAP              .         NO                            : ONE LINE PER DEPTH STEP
 DLM               .         SPACE                         : DELIMITING CHARACTER(SPACE TAB OR COMMA)
~Well Information
#_______________________________________________________________________________
#
#PARAMETER_NAME    .UNIT     VALUE                         : DESCRIPTION
#_______________________________________________________________________________
STRT               .ft       3000                          : First reference value
STOP               .ft       8118                          : Last reference value
STEP               .ft       0.5                           : Step increment
NULL               .         -9999                         : Missing value
COMP               .                                       : Company
WELL               .         EGBM-003                      : Well name
FLD                .         EGBEMA                        : Field
LOC                .                                       : Location
SRVC               .                                       : Service Company
CTRY               .                                       : Country
DATE               .         1966/01/07                    : Service Date
X                  .                                       : X or East-West coordinate
Y                  .                                       : Y or North South coordinate
GDAT               .                                       : Geodetic Datum
HZCS               .                                       : Horizontal Co-ordinate System
APIN               .         10806/01                      : 
BHT                .degF     160                           : 
BLI                .ft       8115                          : 
BS                 .in       9.625                         : 
CREATION-TIME      .         2066/1/7 0_0                  : 
CSIZ               .in       10.75                         : 
DFD                .g/cm3    1.21                          : 
DFT                .         SPERSENE                      : 
DFV                .s        43                            : 
ELZ                .         -999.25                       : 
FIELD-NAME         .         EGBEMA                        : 
FILE-ID            .         SOH7  .1                      : 
FILE-NUMBER        .         101                           : 
FILE-SET-NAME      .                                       : 
FILE-SET-NUMBER    .         0                             : 
FILE-TYPE          .         PTF                           : 
HIDE               .         Well/Hole_ EGBM-3  Service Name_ ES  Run Number_ 1: 
LCC                .         0                             : 
LMF                .         1                             : 
MFST               .degF     77                            : 
MST                .degF     79                            : 
NAME-SPACE-NAME    .         LIS                           : 
NAME-SPACE-VERSION .         0                             : 
PRODUC             .         SHELL(PARASOL)                : 
PRODUCER-CODE      .         0                             : 
PRODUCER-NAME      .         Schlumberger                  : 
PRODUCT            .                                       : 
PROGRAMS           .                                       : 
R1                 .         SHELL     LAB      MEASUREMENTS<_techsia_br_>: 
R2                 .         <_techsia_br_>                : 
R3                 .         MUD       1.4? OHMS.  AT   77 DEG F<_techsia_br_>: 
R4                 .         <_techsia_br_>                : 
R5                 .         FILTRATE?.25 OHMS   AT   77 DEG F: 
RMCS               .ohm.m    -999.25                       : 
RMFS               .ohm.m    1.25                          : 
RMS                .ohm.m    1.5                           : 
TCS                .h        -999.25                       : 
TDD                .ft       8120                          : 
TDL                .ft       8116                          : 
TLI                .ft       2998                          : 
VERSION            .         2P01                          : 
WELL-ID            .         10806/01                      : 
WELL-NAME          .         EGBM-003                      : 
WN                 .         EGBM-003                      : 
~Parameter Information Block
#_______________________________________________________________________________
#
#PARAMETER_NAME    .UNIT     VALUE                         : DESCRIPTION
#_______________________________________________________________________________
SET                .         SOH7  _1_1                    : 
ACQUISITION-PRODUCT .         DLIS/U                        : 
CREATION-TIME      .         2026/5/13 10_22               : 
DLIS_FRAME_DIRECTION .         INCREASING                    : 
DLIS_FRAME_NAME    .         1                             : 
DLIS_FRAME_SPACING .ft       0.5                           : 
FIELD-NAME         .         EGBEMA                        : 
FILE-ID            .         SOH7  .1                      : 
FILE-NUMBER        .         4                             : 
FILE-SET-NAME      .         LIS-TO-DLIS-CONVERSION        : 
FILE-SET-NUMBER    .         13886                         : 
FILE-TYPE          .         PTF                           : 
INDEX-TYPE         .         BOREHOLE-DEPTH                : 
NAME-SPACE-NAME    .                                       : 
NAME-SPACE-VERSION .         0                             : 
OriginalDatasetName .         1                             : 
PRODUCER-CODE      .         440                           : 
PRODUCER-NAME      .         Schlumberger                  : 
PRODUCT            .         DLIS/U                        : 
PROGRAMS           .         LIS-TO-DLIS                   : 
TLFamily_DEPT      .         Measured Depth                : 
TLFamily_LN        .                                       : 
TLFamily_SN        .         Resistivity - Shallow         : 
TLFamily_SP        .         Spontaneous Potential         : 
VERSION            .         0.1                           : 
WELL-ID            .         10806/01                      : 
WELL-NAME          .         EGBM-003                      : 
~Curve Information
#_______________________________________________________________________________
#
#LOGNAME           .UNIT     LOG_ID                        : DESCRIPTION
#_______________________________________________________________________________
DEPT               .ft                                     :  {F}
LN                 .ohm.m                                  :  {F}
SN                 .ohm.m                                  :  {F}
SP                 .mV                                     :  {F}
~Ascii
# ...
4638       2.186121   1.934579   63.19687  
4638.5     2.151147   1.864349   62.99843  
4639       2.128763   1.822803   63.19827  
4639.5     2.10638    1.814756   63.42216  
4640       2.083996   1.814756   63.51221  
4640.5     2.068785   1.826968   63.56648  
4641       2.061547   1.886621   63.62076  
4641.5     2.054309   1.974956   63.62637  
4642       2.047071   2.06309    63.62637  
4642.5     2.035629   2.101043   63.42807  
4643       1.997423   2.046597   62.93039  
4643.5     1.959217   1.975609   63.05278  
4644       1.92101    1.91945    63.76936  
4644.5     1.88145    1.864383   63.85652  
4645       1.841646   1.844273   63.93115  
4645.5     1.801844   1.824163   63.64136  
4646       1.792823   1.807379   63.73236  
4646.5     1.797416   1.793517   63.43791  
4647       1.802009   1.779656   62.94052  
4647.5     1.806602   1.765795   63.26663  
4648       1.811195   1.755526   63.4126   
4648.5     1.815788   1.749557   63.32074  
4649       1.820381   1.74359    63.31239  
4649.5     1.825302   1.737622   63.31239  
4650       1.830277   1.732688   63.27939  
4650.5     1.835253   1.73092    63.0555   
4651       1.840228   1.729152   62.84145  
4651.5     1.845203   1.727383   62.84145  
4652       1.850179   1.740494   62.84145  
4652.5     1.846629   1.769136   63.30948  
4653       1.836017   1.77708    63.62637  
4653.5     1.825404   1.776065   63.7513   
4654       1.814792   1.772392   64.20026  
4654.5     1.804179   1.76276    64.3459   
4655       1.793567   1.748566   64.23877  
4655.5     1.798318   1.734371   64.1393   
4656       1.812097   1.720177   63.99376  
4656.5     1.825875   1.705982   63.81462  
4657       1.839654   1.692756   63.63547  
4657.5     1.853434   1.679945   63.47856  
4658       1.867212   1.667133   63.32285  
4658.5     1.880991   1.654322   63.16713  
4659       1.892447   1.641511   62.8156   
4659.5     1.903302   1.632652   62.57903  
4660       1.914157   1.632652   62.74005  
4660.5     1.947117   1.63867    62.8396   
4661       1.982495   1.659624   62.7438   
4661.5     2.017875   1.703965   62.61563  
4662       2.040816   1.776148   62.75839  
4662.5     2.040816   1.987006   63.15541  
4663       2.040816   2.257105   63.15541  
4663.5     2.040816   2.527204   63.04578  
4664       2.040816   2.797302   62.84145  
4664.5     2.040816   2.937594   62.97572  
4665       2.040816   2.676514   63.25131  
4665.5     2.040816   2.442217   63.15755  
4666       2.040816   2.213202   62.93861  
4666.5     2.040816   1.99935    63.00255  
4667       2.040816   1.903876   63.24129  
4667.5     2.040816   1.852773   63.46483  
4668       2.054914   1.813462   63.56088  
4668.5     2.08205    1.787653   63.3049   
4669       2.109186   1.772727   62.96913  
4669.5     2.136322   1.765954   62.52135  
4670       2.163458   1.769137   62.24742  
4670.5     2.190594   1.7912     62.35596  
4671       2.232877   1.833916   62.78429  
4671.5     2.28064    1.876633   63.29115  
4672       2.328402   1.912587   63.61121  
4672.5     2.376163   1.948393   63.57004  
4673       2.427677   1.962919   63.52885  
4673.5     2.503683   1.974378   63.48769  
4674       2.57969    1.985836   63.28844  
4674.5     2.666162   1.99858    62.99843  
4675       2.785561   2.056947   63.03305  
4675.5     2.904959   2.137736   63.21677  
4676       3.016789   2.196054   63.24368  
4676.5     3.114478   2.214941   63.10036  
4677       3.212168   2.212288   62.95705  
4677.5     3.306149   2.216897   62.80296  
4678       3.395705   2.307027   62.60402  
4678.5     3.489766   2.472217   62.40506  
4679       3.592103   3.082337   62.37048  
4679.5     3.764241   3.692458   62.28636  
4680       4.089569   5.09603    61.89952  
4680.5     4.808892   7.118176   60.72276  
4681       6.350715   9.140322   59.43674  
4681.5     8.168531   11.16247   58.7795   
4682       9.986349   13.18461   58.14717  
4682.5     11.80416   14.12736   57.28682  
4683       13.30957   14.30054   56.948    
4683.5     14.36932   14.20751   56.48727  
4684       15.04672   13.71325   55.84427  
4684.5     14.64946   13.20422   55.74968  
4685       14.25307   13.00527   56.67804  
4685.5     14.09385   12.8123    56.87598  
4686       13.93464   12.6255    56.87598  
4686.5     13.78003   12.43869   56.80157  
4687       13.71315   12.16682   55.32562  
4687.5     13.64627   11.79415   53.86603  
4688       13.57939   11.28285   52.56474  
4688.5     13.51403   11.08076   52.1057   
4689       13.3435    10.87771   51.77594  
4689.5     13.17297   10.67314   52.0554   
4690       12.97477   10.51531   52.56737  
4690.5     12.72396   10.4256    52.64668  
4691       12.47316   10.36593   52.7477   
4691.5     12.2861    10.30626   53.33981  
4692       12.12434   10.20094   53.64427  
4692.5     11.96259   10.08858   53.42229  
4693       11.80083   9.977596   53.42229  
4693.5     11.65184   9.867428   53.5625   
4694       11.51005   9.587086   53.83807  
4694.5     11.36825   9.292124   53.07475  
4695       11.22645   9.063946   52.05139  
4695.5     11.11469   8.866398   51.96883  
4696       11.04231   8.668852   51.64842  
4696.5     10.96993   8.471306   51.60493  
4697       10.89755   8.341856   51.68379  
4697.5     10.83203   8.222485   51.0675   
4698       10.83203   8.140129   51.29977  
4698.5     10.83203   8.094212   51.6315   
4699       10.83203   8.048296   51.8904   
4699.5     10.83203   8.007971   52.00409  
4700       10.83203   8.027866   52.11777  
4700.5     10.83203   8.047762   52.06874  
4701       10.90197   8.067657   52.00941  
4701.5     10.9784    8.131151   51.44882  
4702       11.05484   8.197992   51.18262  
4702.5     11.22801   8.264833   50.91125  
4703       11.45827   8.375311   50.63989  
4703.5     11.68853   8.510267   50.33537  
4704       11.91879   8.645224   49.93727  
4704.5     12.13023   8.832792   49.65463  
4705       12.34062   9.053127   49.89568  
4705.5     12.55102   9.434385   50.54694  
4706       12.76141   9.811438   51.18469  
4706.5     12.97181   10.10322   51.82135  
4707       13.19429   10.21274   51.85243  
4707.5     13.43308   10.39185   52.11531  
4708       13.62999   10.56852   53.20074  
4708.5     13.79719   10.54301   53.83807  
4709       13.9644    10.50064   54.36049  
4709.5     14.1022    10.61616   54.45227  
4710       14.24651   10.81669   54.30916  
4710.5     14.45118   11.01721   53.83144  
4711       14.63543   11.2304    53.84247  
4711.5     14.76568   11.49386   53.96024  
4712       14.85833   11.75732   54.06879  
4712.5     15.04942   12.02078   54.17732  
4713       15.24283   12.29452   53.77473  
4713.5     15.4684    12.58447   53.28932  
4714       15.69398   12.79412   53.21431  
4714.5     15.83749   12.75505   53.12581  
4715       15.92706   12.68993   52.65465  
4715.5     15.91986   12.65711   52.52283  
4716       15.8303    12.70464   53.11453  
4716.5     15.74074   12.76431   53.43301  
4717       15.64905   12.71819   53.75258  
4717.5     15.54756   12.67964   54.0937   
4718       15.44606   12.64234   54.44658  
4718.5     15.34456   12.60503   54.82817  
4719       15.24306   12.56772   54.52965  
4719.5     15.14157   12.52247   54.65018  
4720       15.12964   12.47475   54.93512  
4720.5     15.11516   12.39404   55.14914  
4721       15.10069   12.30451   54.97386  
4721.5     15.08621   12.21498   54.91101  
4722       15.07173   12.08666   54.84818  
4722.5     15.01544   11.93584   54.74046  
4723       14.95574   11.78759   54.67818  
4723.5     14.89604   11.65589   54.67818  
4724       14.81602   11.52419   54.67818  
4724.5     14.6727    11.3925    54.77571  
4725       14.53204   11.29449   54.88321  
4725.5     14.39158   11.27159   54.99214  
4726       14.23019   11.35782   54.99214  
4726.5     14.19152   11.49888   54.89984  
4727       14.19152   11.63994   55.01762  
4727.5     14.19152   11.75883   55.29457  
4728       14.13562   11.86813   55.37411  
4728.5     14.06099   11.86813   54.99214  
