~Version
 VERS              .         3.0                           : CWLS LOG ASCII STANDARD - VERSION 3.0
 WRAP              .         NO                            : ONE LINE PER DEPTH STEP
 DLM               .         SPACE                         : DELIMITING CHARACTER(SPACE TAB OR COMMA)
~Well Information
#_______________________________________________________________________________
#
#PARAMETER_NAME    .UNIT     VALUE                         : DESCRIPTION
#_______________________________________________________________________________
STRT               .ft       3000                          : First reference value
STOP               .ft       8118                          : Last reference value
STEP               .ft       0.5                           : Step increment
NULL               .         -9999                         : Missing value
COMP               .                                       : Company
WELL               .         EGBM-003                      : Well name
FLD                .         EGBEMA                        : Field
LOC                .                                       : Location
SRVC               .                                       : Service Company
CTRY               .                                       : Country
DATE               .         1966/01/07                    : Service Date
X                  .                                       : X or East-West coordinate
Y                  .                                       : Y or North South coordinate
GDAT               .                                       : Geodetic Datum
HZCS               .                                       : Horizontal Co-ordinate System
APIN               .         10806/01                      : 
BHT                .degF     160                           : 
BLI                .ft       8115                          : 
BS                 .in       9.625                         : 
CREATION-TIME      .         2066/1/7 0_0                  : 
CSIZ               .in       10.75                         : 
DFD                .g/cm3    1.21                          : 
DFT                .         SPERSENE                      : 
DFV                .s        43                            : 
ELZ                .         -999.25                       : 
FIELD-NAME         .         EGBEMA                        : 
FILE-ID            .         SOH7  .1                      : 
FILE-NUMBER        .         101                           : 
FILE-SET-NAME      .                                       : 
FILE-SET-NUMBER    .         0                             : 
FILE-TYPE          .         PTF                           : 
HIDE               .         Well/Hole_ EGBM-3  Service Name_ ES  Run Number_ 1: 
LCC                .         0                             : 
LMF                .         1                             : 
MFST               .degF     77                            : 
MST                .degF     79                            : 
NAME-SPACE-NAME    .         LIS                           : 
NAME-SPACE-VERSION .         0                             : 
PRODUC             .         SHELL(PARASOL)                : 
PRODUCER-CODE      .         0                             : 
PRODUCER-NAME      .         Schlumberger                  : 
PRODUCT            .                                       : 
PROGRAMS           .                                       : 
R1                 .         SHELL     LAB      MEASUREMENTS<_techsia_br_>: 
R2                 .         <_techsia_br_>                : 
R3                 .         MUD       1.4? OHMS.  AT   77 DEG F<_techsia_br_>: 
R4                 .         <_techsia_br_>                : 
R5                 .         FILTRATE?.25 OHMS   AT   77 DEG F: 
RMCS               .ohm.m    -999.25                       : 
RMFS               .ohm.m    1.25                          : 
RMS                .ohm.m    1.5                           : 
TCS                .h        -999.25                       : 
TDD                .ft       8120                          : 
TDL                .ft       8116                          : 
TLI                .ft       2998                          : 
VERSION            .         2P01                          : 
WELL-ID            .         10806/01                      : 
WELL-NAME          .         EGBM-003                      : 
WN                 .         EGBM-003                      : 
~Parameter Information Block
#_______________________________________________________________________________
#
#PARAMETER_NAME    .UNIT     VALUE                         : DESCRIPTION
#_______________________________________________________________________________
SET                .         SOH7  _1_1                    : 
ACQUISITION-PRODUCT .         DLIS/U                        : 
CREATION-TIME      .         2026/5/13 10_22               : 
DLIS_FRAME_DIRECTION .         INCREASING                    : 
DLIS_FRAME_NAME    .         1                             : 
DLIS_FRAME_SPACING .ft       0.5                           : 
FIELD-NAME         .         EGBEMA                        : 
FILE-ID            .         SOH7  .1                      : 
FILE-NUMBER        .         4                             : 
FILE-SET-NAME      .         LIS-TO-DLIS-CONVERSION        : 
FILE-SET-NUMBER    .         13886                         : 
FILE-TYPE          .         PTF                           : 
INDEX-TYPE         .         BOREHOLE-DEPTH                : 
NAME-SPACE-NAME    .                                       : 
NAME-SPACE-VERSION .         0                             : 
OriginalDatasetName .         1                             : 
PRODUCER-CODE      .         440                           : 
PRODUCER-NAME      .         Schlumberger                  : 
PRODUCT            .         DLIS/U                        : 
PROGRAMS           .         LIS-TO-DLIS                   : 
TLFamily_DEPT      .         Measured Depth                : 
TLFamily_LN        .                                       : 
TLFamily_SN        .         Resistivity - Shallow         : 
TLFamily_SP        .         Spontaneous Potential         : 
VERSION            .         0.1                           : 
WELL-ID            .         10806/01                      : 
WELL-NAME          .         EGBM-003                      : 
~Curve Information
#_______________________________________________________________________________
#
#LOGNAME           .UNIT     LOG_ID                        : DESCRIPTION
#_______________________________________________________________________________
DEPT               .ft                                     :  {F}
LN                 .ohm.m                                  :  {F}
SN                 .ohm.m                                  :  {F}
SP                 .mV                                     :  {F}
~Ascii
# ...
3637       13.8767    8.075554   60.64137  
3637.5     14.31238   8.829906   58.82108  
3638       14.75814   9.385622   57.62097  
3638.5     15.14297   9.546997   57.14555  
3639       15.32208   9.691952   56.74551  
3639.5     15.38462   9.930174   56.31223  
3640       15.38462   10.21047   55.85063  
3640.5     15.39194   10.55988   55.99998  
3641       15.43971   10.80214   55.49466  
3641.5     15.48965   10.88876   54.98935  
3642       15.40056   10.7201    54.90784  
3642.5     15.22179   10.55148   55.02785  
3643       15.02069   10.38384   55.16064  
3643.5     14.81959   10.2162    55.53963  
3644       14.7593    10.09935   55.91862  
3644.5     14.72563   10.07133   56.33684  
3645       14.84505   10.03147   56.78683  
3645.5     14.96447   9.894213   57.0946   
3646       15.07989   9.546041   57.37527  
3646.5     15.19303   9.184271   58.06111  
3647       15.29458   8.79945    58.73872  
3647.5     15.31613   8.603981   59.29706  
3648       15.25098   8.515589   59.5193   
3648.5     15.20848   8.542055   59.74156  
3649       15.17863   8.729105   59.96382  
3649.5     15.34477   9.365177   60.10107  
3650       16.46634   9.981775   60.04738  
3650.5     17.73834   10.5853    58.44591  
3651       19.01237   11.11509   56.71071  
3651.5     20.54889   11.5109    56.16524  
3652       22.9556    11.55946   56.23459  
3652.5     24.89821   11.57648   57.0726   
3653       26.20569   11.85958   58.70424  
3653.5     27.308     12.22772   62.85732  
3654       27.13307   12.59586   65.00227  
3654.5     26.73004   12.47027   65.44472  
3655       25.7746    12.08644   65.05971  
3655.5     24.29826   11.70261   64.60971  
3656       22.45837   11.4318    64.13548  
3656.5     20.68823   11.18168   63.60199  
3657       18.91196   10.97556   63.0685   
3657.5     17.05809   11.11781   63.66516  
3658       15.99104   11.43395   64.99889  
3658.5     15.51189   11.79128   66.3213   
3659       15.21794   11.80777   66.26085  
3659.5     14.79795   11.14126   65.22018  
3660       14.08884   10.4324    64.32018  
3660.5     13.32766   9.723532   64.172    
3661       12.59913   9.014664   64.49207  
3661.5     11.87061   8.305798   64.94965  
3662       11.26457   7.644273   65.16428  
3662.5     10.68467   7.40608    65.00772  
3663       10.29921   7.167889   64.85117  
3663.5     9.921907   7.106886   64.60829  
3664       9.967447   7.303689   64.25534  
3664.5     10.21589   7.552727   63.80156  
3665       10.66972   7.801764   62.95699  
3665.5     11.45898   8.225779   62.1124   
3666       12.7353    8.970692   61.26782  
3666.5     14.75208   9.788969   60.18964  
3667       17.03799   11.09621   58.92345  
3667.5     19.32391   12.35878   57.50398  
3668       21.60208   13.62134   54.85536  
3668.5     23.7845    14.88391   51.0284   
3669       25.72534   16.14647   47.20142  
3669.5     27.56209   17.40903   43.37444  
3670       28.92682   18.67159   39.54747  
3670.5     30.29155   19.04643   35.72049  
3671       31.32198   19.2881    31.89351  
3671.5     31.89061   19.39638   29.03441  
3672       32.45926   19.40532   29.16873  
3672.5     33.67986   19.3334    31.02997  
3673       35.23755   19.20935   33.91058  
3673.5     36.79523   19.07326   36.7431   
3674       38.60994   18.9716    39.3835   
3674.5     40.57191   19.01367   42.0239   
3675       42.53387   19.20857   45.69318  
3675.5     44.49585   19.47003   50.94637  
3676       45.29187   19.83542   56.65193  
3676.5     46.03305   20.85612   60.2097   
3677       46.77423   21.59624   63.76747  
3677.5     47.46895   21.59624   67.32524  
3678       47.88434   21.59624   69.33832  
3678.5     48.29973   21.58365   70.99239  
3679       48.62184   21.48007   72.84698  
3679.5     48.25441   21.3765    74.20033  
3680       47.61786   21.28325   75.40067  
3680.5     46.59431   21.28325   76.08987  
3681       45.57077   21.28325   76.32986  
3681.5     44.20834   21.29419   76.43533  
3682       42.66298   21.43431   76.43533  
3682.5     40.56999   21.57442   75.81929  
3683       37.61868   21.41341   75.19316  
3683.5     33.90337   21.16443   74.56705  
3684       30.10495   20.77626   74.54259  
3684.5     24.52441   19.87935   74.54259  
3685       18.21603   18.98245   74.37875  
3685.5     16.13361   17.52238   74.21323  
3686       14.05119   15.66442   74.0477   
3686.5     11.96877   13.80645   73.69774  
3687       10.19409   11.94847   72.49733  
3687.5     9.557247   10.0905    70.41946  
3688       9.075073   8.232519   68.47192  
3688.5     8.681707   6.374543   67.97778  
3689       8.350203   5.630142   67.48364  
3689.5     8.111341   5.026623   67.1581   
3690       7.889554   4.570721   66.84694  
3690.5     7.690519   4.385547   66.53578  
3691       7.505791   4.58849    65.89302  
3691.5     7.537154   5.496695   64.69299  
3692       7.707761   6.597479   62.37975  
3692.5     7.893382   7.698263   59.89188  
3693       8.1521     8.799047   57.78017  
3693.5     8.36363    9.195456   56.58006  
3694       8.540548   8.861185   56.24605  
3694.5     8.537922   8.270487   56.78242  
3695       8.185997   7.396972   57.61781  
3695.5     7.834074   6.561681   58.45795  
3696       7.492612   6.102365   59.76115  
3696.5     7.158206   5.715264   62.28223  
3697       6.8238     5.542021   62.8822   
3697.5     6.724243   5.356108   63.27597  
3698       6.645273   5.167167   63.6033   
3698.5     6.603127   4.978226   63.93065  
3699       6.560981   4.789286   63.97476  
3699.5     6.518834   4.619068   64.28238  
3700       6.476687   4.469963   65.01576  
3700.5     6.472418   4.433313   65.72099  
3701       6.478243   4.436949   65.92973  
3701.5     6.484068   4.501945   66.13847  
3702       6.489894   4.600042   66.33501  
3702.5     6.495719   4.694836   66.15318  
3703       6.527866   4.694836   65.97136  
3703.5     6.599511   4.684178   65.78954  
3704       6.671156   4.629204   65.60771  
3704.5     6.810294   4.600939   65.39343  
3705       6.969535   4.600939   65.16481  
3705.5     7.219625   4.636974   64.9362   
3706       7.492596   5.06474    64.44511  
3706.5     7.984715   5.706161   64.2451   
3707       8.582708   6.42907    63.19992  
3707.5     9.270506   7.242977   61.3215   
3708       10.10652   7.866702   60.19203  
3708.5     11.07789   8.306189   59.07115  
3709       12.61784   8.604988   58.37109  
3709.5     13.49646   8.900415   57.67104  
3710       14.37508   9.008692   56.97096  
3710.5     15.2537    9.193594   56.1685   
3711       16.01541   9.41777    55.35016  
3711.5     16.65724   9.724291   54.53181  
3712       17.29716   10.1412    53.63368  
3712.5     17.93413   10.56115   52.73346  
3713       18.55438   10.9874    51.24477  
3713.5     19.15143   11.41364   49.66975  
3714       19.74367   11.90354   46.53694  
3714.5     20.74171   12.63555   43.95544  
3715       21.73976   13.53992   40.85541  
3715.5     22.73781   14.41121   37.70207  
3716       23.83444   15.28251   34.54875  
3716.5     25.02853   16.15381   31.39542  
3717       26.22261   17.02512   28.24208  
3717.5     27.23267   17.77713   25.08875  
3718       28.21608   18.04257   22.58185  
3718.5     29.26479   18.13419   22.38696  
3719       30.3504    18.21141   23.45137  
3719.5     31.43602   18.27095   24.9285   
3720       32.89996   18.47507   25.72163  
3720.5     34.49232   18.90459   26.47182  
3721       36.08469   19.29689   28.15817  
3721.5     38.26112   19.67787   30.02499  
3722       40.84044   19.94      32.39575  
3722.5     43.41975   20.17819   35.49332  
3723       45.67575   20.77711   38.99471  
3723.5     47.19562   22.20686   45.19942  
3724       48.7155    23.05385   52.35098  
3724.5     49.76332   23.8945    57.61812  
3725       50.14046   24.18584   62.77333  
3725.5     50.51759   24.29927   64.61974  
3726       50.21304   24.41269   66.20476  
3726.5     49.84561   24.41313   67.24498  
3727       49.47818   24.41313   68.21703  
3727.5     48.74886   24.41313   69.06413  
