~Version
 VERS              .         3.0                           : CWLS LOG ASCII STANDARD - VERSION 3.0
 WRAP              .         NO                            : ONE LINE PER DEPTH STEP
 DLM               .         SPACE                         : DELIMITING CHARACTER(SPACE TAB OR COMMA)
~Well Information
#_______________________________________________________________________________
#
#PARAMETER_NAME    .UNIT     VALUE                         : DESCRIPTION
#_______________________________________________________________________________
STRT               .ft       3000                          : First reference value
STOP               .ft       8118                          : Last reference value
STEP               .ft       0.5                           : Step increment
NULL               .         -9999                         : Missing value
COMP               .                                       : Company
WELL               .         EGBM-003                      : Well name
FLD                .         EGBEMA                        : Field
LOC                .                                       : Location
SRVC               .                                       : Service Company
CTRY               .                                       : Country
DATE               .         1966/01/07                    : Service Date
X                  .                                       : X or East-West coordinate
Y                  .                                       : Y or North South coordinate
GDAT               .                                       : Geodetic Datum
HZCS               .                                       : Horizontal Co-ordinate System
APIN               .         10806/01                      : 
BHT                .degF     160                           : 
BLI                .ft       8115                          : 
BS                 .in       9.625                         : 
CREATION-TIME      .         2066/1/7 0_0                  : 
CSIZ               .in       10.75                         : 
DFD                .g/cm3    1.21                          : 
DFT                .         SPERSENE                      : 
DFV                .s        43                            : 
ELZ                .         -999.25                       : 
FIELD-NAME         .         EGBEMA                        : 
FILE-ID            .         SOH7  .1                      : 
FILE-NUMBER        .         101                           : 
FILE-SET-NAME      .                                       : 
FILE-SET-NUMBER    .         0                             : 
FILE-TYPE          .         PTF                           : 
HIDE               .         Well/Hole_ EGBM-3  Service Name_ ES  Run Number_ 1: 
LCC                .         0                             : 
LMF                .         1                             : 
MFST               .degF     77                            : 
MST                .degF     79                            : 
NAME-SPACE-NAME    .         LIS                           : 
NAME-SPACE-VERSION .         0                             : 
PRODUC             .         SHELL(PARASOL)                : 
PRODUCER-CODE      .         0                             : 
PRODUCER-NAME      .         Schlumberger                  : 
PRODUCT            .                                       : 
PROGRAMS           .                                       : 
R1                 .         SHELL     LAB      MEASUREMENTS<_techsia_br_>: 
R2                 .         <_techsia_br_>                : 
R3                 .         MUD       1.4? OHMS.  AT   77 DEG F<_techsia_br_>: 
R4                 .         <_techsia_br_>                : 
R5                 .         FILTRATE?.25 OHMS   AT   77 DEG F: 
RMCS               .ohm.m    -999.25                       : 
RMFS               .ohm.m    1.25                          : 
RMS                .ohm.m    1.5                           : 
TCS                .h        -999.25                       : 
TDD                .ft       8120                          : 
TDL                .ft       8116                          : 
TLI                .ft       2998                          : 
VERSION            .         2P01                          : 
WELL-ID            .         10806/01                      : 
WELL-NAME          .         EGBM-003                      : 
WN                 .         EGBM-003                      : 
~Parameter Information Block
#_______________________________________________________________________________
#
#PARAMETER_NAME    .UNIT     VALUE                         : DESCRIPTION
#_______________________________________________________________________________
SET                .         SOH7  _1_1                    : 
ACQUISITION-PRODUCT .         DLIS/U                        : 
CREATION-TIME      .         2026/5/13 10_22               : 
DLIS_FRAME_DIRECTION .         INCREASING                    : 
DLIS_FRAME_NAME    .         1                             : 
DLIS_FRAME_SPACING .ft       0.5                           : 
FIELD-NAME         .         EGBEMA                        : 
FILE-ID            .         SOH7  .1                      : 
FILE-NUMBER        .         4                             : 
FILE-SET-NAME      .         LIS-TO-DLIS-CONVERSION        : 
FILE-SET-NUMBER    .         13886                         : 
FILE-TYPE          .         PTF                           : 
INDEX-TYPE         .         BOREHOLE-DEPTH                : 
NAME-SPACE-NAME    .                                       : 
NAME-SPACE-VERSION .         0                             : 
OriginalDatasetName .         1                             : 
PRODUCER-CODE      .         440                           : 
PRODUCER-NAME      .         Schlumberger                  : 
PRODUCT            .         DLIS/U                        : 
PROGRAMS           .         LIS-TO-DLIS                   : 
TLFamily_DEPT      .         Measured Depth                : 
TLFamily_LN        .                                       : 
TLFamily_SN        .         Resistivity - Shallow         : 
TLFamily_SP        .         Spontaneous Potential         : 
VERSION            .         0.1                           : 
WELL-ID            .         10806/01                      : 
WELL-NAME          .         EGBM-003                      : 
~Curve Information
#_______________________________________________________________________________
#
#LOGNAME           .UNIT     LOG_ID                        : DESCRIPTION
#_______________________________________________________________________________
DEPT               .ft                                     :  {F}
LN                 .ohm.m                                  :  {F}
SN                 .ohm.m                                  :  {F}
SP                 .mV                                     :  {F}
~Ascii
# ...
7004       8.944206   8.118361   44.76404  
7004.5     8.953869   8.072437   44.71059  
7005       8.89422    8.026514   44.25031  
7005.5     8.834574   8.025078   44.08804  
7006       8.775848   8.025078   44.00238  
7006.5     8.73818    8.025078   43.74585  
7007       8.70051    8.041906   43.74335  
7007.5     8.662842   8.081703   43.99986  
7008       8.625172   8.1215     44.13077  
7008.5     8.589342   8.161299   44.23959  
7009       8.589342   8.196268   44.34842  
7009.5     8.589342   8.213167   44.40251  
7010       8.578186   8.213167   44.21078  
7010.5     8.55168    8.188644   44.11275  
7011       8.524837   8.14748    44.29109  
7011.5     8.492313   8.106316   44.36591  
7012       8.459789   8.065149   44.37033  
7012.5     8.429703   8.068182   44.30734  
7013       8.412031   8.083099   44.24878  
7013.5     8.39436    8.132475   44.48814  
7014       8.37669    8.197588   44.74327  
7014.5     8.374977   8.262699   44.94281  
7015       8.383204   8.30308    44.87421  
7015.5     8.39143    8.337193   44.87421  
7016       8.399656   8.317724   44.87421  
7016.5     8.26992    8.262445   44.3895   
7017       7.93926    8.175629   44.24529  
7017.5     7.615454   8.088814   44.38248  
7018       7.274641   7.978319   44.7816   
7018.5     6.933828   7.853739   45.00926  
7019       6.593016   7.729158   45.02852  
7019.5     6.252203   7.374996   45.50792  
7020       5.911389   6.922961   46.05186  
7020.5     5.570577   6.433353   47.07625  
7021       5.326175   5.889504   49.71043  
7021.5     5.188082   5.389154   52.82198  
7022       5.049989   5.150392   55.64774  
7022.5     4.996262   4.993553   56.3387   
7023       4.944386   4.851588   56.72467  
7023.5     4.892511   4.791895   57.05103  
7024       4.890282   4.734078   57.54291  
7024.5     4.890282   4.757944   58.0842   
7025       4.890282   4.837447   58.18394  
7025.5     4.890282   4.939786   58.34622  
7026       4.887531   5.045416   57.6387   
7026.5     4.879835   5.093333   57.05045  
7027       4.872139   5.090213   56.86632  
7027.5     4.864443   5.010638   56.95549  
7028       4.855627   4.938366   57.12651  
7028.5     4.84399    4.885307   57.83466  
7029       4.832354   4.83225    57.8288   
7029.5     4.820717   4.990851   57.61865  
7030       4.80908    5.168529   57.27664  
7030.5     4.797442   5.343592   56.42555  
7031       4.845585   5.454545   55.29964  
7031.5     4.90063    5.454545   54.77986  
7032       4.955675   5.454545   54.77986  
7032.5     4.999246   5.438783   54.63023  
7033       5.03036    5.393314   54.46706  
7033.5     5.061476   5.347847   54.29764  
7034       5.061151   5.275068   55.05849  
7034.5     5.023475   5.183222   57.03618  
7035       4.985798   5.091375   57.68277  
7035.5     4.896169   5.011477   58.21458  
7036       4.804427   4.987601   57.95346  
7036.5     4.712686   4.963726   57.81253  
7037       4.622785   4.915506   57.91168  
7037.5     4.534427   4.815077   57.79727  
7038       4.44607    4.695681   57.90613  
7038.5     4.357712   4.530773   57.92453  
7039       4.303355   4.353912   57.92453  
7039.5     4.249131   4.177051   58.15329  
7040       4.200627   4.012846   58.13757  
7040.5     4.200627   3.887208   57.8317   
7041       4.200627   3.761571   57.82298  
7041.5     4.200627   3.76933    58.19983  
7042       4.235693   3.991977   57.95065  
7042.5     4.354988   4.478275   58.27702  
7043       4.474283   4.940372   57.63637  
7043.5     4.619931   5.402469   55.17236  
7044       4.926621   5.864566   52.73065  
7044.5     5.205673   6.312333   52.06589  
7045       5.42047    6.517011   51.62054  
7045.5     5.559537   6.677115   50.70898  
7046       5.69763    6.637607   49.51225  
7046.5     5.813787   6.507765   49.23048  
7047       5.907131   6.399244   49.08498  
7047.5     6.000476   6.290724   49.01457  
7048       6.119932   6.220485   49.37169  
7048.5     6.320575   6.323336   50.27907  
7049       6.593188   6.625718   50.39897  
7049.5     6.865803   6.906586   49.72778  
7050       7.126858   7.105535   48.99925  
7050.5     7.381883   7.304482   48.27072  
7051       7.636909   7.501178   47.3949   
7051.5     7.891934   7.660354   46.4971   
7052       8.032009   7.699242   45.98282  
7052.5     8.119123   7.707314   45.59622  
7053       8.069979   7.697367   45.26109  
7053.5     7.967693   7.68742    44.92596  
7054       7.845999   7.662299   44.59084  
7054.5     7.713463   7.598024   44.22568  
7055       7.580926   7.533751   43.93082  
7055.5     7.451608   7.469477   43.95876  
7056       7.353399   7.416143   44.05849  
7056.5     7.25519    7.364514   44.15822  
7057       7.255519   7.312885   44.2706   
7057.5     7.271973   7.261256   44.47006  
7058       7.288425   7.209875   44.66953  
7058.5     7.311245   7.189981   44.86899  
7059       7.458073   7.170086   45.09491  
7059.5     7.59862    7.150191   45.43692  
7060       7.727022   7.223987   45.66037  
7060.5     7.794391   7.4287     45.66037  
7061       7.826197   7.622876   45.66037  
7061.5     7.858004   7.676169   44.77835  
7062       7.88981    7.590887   44.64731  
7062.5     7.96236    7.523511   44.57253  
7063       8.053265   7.523511   44.78871  
7063.5     8.144169   7.563535   45.00246  
7064       8.228813   7.643116   44.76311  
7064.5     8.312992   7.722697   44.50348  
7065       8.338558   7.802279   44.12939  
7065.5     8.267313   7.875945   43.75688  
7066       8.176987   7.920716   43.45912  
7066.5     8.1063     7.963417   43.46579  
7067       8.035616   7.97834    43.5513   
7067.5     7.964929   7.993264   43.66406  
7068       7.917237   7.888601   43.86349  
7068.5     7.89073    7.79087    44.06293  
7069       7.864223   7.702924   44.23759  
7069.5     7.837715   7.618866   43.91879  
7070       7.871367   7.663636   43.65083  
7070.5     7.906711   7.708406   43.9231   
7071       7.942054   7.762763   43.80339  
7071.5     7.957558   7.817855   43.77357  
7072       7.946198   7.872947   43.77357  
7072.5     7.934839   7.896071   43.74834  
7073       7.904594   7.88905    43.71599  
7073.5     7.864837   7.882027   43.68364  
7074       7.825079   7.875004   43.65129  
7074.5     7.785321   7.866473   43.61894  
7075       7.731196   7.829745   43.69226  
7075.5     7.671558   7.793016   43.77478  
7076       7.564377   7.756289   43.85732  
7076.5     7.398177   7.67782    43.96223  
7077       7.180575   7.575536   44.24948  
7077.5     6.962442   7.504043   44.53674  
7078       6.757981   7.440351   44.82399  
7078.5     6.654205   7.273992   45.05942  
7079       6.587922   7.08647    45.28387  
7079.5     6.528288   6.788947   45.42464  
7080       6.468654   6.259098   45.646    
7080.5     6.409019   5.769045   46.66264  
7081       6.336613   5.480956   48.64525  
7081.5     6.260274   5.533187   50.57066  
7082       6.183935   5.930805   52.49608  
7082.5     6.154339   6.386591   52.37302  
7083       6.29593    6.842376   49.0237   
7083.5     6.554636   7.201637   47.48404  
7084       6.842843   7.15823    46.28969  
7084.5     7.13105    7.135415   46.54669  
7085       7.344452   7.1195     47.01505  
7085.5     7.511455   7.358021   47.48338  
7086       7.678457   7.660403   47.80406  
7086.5     7.819103   7.936278   47.04492  
7087       7.959463   8.174944   46.0562   
7087.5     8.053825   8.213167   45.06747  
7088       8.122829   8.213167   44.35103  
7088.5     8.143574   8.168617   43.7841   
7089       8.164316   8.116098   43.3344   
7089.5     8.186682   8.022289   43.55197  
7090       8.217796   7.928477   43.97739  
7090.5     8.248911   7.834667   44.2892   
7091       8.285837   7.748112   44.54572  
7091.5     8.360384   7.674655   44.55974  
7092       8.436329   7.958655   44.65448  
7092.5     8.555607   8.219074   45.02312  
7093       8.674883   8.439571   44.87187  
7093.5     8.868095   8.593836   44.27333  
7094       9.00621    8.637243   43.93082  
7094.5     9.028214   8.661875   43.91942  
