~Version
 VERS              .         3.0                           : CWLS LOG ASCII STANDARD - VERSION 3.0
 WRAP              .         NO                            : ONE LINE PER DEPTH STEP
 DLM               .         SPACE                         : DELIMITING CHARACTER(SPACE TAB OR COMMA)
~Well Information
#_______________________________________________________________________________
#
#PARAMETER_NAME    .UNIT     VALUE                         : DESCRIPTION
#_______________________________________________________________________________
STRT               .ft       3000                          : First reference value
STOP               .ft       8118                          : Last reference value
STEP               .ft       0.5                           : Step increment
NULL               .         -9999                         : Missing value
COMP               .                                       : Company
WELL               .         EGBM-003                      : Well name
FLD                .         EGBEMA                        : Field
LOC                .                                       : Location
SRVC               .                                       : Service Company
CTRY               .                                       : Country
DATE               .         1966/01/07                    : Service Date
X                  .                                       : X or East-West coordinate
Y                  .                                       : Y or North South coordinate
GDAT               .                                       : Geodetic Datum
HZCS               .                                       : Horizontal Co-ordinate System
APIN               .         10806/01                      : 
BHT                .degF     160                           : 
BLI                .ft       8115                          : 
BS                 .in       9.625                         : 
CREATION-TIME      .         2066/1/7 0_0                  : 
CSIZ               .in       10.75                         : 
DFD                .g/cm3    1.21                          : 
DFT                .         SPERSENE                      : 
DFV                .s        43                            : 
ELZ                .         -999.25                       : 
FIELD-NAME         .         EGBEMA                        : 
FILE-ID            .         SOH7  .1                      : 
FILE-NUMBER        .         101                           : 
FILE-SET-NAME      .                                       : 
FILE-SET-NUMBER    .         0                             : 
FILE-TYPE          .         PTF                           : 
HIDE               .         Well/Hole_ EGBM-3  Service Name_ ES  Run Number_ 1: 
LCC                .         0                             : 
LMF                .         1                             : 
MFST               .degF     77                            : 
MST                .degF     79                            : 
NAME-SPACE-NAME    .         LIS                           : 
NAME-SPACE-VERSION .         0                             : 
PRODUC             .         SHELL(PARASOL)                : 
PRODUCER-CODE      .         0                             : 
PRODUCER-NAME      .         Schlumberger                  : 
PRODUCT            .                                       : 
PROGRAMS           .                                       : 
R1                 .         SHELL     LAB      MEASUREMENTS<_techsia_br_>: 
R2                 .         <_techsia_br_>                : 
R3                 .         MUD       1.4? OHMS.  AT   77 DEG F<_techsia_br_>: 
R4                 .         <_techsia_br_>                : 
R5                 .         FILTRATE?.25 OHMS   AT   77 DEG F: 
RMCS               .ohm.m    -999.25                       : 
RMFS               .ohm.m    1.25                          : 
RMS                .ohm.m    1.5                           : 
TCS                .h        -999.25                       : 
TDD                .ft       8120                          : 
TDL                .ft       8116                          : 
TLI                .ft       2998                          : 
VERSION            .         2P01                          : 
WELL-ID            .         10806/01                      : 
WELL-NAME          .         EGBM-003                      : 
WN                 .         EGBM-003                      : 
~Parameter Information Block
#_______________________________________________________________________________
#
#PARAMETER_NAME    .UNIT     VALUE                         : DESCRIPTION
#_______________________________________________________________________________
SET                .         SOH7  _1_1                    : 
ACQUISITION-PRODUCT .         DLIS/U                        : 
CREATION-TIME      .         2026/5/13 10_22               : 
DLIS_FRAME_DIRECTION .         INCREASING                    : 
DLIS_FRAME_NAME    .         1                             : 
DLIS_FRAME_SPACING .ft       0.5                           : 
FIELD-NAME         .         EGBEMA                        : 
FILE-ID            .         SOH7  .1                      : 
FILE-NUMBER        .         4                             : 
FILE-SET-NAME      .         LIS-TO-DLIS-CONVERSION        : 
FILE-SET-NUMBER    .         13886                         : 
FILE-TYPE          .         PTF                           : 
INDEX-TYPE         .         BOREHOLE-DEPTH                : 
NAME-SPACE-NAME    .                                       : 
NAME-SPACE-VERSION .         0                             : 
OriginalDatasetName .         1                             : 
PRODUCER-CODE      .         440                           : 
PRODUCER-NAME      .         Schlumberger                  : 
PRODUCT            .         DLIS/U                        : 
PROGRAMS           .         LIS-TO-DLIS                   : 
TLFamily_DEPT      .         Measured Depth                : 
TLFamily_LN        .                                       : 
TLFamily_SN        .         Resistivity - Shallow         : 
TLFamily_SP        .         Spontaneous Potential         : 
VERSION            .         0.1                           : 
WELL-ID            .         10806/01                      : 
WELL-NAME          .         EGBM-003                      : 
~Curve Information
#_______________________________________________________________________________
#
#LOGNAME           .UNIT     LOG_ID                        : DESCRIPTION
#_______________________________________________________________________________
DEPT               .ft                                     :  {F}
LN                 .ohm.m                                  :  {F}
SN                 .ohm.m                                  :  {F}
SP                 .mV                                     :  {F}
~Ascii
# ...
6367       8.687817   7.370386   44.55724  
6367.5     8.625702   7.340526   44.62878  
6368       8.563589   7.310665   44.6992   
6368.5     8.462322   7.281507   44.76962  
6369       8.353424   7.252549   44.84003  
6369.5     8.244526   7.223591   44.83571  
6370       8.182138   7.194633   44.76088  
6370.5     8.12224    7.183793   44.71698  
6371       8.081762   7.195168   44.71698  
6371.5     8.081762   7.206543   44.77283  
6372       8.081762   7.210031   44.89882  
6372.5     8.081762   7.164539   45.0248   
6373       8.091301   7.110987   45.34081  
6373.5     8.10973    7.197246   45.68375  
6374       8.128159   7.32148    45.89934  
6374.5     8.146585   7.445715   45.57971  
6375       8.165014   7.569949   45.28044  
6375.5     8.176102   7.648902   45.13335  
6376       8.176102   7.648902   45.05353  
6376.5     8.134659   7.602994   44.97372  
6377       7.995488   7.543262   44.89392  
6377.5     7.734967   7.479912   45.00296  
6378       7.350076   7.395154   45.17398  
6378.5     6.965185   7.310395   45.52089  
6379       6.580294   7.225637   45.66174  
6379.5     6.195402   7.138246   45.80261  
6380       5.810511   6.91536    46.10924  
6380.5     5.425619   6.56068    47.04108  
6381       5.040729   5.988635   49.12807  
6381.5     4.754146   5.412032   51.33347  
6382       4.685534   4.835429   53.57797  
6382.5     4.693214   4.319955   55.72226  
6383       4.777769   4.101044   56.95689  
6383.5     4.862324   3.988813   57.67233  
6384       5.08007    4.078913   57.5564   
6384.5     5.35814    4.347098   56.54686  
6385       5.927279   4.894361   54.59161  
6385.5     6.619863   5.770306   52.11913  
6386       7.482063   6.646252   49.88251  
6386.5     8.366562   7.522197   48.80515  
6387       9.25106    8.010851   47.78925  
6387.5     9.807411   8.282244   46.79869  
6388       9.926598   8.553637   45.80814  
6388.5     9.96209    8.755613   44.81758  
6389       9.997583   8.934811   44.05533  
6389.5     10.03557   9.104101   43.36786  
6390       10.12541   9.182314   42.91628  
6390.5     10.21524   9.169739   42.48874  
6391       10.30508   9.157166   42.06122  
6391.5     10.31447   9.122066   41.6337   
6392       10.31447   9.078068   41.4478   
6392.5     10.29951   9.034069   42.00298  
6393       10.24423   8.99007    42.66801  
6393.5     10.18895   8.946072   43.33556  
6394       10.13367   8.876087   44.05379  
6394.5     10.03245   8.796467   44.40251  
6395       9.855408   8.716846   44.4012   
6395.5     9.581499   8.637226   44.35132  
6396       9.298326   8.55744    44.30144  
6396.5     9.008339   8.443689   44.25156  
6397       8.730133   8.329939   44.24529  
6397.5     8.583763   8.211454   44.57777  
6398       8.437393   8.067146   45.09081  
6398.5     8.344564   7.76538    45.64999  
6399       8.272688   7.463614   46.46349  
6399.5     8.211004   7.213347   48.48174  
6400       8.247869   7.061113   50.16722  
6400.5     8.346411   7.297448   51.52753  
6401       8.54236    7.679784   50.01215  
6401.5     8.948494   8.049896   48.39235  
6402       9.262871   8.408115   46.91328  
6402.5     9.570663   8.526646   45.83803  
6403       9.766748   8.517136   45.05746  
6403.5     9.832293   8.474972   44.27689  
6404       9.815182   8.432808   43.85678  
6404.5     9.78813    8.469172   43.72377  
6405       9.758183   8.510641   43.6624   
6405.5     9.728235   8.563723   43.90182  
6406       9.698288   8.616802   43.78043  
6406.5     9.677444   8.632338   43.5238   
6407       9.663351   8.644907   43.26361  
6407.5     9.649258   8.628548   43.00342  
6408       9.635166   8.574251   43.05763  
6408.5     9.621073   8.519955   43.13245  
6409       9.606981   8.457262   43.06757  
6409.5     9.592888   8.387587   42.98741  
6410       9.57246    8.317913   43.42755  
6410.5     9.551167   8.264498   43.93082  
6411       9.529873   8.235838   43.93082  
6411.5     9.508579   8.207176   43.93082  
6412       9.487286   8.181818   44.03163  
6412.5     9.465992   8.181818   44.04961  
6413       9.436283   8.173067   43.96979  
6413.5     9.406338   8.113327   43.9691   
6414       9.376392   8.066744   44.04391  
6414.5     9.346447   8.029995   44.1458   
6415       9.316502   7.979933   44.28659  
6415.5     9.286556   7.927814   44.39076  
6416       9.23649    7.875696   44.32425  
6416.5     9.176596   7.823579   44.25775  
6417       9.116701   7.771461   44.18042  
6417.5     9.056807   7.719343   44.1006   
6418       8.996914   7.667225   44.31215  
6418.5     8.937019   7.691152   44.22682  
6419       8.930819   7.777233   43.93533  
6419.5     8.953457   7.944423   43.6162   
6420       9.02392    8.068975   43.50253  
6420.5     9.094849   8.093925   43.58804  
6421       9.170498   8.050488   43.6664   
6421.5     9.246147   8.007051   43.74121  
6422       9.280928   7.941042   43.73962  
6422.5     9.287975   7.865052   43.67976  
6423       9.295021   7.789063   43.61992  
6423.5     9.302067   7.759491   43.49121  
6424       9.31192    7.761733   43.06984  
6424.5     9.340105   7.950336   42.55681  
6425       9.36829    8.138941   42.39342  
6425.5     9.396475   8.305334   42.57913  
6426       9.42466    8.457314   42.89449  
6426.5     9.463144   8.609293   43.2935   
6427       9.506704   8.7153     43.54665  
6427.5     9.550262   8.803314   43.69627  
6428       9.59852    8.854893   43.70552  
6428.5     9.648087   8.781395   43.56471  
6429       9.697653   8.686733   43.49434  
6429.5     9.747219   8.572496   43.63519  
6430       9.763041   8.458261   43.77357  
6430.5     9.778017   8.355228   43.77357  
6431       9.749899   8.263355   43.38788  
6431.5     9.715679   8.171482   42.98892  
6432       9.685535   8.094852   42.67296  
6432.5     9.666225   8.178078   42.67032  
6433       9.639612   8.26956    42.57057  
6433.5     9.622643   8.361042   42.4259   
6434       9.622643   8.452524   42.75478  
6434.5     9.622643   8.544008   42.97285  
6435       9.676908   8.63549    43.13609  
6435.5     9.739414   8.71978    43.29933  
6436       9.801922   8.757502   43.89673  
6436.5     9.852034   8.795223   43.93082  
6437       9.899952   8.780951   43.93082  
6437.5     9.94787    8.739351   43.77113  
6438       9.987116   8.705229   43.54308  
6438.5     10.01978   8.671106   43.31502  
6439       10.05243   8.636984   43.14073  
6439.5     10.05204   8.620689   42.97664  
6440       10.03606   8.620689   42.87257  
6440.5     10.01883   8.670292   42.76849  
6441       10.00108   8.759876   42.67812  
6441.5     9.983337   8.83589    42.74113  
6442       9.968554   8.895592   42.80415  
6442.5     9.968554   8.896242   42.74236  
6443       9.968554   8.824572   42.59273  
6443.5     9.968554   8.752901   42.51572  
6444       9.968554   8.681232   42.51572  
6444.5     9.94725    8.6171     42.51572  
6445       9.921768   8.593985   42.57864  
6445.5     9.896284   8.570869   42.76762  
6446       9.8708     8.547752   42.9566   
6446.5     9.845316   8.522198   43.40485  
6447       9.819834   8.471014   43.87775  
6447.5     9.767805   8.419832   43.71231  
6448       9.702465   8.368649   43.46034  
6448.5     9.637127   8.320658   43.00574  
6449       9.583094   8.27722    42.39378  
6449.5     9.53228    8.254837   42.09012  
6450       9.481466   8.244514   42.26115  
6450.5     9.430653   8.230234   42.43221  
6451       9.393219   8.188694   42.554    
6451.5     9.372387   8.147154   42.62881  
6452       9.351555   8.088047   42.52193  
6452.5     9.330723   7.992485   42.1537   
6453       9.309891   7.896925   41.93895  
6453.5     9.289059   7.801365   41.78932  
6454       9.267416   7.712005   41.96921  
6454.5     9.244598   7.632395   42.36823  
6455       9.221781   7.552786   42.77586  
6455.5     9.198963   7.473176   43.2113   
6456       9.176146   7.408744   43.59351  
6456.5     9.153328   7.347101   43.90846  
6457       9.134443   7.285459   43.64233  
6457.5     9.116016   7.223816   43.48132  
