~Version
 VERS              .         3.0                           : CWLS LOG ASCII STANDARD - VERSION 3.0
 WRAP              .         NO                            : ONE LINE PER DEPTH STEP
 DLM               .         SPACE                         : DELIMITING CHARACTER(SPACE TAB OR COMMA)
~Well Information
#_______________________________________________________________________________
#
#PARAMETER_NAME    .UNIT     VALUE                         : DESCRIPTION
#_______________________________________________________________________________
STRT               .ft       3000                          : First reference value
STOP               .ft       8118                          : Last reference value
STEP               .ft       0.5                           : Step increment
NULL               .         -9999                         : Missing value
COMP               .                                       : Company
WELL               .         EGBM-003                      : Well name
FLD                .         EGBEMA                        : Field
LOC                .                                       : Location
SRVC               .                                       : Service Company
CTRY               .                                       : Country
DATE               .         1966/01/07                    : Service Date
X                  .                                       : X or East-West coordinate
Y                  .                                       : Y or North South coordinate
GDAT               .                                       : Geodetic Datum
HZCS               .                                       : Horizontal Co-ordinate System
APIN               .         10806/01                      : 
BHT                .degF     160                           : 
BLI                .ft       8115                          : 
BS                 .in       9.625                         : 
CREATION-TIME      .         2066/1/7 0_0                  : 
CSIZ               .in       10.75                         : 
DFD                .g/cm3    1.21                          : 
DFT                .         SPERSENE                      : 
DFV                .s        43                            : 
ELZ                .         -999.25                       : 
FIELD-NAME         .         EGBEMA                        : 
FILE-ID            .         SOH7  .1                      : 
FILE-NUMBER        .         101                           : 
FILE-SET-NAME      .                                       : 
FILE-SET-NUMBER    .         0                             : 
FILE-TYPE          .         PTF                           : 
HIDE               .         Well/Hole_ EGBM-3  Service Name_ ES  Run Number_ 1: 
LCC                .         0                             : 
LMF                .         1                             : 
MFST               .degF     77                            : 
MST                .degF     79                            : 
NAME-SPACE-NAME    .         LIS                           : 
NAME-SPACE-VERSION .         0                             : 
PRODUC             .         SHELL(PARASOL)                : 
PRODUCER-CODE      .         0                             : 
PRODUCER-NAME      .         Schlumberger                  : 
PRODUCT            .                                       : 
PROGRAMS           .                                       : 
R1                 .         SHELL     LAB      MEASUREMENTS<_techsia_br_>: 
R2                 .         <_techsia_br_>                : 
R3                 .         MUD       1.4? OHMS.  AT   77 DEG F<_techsia_br_>: 
R4                 .         <_techsia_br_>                : 
R5                 .         FILTRATE?.25 OHMS   AT   77 DEG F: 
RMCS               .ohm.m    -999.25                       : 
RMFS               .ohm.m    1.25                          : 
RMS                .ohm.m    1.5                           : 
TCS                .h        -999.25                       : 
TDD                .ft       8120                          : 
TDL                .ft       8116                          : 
TLI                .ft       2998                          : 
VERSION            .         2P01                          : 
WELL-ID            .         10806/01                      : 
WELL-NAME          .         EGBM-003                      : 
WN                 .         EGBM-003                      : 
~Parameter Information Block
#_______________________________________________________________________________
#
#PARAMETER_NAME    .UNIT     VALUE                         : DESCRIPTION
#_______________________________________________________________________________
SET                .         SOH7  _1_1                    : 
ACQUISITION-PRODUCT .         DLIS/U                        : 
CREATION-TIME      .         2026/5/13 10_22               : 
DLIS_FRAME_DIRECTION .         INCREASING                    : 
DLIS_FRAME_NAME    .         1                             : 
DLIS_FRAME_SPACING .ft       0.5                           : 
FIELD-NAME         .         EGBEMA                        : 
FILE-ID            .         SOH7  .1                      : 
FILE-NUMBER        .         4                             : 
FILE-SET-NAME      .         LIS-TO-DLIS-CONVERSION        : 
FILE-SET-NUMBER    .         13886                         : 
FILE-TYPE          .         PTF                           : 
INDEX-TYPE         .         BOREHOLE-DEPTH                : 
NAME-SPACE-NAME    .                                       : 
NAME-SPACE-VERSION .         0                             : 
OriginalDatasetName .         1                             : 
PRODUCER-CODE      .         440                           : 
PRODUCER-NAME      .         Schlumberger                  : 
PRODUCT            .         DLIS/U                        : 
PROGRAMS           .         LIS-TO-DLIS                   : 
TLFamily_DEPT      .         Measured Depth                : 
TLFamily_LN        .                                       : 
TLFamily_SN        .         Resistivity - Shallow         : 
TLFamily_SP        .         Spontaneous Potential         : 
VERSION            .         0.1                           : 
WELL-ID            .         10806/01                      : 
WELL-NAME          .         EGBM-003                      : 
~Curve Information
#_______________________________________________________________________________
#
#LOGNAME           .UNIT     LOG_ID                        : DESCRIPTION
#_______________________________________________________________________________
DEPT               .ft                                     :  {F}
LN                 .ohm.m                                  :  {F}
SN                 .ohm.m                                  :  {F}
SP                 .mV                                     :  {F}
~Ascii
# ...
4365       19.27931   13.08444   62.81459  
4365.5     19.28503   13.38905   63.8884   
4366       20.77902   13.54731   64.09734  
4366.5     22.27303   13.5922    63.1702   
4367       23.21564   13.76721   62.61349  
4367.5     24.15115   14.09121   62.51407  
4368       25.08667   14.27077   62.46626  
4368.5     25.02885   14.37811   62.41847  
4369       24.9369    14.39407   62.37067  
4369.5     24.84497   14.47764   62.50784  
4370       24.53223   14.63725   62.64575  
4370.5     24.04008   14.77987   62.78366  
4371       23.54794   14.77987   62.9407   
4371.5     23.0558    14.77987   62.93248  
4372       22.58105   14.75435   62.84145  
4372.5     22.29135   14.75264   62.84145  
4373       22.00163   14.85591   62.75331  
4373.5     21.71193   14.90952   63.5547   
4374       21.42221   14.97074   63.94034  
4374.5     21.68256   15.22034   63.93439  
4375       22.12527   15.5136    63.87149  
4375.5     22.56799   15.05167   63.80859  
4376       22.9744    14.57302   63.43437  
4376.5     23.23996   14.1607    62.95628  
4377       23.50552   13.94146   62.50092  
4377.5     23.77107   14.31399   62.41245  
4378       24.17656   14.9306    64.29942  
4378.5     24.65468   15.5472    65.82109  
4379       25.13281   16.1638    66.51947  
4379.5     25.61093   16.7804    66.89824  
4380       26.09285   16.89682   67.4417   
4380.5     26.63255   17.02751   68.10796  
4381       27.17226   17.16432   68.73859  
4381.5     27.71196   17.07594   69.12619  
4382       28.25165   16.93233   69.25905  
4382.5     28.59526   16.8831    69.71733  
4383       28.93675   17.13927   69.54482  
4383.5     29.27823   17.55077   69.28081  
4384       29.61972   17.83806   68.96907  
4384.5     29.9612    17.49852   68.65732  
4385       30.07066   17.10519   68.49294  
4385.5     29.92126   16.99478   68.49294  
4386       29.77187   17.00609   67.99826  
4386.5     29.62247   16.81163   67.43781  
4387       29.34628   16.52092   66.84021  
4387.5     28.72647   16.44653   66.19434  
4388       28.10664   16.41034   65.45905  
4388.5     27.48683   16.19487   65.00423  
4389       26.69292   15.89829   64.70543  
4389.5     25.8325    15.5879    64.40163  
4390       24.97209   15.2775    63.7818   
4390.5     24.00482   14.98903   63.16199  
4391       22.90125   14.74969   62.54218  
4391.5     21.60605   14.42403   61.89771  
4392       20.72276   13.96764   61.2254   
4392.5     19.80246   13.3292    60.73779  
4393       18.89037   12.77232   60.67712  
4393.5     18.12013   12.2486    60.75182  
4394       17.3499    11.82027   60.67114  
4394.5     16.74261   11.45307   60.29764  
4395       16.20842   11.18038   59.98314  
4395.5     15.66346   10.96344   59.85034  
4396       15.1057    10.78508   59.71754  
4396.5     14.54794   10.69957   59.23375  
4397       13.93122   10.60623   58.70248  
4397.5     13.17996   10.47564   58.1712   
4398       12.34545   10.34505   57.70668  
4398.5     11.442     10.01382   57.37469  
4399       10.66431   9.345066   57.04269  
4399.5     10.08216   8.583035   57.01701  
4400       9.555401   7.861591   57.03296  
4400.5     9.341389   7.616263   57.81789  
4401       9.177202   6.79063    57.81789  
4401.5     9.065744   5.965696   58.19395  
4402       9.04402    5.303126   58.68578  
4402.5     9.079185   4.802585   59.4039   
4403       9.158398   4.32519    60.32249  
4403.5     9.311903   3.998943   61.88745  
4404       9.574442   3.950783   63.59306  
4404.5     9.952564   4.283693   63.48003  
4405       10.47393   5.186132   63.29877  
4405.5     11.13128   6.780886   63.31287  
4406       12.11963   8.631287   64.21893  
4406.5     14.73536   10.48169   65.27235  
4407       17.35107   12.33209   66.37169  
4407.5     20.24316   13.83398   66.95522  
4408       23.86243   14.77676   67.01492  
4408.5     26.04651   15.5268    67.07463  
4409       27.0704    16.00417   67.27744  
4409.5     27.64349   16.14403   67.05386  
4410       28.2166    16.23956   66.319    
4410.5     28.78969   16.56099   66.51312  
4411       29.27225   16.99335   67.00179  
4411.5     29.73666   17.45238   67.42821  
4412       30.20108   17.91141   67.7038   
4412.5     30.6655    18.34262   67.90312  
4413       31.14764   18.60789   67.99498  
4413.5     31.78833   18.87317   68.34988  
4414       32.42902   19.10103   68.81429  
4414.5     33.06969   19.24646   69.30345  
4415       33.71037   19.14607   69.8407   
4415.5     34.35106   18.99689   70.37793  
4416       34.89381   19.04094   70.81625  
4416.5     35.39656   19.62865   71.13747  
4417       35.89931   20.09984   70.95375  
4417.5     36.40207   20.12791   70.59526  
4418       36.90482   20.15599   70.18568  
4418.5     36.5159    20.44038   70.09383  
4419       35.76959   20.45874   69.8934   
4419.5     34.806     20.43097   69.63756  
4420       33.70369   20.3116    69.70085  
4420.5     32.60138   20.13802   70.04718  
4421       31.68925   19.94702   70.51434  
4421.5     31.57553   19.95261   70.98149  
4422       31.46181   19.9836    71.30841  
4422.5     31.34808   19.83765   71.54727  
4423       31.23434   19.59891   71.78613  
4423.5     31.12062   19.37206   71.95007  
4424       31.08319   19.37206   72.11288  
4424.5     31.08319   19.37206   72.26385  
4425       31.08319   19.36009   72.29898  
4425.5     31.08319   19.33839   72.33409  
4426       31.08319   19.3167    72.36922  
4426.5     30.61316   19.29498   72.40434  
4427       29.91661   19.26991   72.36037  
4427.5     29.22006   19.23222   72.26852  
4428       28.39999   19.19452   72.17668  
4428.5     27.46568   19.0817    72.08484  
4429       26.53137   18.93845   71.993    
4429.5     25.8679    18.70499   71.8438   
4430       25.48062   18.38205   71.63609  
4430.5     25.09334   18.00899   71.42841  
4431       24.70605   17.60323   71.15305  
4431.5     24.31879   16.72696   70.80191  
4432       24.0845    15.72859   70.29837  
4432.5     23.93974   14.73021   68.9908   
4433       23.79498   13.73183   67.2997   
4433.5     23.65022   13.11454   62.97157  
4434       23.58675   12.95538   59.68922  
4434.5     23.71941   12.9655    59.2626   
4435       23.85207   13.22929   58.99217  
4435.5     23.98473   13.50388   59.81493  
4436       24.11739   13.84435   61.27391  
4436.5     24.44307   14.30982   62.68445  
4437       24.92067   14.744     62.60866  
4437.5     25.39828   14.91806   62.9166   
4438       25.87589   15.1492    63.07233  
4438.5     26.47409   15.48742   62.94659  
4439       27.14772   15.71569   63.12814  
4439.5     27.82137   15.89583   62.41209  
4440       28.495     15.93562   62.46014  
4440.5     29.16862   15.97541   62.95335  
4441       29.44476   16.01259   63.52507  
4441.5     29.30429   16.13721   64.12212  
4442       29.17191   16.74382   65.12178  
4442.5     29.06335   17.23628   66.49966  
4443       28.9548    17.18147   67.38521  
4443.5     28.84624   17.12508   68.15273  
4444       28.73769   17.31023   69.12897  
4444.5     28.62914   17.67628   70.11261  
4445       28.52057   18.00606   70.74449  
4445.5     28.41202   18.30846   71.24724  
4446       28.30347   18.45688   71.69598  
4446.5     28.25745   18.50165   71.96735  
4447       28.25745   18.57143   72.23871  
4447.5     28.25745   18.66692   72.41759  
4448       28.25745   18.71271   72.16415  
4448.5     28.25745   18.55075   71.70486  
4449       28.25745   18.36555   71.77647  
4449.5     28.25745   18.28596   71.94562  
4450       28.25745   18.20912   71.60449  
4450.5     28.28244   18.13567   71.22189  
4451       28.36775   18.10364   70.62485  
4451.5     28.45305   18.08659   70.05325  
4452       28.53835   17.9928    69.89044  
4452.5     28.40268   17.60205   69.72762  
4453       28.12711   17.25275   69.61385  
4453.5     27.85153   16.99844   69.74649  
4454       27.67169   17.04488   69.87923  
4454.5     27.88878   17.021     69.73218  
4455       28.10587   16.64342   69.51509  
4455.5     28.32295   16.12276   69.298    
