~Version
 VERS              .         3.0                           : CWLS LOG ASCII STANDARD - VERSION 3.0
 WRAP              .         NO                            : ONE LINE PER DEPTH STEP
 DLM               .         SPACE                         : DELIMITING CHARACTER(SPACE TAB OR COMMA)
~Well Information
#_______________________________________________________________________________
#
#PARAMETER_NAME    .UNIT     VALUE                         : DESCRIPTION
#_______________________________________________________________________________
STRT               .ft       3000                          : First reference value
STOP               .ft       8118                          : Last reference value
STEP               .ft       0.5                           : Step increment
NULL               .         -9999                         : Missing value
COMP               .                                       : Company
WELL               .         EGBM-003                      : Well name
FLD                .         EGBEMA                        : Field
LOC                .                                       : Location
SRVC               .                                       : Service Company
CTRY               .                                       : Country
DATE               .         1966/01/07                    : Service Date
X                  .                                       : X or East-West coordinate
Y                  .                                       : Y or North South coordinate
GDAT               .                                       : Geodetic Datum
HZCS               .                                       : Horizontal Co-ordinate System
APIN               .         10806/01                      : 
BHT                .degF     160                           : 
BLI                .ft       8115                          : 
BS                 .in       9.625                         : 
CREATION-TIME      .         2066/1/7 0_0                  : 
CSIZ               .in       10.75                         : 
DFD                .g/cm3    1.21                          : 
DFT                .         SPERSENE                      : 
DFV                .s        43                            : 
ELZ                .         -999.25                       : 
FIELD-NAME         .         EGBEMA                        : 
FILE-ID            .         SOH7  .1                      : 
FILE-NUMBER        .         101                           : 
FILE-SET-NAME      .                                       : 
FILE-SET-NUMBER    .         0                             : 
FILE-TYPE          .         PTF                           : 
HIDE               .         Well/Hole_ EGBM-3  Service Name_ ES  Run Number_ 1: 
LCC                .         0                             : 
LMF                .         1                             : 
MFST               .degF     77                            : 
MST                .degF     79                            : 
NAME-SPACE-NAME    .         LIS                           : 
NAME-SPACE-VERSION .         0                             : 
PRODUC             .         SHELL(PARASOL)                : 
PRODUCER-CODE      .         0                             : 
PRODUCER-NAME      .         Schlumberger                  : 
PRODUCT            .                                       : 
PROGRAMS           .                                       : 
R1                 .         SHELL     LAB      MEASUREMENTS<_techsia_br_>: 
R2                 .         <_techsia_br_>                : 
R3                 .         MUD       1.4? OHMS.  AT   77 DEG F<_techsia_br_>: 
R4                 .         <_techsia_br_>                : 
R5                 .         FILTRATE?.25 OHMS   AT   77 DEG F: 
RMCS               .ohm.m    -999.25                       : 
RMFS               .ohm.m    1.25                          : 
RMS                .ohm.m    1.5                           : 
TCS                .h        -999.25                       : 
TDD                .ft       8120                          : 
TDL                .ft       8116                          : 
TLI                .ft       2998                          : 
VERSION            .         2P01                          : 
WELL-ID            .         10806/01                      : 
WELL-NAME          .         EGBM-003                      : 
WN                 .         EGBM-003                      : 
~Parameter Information Block
#_______________________________________________________________________________
#
#PARAMETER_NAME    .UNIT     VALUE                         : DESCRIPTION
#_______________________________________________________________________________
SET                .         SOH7  _1_1                    : 
ACQUISITION-PRODUCT .         DLIS/U                        : 
CREATION-TIME      .         2026/5/13 10_22               : 
DLIS_FRAME_DIRECTION .         INCREASING                    : 
DLIS_FRAME_NAME    .         1                             : 
DLIS_FRAME_SPACING .ft       0.5                           : 
FIELD-NAME         .         EGBEMA                        : 
FILE-ID            .         SOH7  .1                      : 
FILE-NUMBER        .         4                             : 
FILE-SET-NAME      .         LIS-TO-DLIS-CONVERSION        : 
FILE-SET-NUMBER    .         13886                         : 
FILE-TYPE          .         PTF                           : 
INDEX-TYPE         .         BOREHOLE-DEPTH                : 
NAME-SPACE-NAME    .                                       : 
NAME-SPACE-VERSION .         0                             : 
OriginalDatasetName .         1                             : 
PRODUCER-CODE      .         440                           : 
PRODUCER-NAME      .         Schlumberger                  : 
PRODUCT            .         DLIS/U                        : 
PROGRAMS           .         LIS-TO-DLIS                   : 
TLFamily_DEPT      .         Measured Depth                : 
TLFamily_LN        .                                       : 
TLFamily_SN        .         Resistivity - Shallow         : 
TLFamily_SP        .         Spontaneous Potential         : 
VERSION            .         0.1                           : 
WELL-ID            .         10806/01                      : 
WELL-NAME          .         EGBM-003                      : 
~Curve Information
#_______________________________________________________________________________
#
#LOGNAME           .UNIT     LOG_ID                        : DESCRIPTION
#_______________________________________________________________________________
DEPT               .ft                                     :  {F}
LN                 .ohm.m                                  :  {F}
SN                 .ohm.m                                  :  {F}
SP                 .mV                                     :  {F}
~Ascii
# ...
3364       21.19965   8.540705   68.15138  
3364.5     21.88441   8.434654   68.93488  
3365       22.60367   8.401255   69.71835  
3365.5     23.40257   8.452997   70.50185  
3366       24.39993   9.29537    71.28532  
3366.5     25.79828   10.30901   72.06882  
3367       27.532     11.41879   72.20313  
3367.5     29.76338   12.52856   71.60303  
3368       31.99478   13.63834   72.43271  
3368.5     34.22618   14.74812   73.57536  
3369       36.07983   15.8579    74.71803  
3369.5     37.84602   16.61256   75.48607  
3370       39.43312   16.99435   75.81889  
3370.5     40.63153   17.37614   76.0184   
3371       41.68819   17.5041    76.21793  
3371.5     42.20213   17.55486   75.97633  
3372       42.11652   17.64743   75.62433  
3372.5     42.03091   17.90195   75.35869  
3373       41.94531   18.08528   75.15918  
3373.5     41.86501   18.15869   74.56454  
3374       41.79453   18.05104   73.96616  
3374.5     41.72403   17.86014   73.5849   
3375       41.65355   17.66829   73.59146  
3375.5     41.58305   17.46083   73.72444  
3376       41.31828   17.25336   73.85742  
3376.5     41.02773   17.04564   74.00864  
3377       40.73717   16.83092   74.16824  
3377.5     40.44661   16.6162    74.09171  
3378       40.00653   16.38091   73.92075  
3378.5     39.44257   16.11176   73.30083  
3379       38.30515   15.82897   72.79382  
3379.5     35.90901   15.54619   72.28363  
3380       32.8278    15.26341   71.75478  
3380.5     29.61998   14.82979   71.22594  
3381       25.74863   14.3246    70.69708  
3381.5     22.36162   13.73139   70.16824  
3382       19.56491   13.0281    69.63939  
3382.5     17.77237   12.3248    68.68489  
3383       16.12457   11.1572    67.57332  
3383.5     15.13164   9.946543   66.67014  
3384       14.33266   8.737906   65.79228  
3384.5     13.75755   8.051905   65.14287  
3385       13.50961   7.365905   64.51295  
3385.5     13.26168   6.962361   63.92189  
3386       13.01375   6.698092   63.3833   
3386.5     12.84854   6.529675   62.84473  
3387       12.7396    6.672846   62.43738  
3387.5     12.63066   6.816018   62.06329  
3388       12.59842   6.974827   61.69328  
3388.5     12.59842   7.053918   61.32506  
3389       12.59842   6.974376   60.92641  
3389.5     12.59842   6.894834   60.53459  
3390       12.15224   6.793761   60.56831  
3390.5     11.65291   6.621974   60.91504  
3391       11.15358   6.450187   61.28326  
3391.5     10.61445   6.2784     61.57199  
3392       10.06132   6.032466   61.7715   
3392.5     9.508192   5.782526   62.15895  
3393       9.105164   5.610081   62.56844  
3393.5     9.016388   5.832425   62.97792  
3394       8.927612   6.071033   63.38741  
3394.5     8.838837   5.966043   63.79689  
3395       9.203388   5.709093   64.07668  
3395.5     9.699255   5.440888   64.49603  
3396       10.19512   5.172516   64.87737  
3396.5     10.69099   5.712443   64.61154  
3397       10.83708   6.021235   63.91367  
3397.5     10.97024   6.330027   63.45326  
3398       10.87246   6.407075   62.98425  
3398.5     10.62014   6.482413   62.56032  
3399       10.3937    6.662457   62.44066  
3399.5     10.3937    7.005462   62.08867  
3400       10.3937    7.591411   61.72955  
3400.5     11.10879   7.98466    61.02733  
3401       10.86964   8.443785   60.76723  
3401.5     10.32917   7.664545   61.24535  
3402       9.788692   7.044056   62.0948   
3402.5     9.304815   6.539642   62.89308  
3403       8.980585   6.191458   62.89308  
3403.5     8.656357   6.146094   63.03232  
3404       8.32646    6.100731   62.89758  
3404.5     7.986736   6.144845   62.74767  
3405       7.647013   6.254777   62.90883  
3405.5     7.307289   6.18128    62.59042  
3406       6.967566   6.073098   62.76286  
3406.5     6.627842   5.698851   63.64774  
3407       6.628118   5.326405   63.36478  
3407.5     6.694173   4.962185   63.82225  
3408       6.760228   4.597965   65.56052  
3408.5     6.826283   4.495224   66.18517  
3409       6.885759   4.438334   66.55855  
3409.5     6.885759   4.41187    66.61949  
3410       6.885759   4.385406   66.5531   
3410.5     6.885759   4.358943   66.50943  
3411       6.885759   4.332479   66.50943  
3411.5     6.885759   4.326018   66.52203  
3412       7.042421   4.326018   66.64153  
3412.5     7.23016    4.326018   66.761    
3413       7.417898   4.391613   66.8239   
3413.5     7.605637   4.501546   66.81419  
3414       7.793375   4.830552   66.4465   
3414.5     8.169216   5.187818   66.13205  
3415       8.582767   5.696024   65.93291  
3415.5     8.996317   6.923743   65.73376  
3416       9.509258   8.057919   63.98569  
3416.5     10.04618   9.053947   61.68741  
3417       10.58309   9.606779   60.57237  
3417.5     11.12001   9.212473   60.48872  
3418       11.33945   8.699602   60.43893  
3418.5     11.43854   8.349516   60.38914  
3419       11.53763   8.310051   60.19498  
3419.5     11.63447   8.582232   59.31442  
3420       11.72959   8.812536   57.74933  
3420.5     11.82471   8.946728   56.21309  
3421       11.89359   8.54339    56.19038  
3421.5     11.89359   7.878216   56.70251  
3422       11.89359   7.21862    57.21465  
3422.5     11.89359   6.803699   57.75671  
3423       11.79929   6.622245   58.31438  
3423.5     11.51107   6.440791   58.68291  
3424       11.22285   6.415934   58.96408  
3424.5     10.93463   6.443956   59.04312  
3425       10.64641   6.579196   58.87239  
3425.5     10.64163   6.817344   58.64429  
3426       10.64163   7.379355   57.88684  
3426.5     10.64163   7.957498   56.54076  
3427       10.64163   8.507162   55.94333  
3427.5     10.64163   8.874264   55.3459   
3428       10.64163   8.781315   55.07187  
3428.5     10.64163   8.538614   55.15721  
3429       10.64163   8.20891    55.37735  
3429.5     10.57375   7.817337   56.1223   
3430       10.41523   7.412436   57.19148  
3430.5     10.25671   7.079865   58.1761   
3431       10.09819   7.054791   58.32703  
3431.5     9.939667   7.029718   58.68657  
3432       9.781147   7.049329   59.05415  
3432.5     9.651571   7.08464    59.08813  
3433       9.550379   7.08464    58.61014  
3433.5     9.449186   7.08464    58.4494   
3434       9.347994   7.172905   58.72517  
3434.5     9.246803   7.291988   58.9886   
3435       9.145611   7.335423   59.24698  
3435.5     9.048601   7.201251   59.50537  
3436       8.960527   6.903543   59.76375  
3436.5     8.872454   6.658708   60.02214  
3437       8.78438    6.514372   60.21091  
3437.5     8.828672   6.370035   60.38664  
3438       8.913595   6.225699   60.56236  
3438.5     8.99852    6.081462   60.7381   
3439       9.072741   6.038157   60.92247  
3439.5     9.023201   5.994851   61.12161  
3440       8.97366    5.968672   60.98663  
3440.5     8.92412    6.087746   60.7626   
3441       8.874578   6.352993   60.56606  
3441.5     8.825039   6.791704   60.3822   
3442       8.775499   7.245339   58.75252  
3442.5     8.816969   7.698974   57.75681  
3443       8.886909   7.925283   57.2327   
3443.5     8.95685    8.062929   57.2327   
3444       9.026789   7.96764    57.2327   
3444.5     9.076683   7.91095    57.23544  
3445       9.076683   7.856514   57.2874   
3445.5     9.076683   7.802078   57.33934  
3446       8.928511   7.747642   57.38509  
3446.5     8.702047   7.711599   57.20123  
3447       8.475584   7.711599   57.1152   
3447.5     8.148331   7.711599   57.241    
3448       7.808638   7.202641   57.36678  
3448.5     7.468944   6.46166    57.74451  
3449       7.129251   5.865509   58.27051  
3449.5     6.810931   5.27014    59.49422  
3450       6.546709   4.674771   61.38664  
3450.5     6.282488   4.253468   63.29587  
3451       6.018266   3.866447   64.56372  
3451.5     5.754045   3.761755   65.3105   
3452       5.570593   3.761755   65.83015  
3452.5     5.454596   3.775381   66.04486  
3453       5.338598   3.790748   66.09918  
3453.5     5.222601   3.806114   66.1535   
3454       5.106604   3.82148    66.19496  
3454.5     5.029216   3.84366    66.19496  
