~Version
 VERS              .         3.0                           : CWLS LOG ASCII STANDARD - VERSION 3.0
 WRAP              .         NO                            : ONE LINE PER DEPTH STEP
 DLM               .         SPACE                         : DELIMITING CHARACTER(SPACE TAB OR COMMA)
~Well Information
#_______________________________________________________________________________
#
#PARAMETER_NAME    .UNIT     VALUE                         : DESCRIPTION
#_______________________________________________________________________________
STRT               .ft       5000                          : First reference value
STOP               .ft       8049.5                        : Last reference value
STEP               .ft       0.5                           : Step increment
NULL               .         -9999                         : Missing value
COMP               .                                       : Company
WELL               .         EGBM-002                      : Well name
FLD                .         EGBEMA                        : Field
LOC                .                                       : Location
SRVC               .                                       : Service Company
CTRY               .                                       : Country
DATE               .         1967/05/21                    : Service Date
X                  .                                       : X or East-West coordinate
Y                  .                                       : Y or North South coordinate
GDAT               .                                       : Geodetic Datum
HZCS               .                                       : Horizontal Co-ordinate System
APIN               .         10802/01                      : 
BHT                .degC     -999.25                       : 
BLI                .ft       8085                          : 
BS                 .in       -999.25                       : 
CREATION-TIME      .         2067/5/21 0_0                 : 
CSIZ               .in       7                             : 
DFD                .g/cm3    -999.25                       : 
DFT                .         BENT.SPERSE.                  : 
DFV                .s        -999.25                       : 
ELZ                .in       -999.25                       : 
FIELD-NAME         .         EGBEMA                        : 
FILE-ID            .         SOH6  .8                      : 
FILE-NUMBER        .         0                             : 
FILE-SET-NAME      .                                       : 
FILE-SET-NUMBER    .         0                             : 
FILE-TYPE          .         PTF                           : 
HIDE               .         Well/Hole_ EGBM-2  Service Name_ NL  Run Number_ 1: 
LCC                .         0                             : 
LMF                .         1                             : 
MST                .degC     -999.25                       : 
NAME-SPACE-NAME    .         LIS                           : 
NAME-SPACE-VERSION .         0                             : 
PRODUC             .         SHELL(PARASOL)                : 
PRODUCER-CODE      .         0                             : 
PRODUCER-NAME      .         Schlumberger                  : 
PRODUCT            .                                       : 
PROGRAMS           .         INC                           : 
R1                 .         N. SPACING = 19.5"<_techsia_br_>: 
R2                 .         <_techsia_br_>                : 
R3                 .         DISTANCE N.-CCL = 8 1/2<_techsia_br_>: 
R4                 .         TIME LAG        =<_techsia_br_>: 
R5                 .         CCL TOO DEEP BY9 1/2          : 
R6                 .         LATEROLOG 3<_techsia_br_>     : 
R7                 .         GUARD LENGTH  5'<_techsia_br_>: 
R8                 .         BEAM WIDTH 12"                : 
RMCS               .ohm.m    -999.25                       : 
RMFS               .ohm.m    -999.25                       : 
RMS                .ohm.m    -999.25                       : 
TCS                .h        -999.25                       : 
TDD                .ft       8087                          : 
TDL                .ft       8085                          : 
TLI                .ft       5000                          : 
VERSION            .         2P01                          : 
WELL-ID            .         10802/01                      : 
WELL-NAME          .         EGBM-002                      : 
WN                 .         EGBM-002                      : 
~Parameter Information Block
#_______________________________________________________________________________
#
#PARAMETER_NAME    .UNIT     VALUE                         : DESCRIPTION
#_______________________________________________________________________________
SET                .         SOH10 _7_1                    : 
ACQUISITION-PRODUCT .         DLIS/U                        : 
CREATION-TIME      .         2026/5/13 10_15               : 
DLIS_FRAME_DIRECTION .         INCREASING                    : 
DLIS_FRAME_NAME    .         1                             : 
DLIS_FRAME_SPACING .ft       0.5                           : 
FIELD-NAME         .         EGBEMA                        : 
FILE-ID            .         SOH10 .7                      : 
FILE-NUMBER        .         6                             : 
FILE-SET-NAME      .         LIS-TO-DLIS-CONVERSION        : 
FILE-SET-NUMBER    .         6309                          : 
FILE-TYPE          .         PTF                           : 
INDEX-TYPE         .         BOREHOLE-DEPTH                : 
NAME-SPACE-NAME    .                                       : 
NAME-SPACE-VERSION .         0                             : 
OriginalDatasetName .         1                             : 
PRODUCER-CODE      .         440                           : 
PRODUCER-NAME      .         Schlumberger                  : 
PRODUCT            .         DLIS/U                        : 
PROGRAMS           .         LIS-TO-DLIS                   : 
TLFamily_CALM      .         Caliper                       : 
TLFamily_DEPT      .         Measured Depth                : 
TLFamily_MLI       .         Resistivity - Micro           : 
TLFamily_MLN       .         Resistivity - Micro           : 
VERSION            .         0.1                           : 
WELL-ID            .         10802/01                      : 
WELL-NAME          .         EGBM-002                      : 
~Curve Information
#_______________________________________________________________________________
#
#LOGNAME           .UNIT     LOG_ID                        : DESCRIPTION
#_______________________________________________________________________________
DEPT               .ft                                     :  {F}
CALM               .in                                     :  {F}
MLI                .ohm.m                                  :  {F}
MLN                .ohm.m                                  :  {F}
~Ascii
# ...
5637       9.722109   1.62958    1.571369  
5637.5     9.73373    1.59726    1.667709  
5638       9.71776    1.726219   1.947889  
5638.5     9.731289   1.67186    1.90241   
5639       9.763609   1.64339    1.81038   
5639.5     9.769979   1.573339   1.8433    
5640       9.768789   1.54641    1.72555   
5640.5     9.76759    1.46278    1.6285    
5641       9.76639    1.39168    1.589979  
5641.5     9.66556    1.380819   1.62083   
5642       9.41263    1.282009   1.811549  
5642.5     9.310509   1.315579   1.96875   
5643       9.57881    1.36698    2.11731   
5643.5     10.19802   1.571919   2.11138   
5644       10.90928   1.18835    1.52792   
5644.5     10.34786   0.9336699  1.389509  
5645       9.962639   1.01143    1.442619  
5645.5     9.61125    1.17377    1.91196   
5646       9.565449   1.283629   2.07446   
5646.5     9.617569   1.224139   1.975129  
5647       9.687279   1.21875    1.824909  
5647.5     9.6553     1.05203    1.70797   
5648       9.60043    1.164909   1.67624   
5648.5     9.64019    1.06887    1.57865   
5649       9.664999   1.036929   1.60296   
5649.5     9.64876    0.97585    1.57158   
5650       9.58227    1.148459   1.64341   
5650.5     9.52046    1.14794    1.773399  
5651       9.624439   1.230849   1.584889  
5651.5     9.61701    1.36216    1.484719  
5652       9.460409   1.592879   1.9956    
5652.5     9.427149   1.211659   2.37298   
5653       9.78919    1.27471    3.040219  
5653.5     9.88991    1.88166    3.312079  
5654       9.578859   1.7176     3.09064   
5654.5     9.26613    1.54783    2.63789   
5655       9.193949   1.60637    2.409289  
5655.5     9.23209    1.463719   2.19136   
5656       9.262779   1.334109   2.17492   
5656.5     9.27313    1.63308    2.43936   
5657       9.2568     1.62923    2.436629  
5657.5     9.248079   1.61702    2.393809  
5658       9.21204    1.634569   2.42983   
5658.5     9.18486    1.61057    2.440209  
5659       9.157669   1.57206    2.416019  
5659.5     9.133739   1.566239   2.405439  
5660       9.17284    1.5927     2.40489   
5660.5     9.1752     1.586619   2.404349  
5661       9.211199   1.57605    2.423779  
5661.5     9.21048    1.621929   2.46268   
5662       9.209759   1.677649   2.501639  
5662.5     9.213339   1.64079    2.481219  
5663       9.248119   1.604699   2.39923   
5663.5     9.24901    1.516259   2.29375   
5664       9.24667    1.54184    2.2844    
5664.5     9.245949   1.577729   2.342879  
5665       9.24522    1.63941    2.40234   
5665.5     9.244499   1.64699    2.45992   
5666       9.24378    1.483729   2.46984   
5666.5     9.243919   1.45264    2.38937   
5667       9.28212    1.485729   2.36873   
5667.5     9.281399   1.477079   2.31358   
5668       9.30007    1.4892     2.28582   
5668.5     9.24119    1.6009     2.4801    
5669       9.23945    1.722039   2.577029  
5669.5     9.23872    1.75011    2.71225   
5670       9.19949    1.682099   2.709229  
5670.5     9.197519   1.63738    2.65102   
5671       9.196779   1.62396    2.70514   
5671.5     9.19606    1.645209   2.74902   
5672       9.23243    1.67729    2.74848   
5672.5     9.234289   1.693439   2.82867   
5673       9.271719   1.5321     2.794359  
5673.5     9.272629   1.49595    2.57576   
5674       9.27198    1.699949   2.79587   
5674.5     9.2892     1.744209   2.82347   
5675       9.30817    1.67721    2.74264   
5675.5     9.30958    1.663469   2.73339   
5676       9.308849   1.696919   2.7929    
5676.5     9.30813    1.686199   2.680329  
5677       9.3074     1.62579    2.597099  
5677.5     9.298059   1.66603    2.60866   
5678       9.28607    1.71812    2.70644   
5678.5     9.302189   1.757119   2.75208   
5679       9.28776    1.77638    2.71666   
5679.5     9.267239   1.788779   2.700709  
5680       9.2633     1.8016     2.70017   
5680.5     9.262579   1.83418    2.74402   
5681       9.26186    1.8664     2.72872   
5681.5     9.261139   1.88567    2.68814   
5682       9.228189   1.88511    2.678169  
5682.5     9.21995    1.89154    2.691179  
5683       9.219229   1.92365    2.727269  
5683.5     9.186869   1.89609    2.7512    
5684       9.178049   1.87288    2.78555   
5684.5     9.17733    2.02178    2.89345   
5685       9.207329   2.15331    2.89796   
5685.5     9.21562    2.1749     2.89302   
5686       9.24489    2.280479   2.885159  
5686.5     9.27335    2.056359   2.43055   
5687       9.311399   1.657479   2.12117   
5687.5     9.35498    1.40745    2.1109    
5688       9.39329    1.47748    2.16947   
5688.5     9.40991    1.822659   2.43189   
5689       9.40918    1.98967    2.705239  
5689.5     9.408449   1.863919   2.63489   
5690       9.407719   1.802239   2.551519  
5690.5     9.40699    1.782359   2.512409  
5691       9.40626    1.650229   2.509729  
5691.5     9.40554    1.67616    2.45757   
5692       9.40481    1.63019    2.42242   
5692.5     9.40988    1.65568    2.425389  
5693       9.44306    1.736199   2.46616   
5693.5     9.43718    1.6923     2.29838   
5694       9.401899   1.56691    2.21494   
5694.5     9.401169   1.585569   2.22501   
5695       9.360739   1.77463    2.353729  
5695.5     9.36001    1.90885    2.490849  
5696       9.322849   1.92344    2.656179  
5696.5     9.282539   1.87548    2.611569  
5697       9.24218    1.93641    2.68749   
5697.5     9.238029   2.071159   2.818729  
5698       9.237299   2.094899   2.79845   
5698.5     9.25407    1.90823    2.547239  
5699       9.275549   1.71237    2.36164   
5699.5     9.291769   1.731629   2.32045   
5700       9.313509   1.819229   2.401939  
5700.5     9.31237    1.82504    2.389649  
5701       9.311239   1.788509   2.30192   
5701.5     9.31012    1.837259   2.30584   
5702       9.309      1.97054    2.42951   
5702.5     9.30788    2.09905    2.53448   
5703       9.306749   1.95558    2.42886   
5703.5     9.30563    1.86378    2.352449  
5704       9.30451    1.776119   2.29043   
5704.5     9.303379   1.77586    2.31557   
5705       9.302259   1.762239   2.40589   
5705.5     9.30114    1.67875    2.388269  
5706       9.300009   1.607619   2.2863    
5706.5     9.33198    1.567829   2.21554   
5707       9.35379    1.59694    2.273049  
5707.5     9.37446    1.68784    2.398999  
5708       9.4077     1.72876    2.41508   
5708.5     9.413479   1.73067    2.43135   
5709       9.412359   1.70605    2.481669  
5709.5     9.44434    1.719319   2.255059  
5710       9.44982    1.57206    2.117539  
5710.5     9.48234    1.55491    2.17319   
5711       9.553669   1.894      2.377919  
5711.5     9.59878    1.75227    1.934979  
5712       9.570719   1.52422    1.96933   
5712.5     9.56332    1.48318    1.747629  
5713       9.61257    1.39565    1.69607   
5713.5     9.637459   1.38414    1.892989  
5714       9.63937    1.450709   1.925179  
5714.5     9.60424    1.497439   1.650339  
5715       9.5977     1.44043    1.914599  
5715.5     9.63414    1.148829   1.765499  
5716       9.672649   1.231009   1.739079  
5716.5     9.707769   1.362639   1.73183   
5717       9.677599   1.41344    1.716929  
5717.5     9.60162    1.253229   1.83233   
5718       9.5732     1.236629   1.88869   
5718.5     9.55065    1.20066    1.84274   
5719       9.584019   1.2844     1.78195   
5719.5     9.58737    1.222939   1.77532   
5720       9.61149    1.15778    1.767679  
5720.5     9.624409   1.13548    1.73866   
5721       9.62372    1.171289   1.755389  
5721.5     9.658329   1.276119   1.798349  
5722       9.661209   1.30128    1.826599  
5722.5     9.59264    1.386689   1.814819  
5723       9.43137    1.63976    1.84692   
5723.5     9.345409   1.94078    1.843149  
5724       9.300749   1.460569   1.53206   
5724.5     9.37191    1.63591    1.533279  
5725       9.563299   1.36805    1.472019  
5725.5     9.82988    1.211189   1.27212   
5726       10.066     1.40909    1.437059  
5726.5     9.942039   1.5342     1.565869  
5727       9.89077    1.59447    1.491799  
5727.5     9.999239   1.312759   1.50009   
