~Version
 VERS              .         3.0                           : CWLS LOG ASCII STANDARD - VERSION 3.0
 WRAP              .         NO                            : ONE LINE PER DEPTH STEP
 DLM               .         SPACE                         : DELIMITING CHARACTER(SPACE TAB OR COMMA)
~Well Information
#_______________________________________________________________________________
#
#PARAMETER_NAME    .UNIT     VALUE                         : DESCRIPTION
#_______________________________________________________________________________
STRT               .ft       5000                          : First reference value
STOP               .ft       8049.5                        : Last reference value
STEP               .ft       0.5                           : Step increment
NULL               .         -9999                         : Missing value
COMP               .                                       : Company
WELL               .         EGBM-002                      : Well name
FLD                .         EGBEMA                        : Field
LOC                .                                       : Location
SRVC               .                                       : Service Company
CTRY               .                                       : Country
DATE               .         1967/05/21                    : Service Date
X                  .                                       : X or East-West coordinate
Y                  .                                       : Y or North South coordinate
GDAT               .                                       : Geodetic Datum
HZCS               .                                       : Horizontal Co-ordinate System
APIN               .         10802/01                      : 
BHT                .degC     -999.25                       : 
BLI                .ft       8085                          : 
BS                 .in       -999.25                       : 
CREATION-TIME      .         2067/5/21 0_0                 : 
CSIZ               .in       7                             : 
DFD                .g/cm3    -999.25                       : 
DFT                .         BENT.SPERSE.                  : 
DFV                .s        -999.25                       : 
ELZ                .in       -999.25                       : 
FIELD-NAME         .         EGBEMA                        : 
FILE-ID            .         SOH6  .8                      : 
FILE-NUMBER        .         0                             : 
FILE-SET-NAME      .                                       : 
FILE-SET-NUMBER    .         0                             : 
FILE-TYPE          .         PTF                           : 
HIDE               .         Well/Hole_ EGBM-2  Service Name_ NL  Run Number_ 1: 
LCC                .         0                             : 
LMF                .         1                             : 
MST                .degC     -999.25                       : 
NAME-SPACE-NAME    .         LIS                           : 
NAME-SPACE-VERSION .         0                             : 
PRODUC             .         SHELL(PARASOL)                : 
PRODUCER-CODE      .         0                             : 
PRODUCER-NAME      .         Schlumberger                  : 
PRODUCT            .                                       : 
PROGRAMS           .         INC                           : 
R1                 .         N. SPACING = 19.5"<_techsia_br_>: 
R2                 .         <_techsia_br_>                : 
R3                 .         DISTANCE N.-CCL = 8 1/2<_techsia_br_>: 
R4                 .         TIME LAG        =<_techsia_br_>: 
R5                 .         CCL TOO DEEP BY9 1/2          : 
R6                 .         LATEROLOG 3<_techsia_br_>     : 
R7                 .         GUARD LENGTH  5'<_techsia_br_>: 
R8                 .         BEAM WIDTH 12"                : 
RMCS               .ohm.m    -999.25                       : 
RMFS               .ohm.m    -999.25                       : 
RMS                .ohm.m    -999.25                       : 
TCS                .h        -999.25                       : 
TDD                .ft       8087                          : 
TDL                .ft       8085                          : 
TLI                .ft       5000                          : 
VERSION            .         2P01                          : 
WELL-ID            .         10802/01                      : 
WELL-NAME          .         EGBM-002                      : 
WN                 .         EGBM-002                      : 
~Parameter Information Block
#_______________________________________________________________________________
#
#PARAMETER_NAME    .UNIT     VALUE                         : DESCRIPTION
#_______________________________________________________________________________
SET                .         SOH10 _7_1                    : 
ACQUISITION-PRODUCT .         DLIS/U                        : 
CREATION-TIME      .         2026/5/13 10_15               : 
DLIS_FRAME_DIRECTION .         INCREASING                    : 
DLIS_FRAME_NAME    .         1                             : 
DLIS_FRAME_SPACING .ft       0.5                           : 
FIELD-NAME         .         EGBEMA                        : 
FILE-ID            .         SOH10 .7                      : 
FILE-NUMBER        .         6                             : 
FILE-SET-NAME      .         LIS-TO-DLIS-CONVERSION        : 
FILE-SET-NUMBER    .         6309                          : 
FILE-TYPE          .         PTF                           : 
INDEX-TYPE         .         BOREHOLE-DEPTH                : 
NAME-SPACE-NAME    .                                       : 
NAME-SPACE-VERSION .         0                             : 
OriginalDatasetName .         1                             : 
PRODUCER-CODE      .         440                           : 
PRODUCER-NAME      .         Schlumberger                  : 
PRODUCT            .         DLIS/U                        : 
PROGRAMS           .         LIS-TO-DLIS                   : 
TLFamily_CALM      .         Caliper                       : 
TLFamily_DEPT      .         Measured Depth                : 
TLFamily_MLI       .         Resistivity - Micro           : 
TLFamily_MLN       .         Resistivity - Micro           : 
VERSION            .         0.1                           : 
WELL-ID            .         10802/01                      : 
WELL-NAME          .         EGBM-002                      : 
~Curve Information
#_______________________________________________________________________________
#
#LOGNAME           .UNIT     LOG_ID                        : DESCRIPTION
#_______________________________________________________________________________
DEPT               .ft                                     :  {F}
CALM               .in                                     :  {F}
MLI                .ohm.m                                  :  {F}
MLN                .ohm.m                                  :  {F}
~Ascii
# ...
7912       8.96381    1.371779   1.83427   
7912.5     8.967239   1.300349   1.791019  
7913       9.117989   1.628759   2.05085   
7913.5     8.95627    1.340199   2.08962   
7914       8.840969   1.33427    2.03766   
7914.5     8.83979    1.350329   2.05421   
7915       8.83861    1.4324     2.05236   
7915.5     8.837429   1.40763    2.01878   
7916       8.83625    1.298579   1.96562   
7916.5     8.85573    1.184159   1.8679    
7917       8.8748     1.08536    1.78434   
7917.5     8.951839   1.08437    1.69844   
7918       9.102699   1.819099   1.731199  
7918.5     9.18947    3.86613    1.8432    
7919       9.06728    2.33295    1.793509  
7919.5     8.90638    1.310209   1.701309  
7920       8.787439   1.14827    1.633619  
7920.5     8.80925    1.179219   1.641729  
7921       8.94199    1.338209   1.745749  
7921.5     8.980259   1.26688    1.87087   
7922       9.017609   1.357679   1.95053   
7922.5     9.272989   1.63347    2.139359  
7923       9.431339   2.088739   2.45107   
7923.5     9.49172    1.91595    2.983609  
7924       9.226879   1.672729   2.670139  
7924.5     9.09761    2.02825    2.422689  
7925       9.16226    2.11022    2.58924   
7925.5     9.29118    2.106299   2.39304   
7926       9.32324    2.39539    2.90125   
7926.5     9.288399   2.05073    3.18429   
7927       9.231749   2.77811    3.24496   
7927.5     9.239559   2.466379   3.452379  
7928       9.278759   2.523089   3.40875   
7928.5     9.24729    2.23316    3.40261   
7929       9.1684     1.62537    2.046289  
7929.5     9.123449   1.75898    2.131269  
7930       9.18755    1.49185    2.02889   
7930.5     9.29707    1.30347    1.56508   
7931       9.38566    1.219239   1.25332   
7931.5     9.322559   0.99017    1.14639   
7932       9.27677    0.97219    1.18122   
7932.5     9.252979   1.11558    1.240769  
7933       9.26556    1.12774    1.213449  
7933.5     9.13061    0.97568    1.132319  
7934       9.07172    0.9172699  1.06459   
7934.5     9.26585    0.8962799  1.05308   
7935       9.498499   0.89256    1.11399   
7935.5     9.411749   1.152619   1.17231   
7936       9.27125    1.120939   1.14184   
7936.5     9.21109    1.053579   1.08552   
7937       9.31197    1.231879   1.153279  
7937.5     9.48938    1.51757    1.45965   
7938       9.659269   1.359019   1.5877    
7938.5     9.811869   1.34909    1.53165   
7939       9.855259   1.09474    1.35959   
7939.5     9.720919   0.934      1.18754   
7940       9.845779   1.166539   1.11922   
7940.5     9.880819   1.150579   1.08371   
7941       9.68816    1.096889   1.056849  
7941.5     9.56349    1.172959   1.124     
7942       9.58037    1.27621    1.07483   
7942.5     9.683969   1.20836    1.07379   
7943       9.673479   1.265989   1.101609  
7943.5     9.54484    1.21478    1.05643   
7944       9.429899   1.15026    1.00066   
7944.5     9.39892    1.21081    0.97228   
7945       9.397739   1.156779   0.9642199 
7945.5     9.357189   1.238729   0.9337699 
7946       9.34598    1.2035     0.96762   
7946.5     9.37862    1.142989   1.025949  
7947       9.444969   1.19611    1.06463   
7947.5     9.588699   1.141669   1.100949  
7948       9.548149   1.142289   1.081719  
7948.5     9.507599   1.18131    1.11162   
7949       9.427679   1.30186    1.160419  
7949.5     9.341169   1.455219   1.241099  
7950       9.32044    1.87231    1.283119  
7950.5     9.6805     1.91173    1.2932    
7951       9.89558    1.51967    1.27699   
7951.5     9.89456    1.309759   1.16029   
7952       9.834349   1.221089   1.09822   
7952.5     9.90941    1.22923    1.097779  
7953       10.08838   1.173759   1.03669   
7953.5     10.04223   1.176869   1.032089  
7954       9.961149   1.19642    1.051559  
7954.5     9.888399   1.17944    1.04089   
7955       9.92675    1.19876    1.04503   
7955.5     9.907709   1.23771    1.128759  
7956       9.83749    1.30415    1.2161    
7956.5     9.776159   1.31699    1.211129  
7957       9.765079   1.268519   1.153749  
7957.5     9.81171    1.29322    1.123819  
7958       9.84181    1.260839   1.11767   
7958.5     9.79731    1.177099   1.097819  
7959       9.76944    1.10749    1.0502    
7959.5     9.856329   1.07158    1.01876   
7960       9.963989   1.02555    1.011189  
7960.5     9.962019   0.94849    0.9445599 
7961       9.759499   0.90949    0.86628   
7961.5     9.667709   1.001929   0.8974299 
7962       9.67594    0.99641    0.97136   
7962.5     9.6749     0.85464    0.94133   
7963       9.614889   1.014839   0.96187   
7963.5     9.534229   1.48617    1.46422   
7964       9.438139   1.92571    2.25873   
7964.5     9.399279   2.09627    2.2336    
7965       9.551619   1.680619   2.059799  
7965.5     9.71501    1.314719   2.2448    
7966       9.42938    1.43635    2.244309  
7966.5     9.12388    1.30985    2.22163   
7967       9.00914    1.510469   2.19879   
7967.5     8.96154    1.451159   2.173369  
7968       8.98637    1.355619   2.13241   
7968.5     8.99218    1.352329   2.10207   
7969       8.95853    1.455649   2.108959  
7969.5     8.950619   1.435269   1.984289  
7970       8.94956    1.3188     1.701269  
7970.5     8.977339   1.2646     1.64637   
7971       9.050449   1.27214    1.679589  
7971.5     9.096119   1.297549   1.7567    
7972       9.10305    1.26017    1.870159  
7972.5     9.03866    1.32148    2.017529  
7973       8.925219   1.33064    2.087649  
7973.5     8.9972     1.18538    1.804009  
7974       9.23218    0.9895899  1.6783    
7974.5     9.354069   1.41881    1.610399  
7975       9.449089   2.03848    1.53587   
7975.5     9.55508    1.68117    1.416409  
7976       9.274649   1.234179   1.30884   
7976.5     8.99963    1.283999   1.29604   
7977       9.012239   1.179219   1.67108   
7977.5     8.949369   1.464129   2.121249  
7978       8.835979   1.37591    2.27417   
7978.5     8.74832    1.50601    2.365789  
7979       8.700209   1.468249   2.18814   
7979.5     8.69293    1.41636    2.00175   
7980       8.691429   1.429259   1.863729  
7980.5     8.721479   1.3578     1.78624   
7981       8.72875    1.31193    1.75455   
7981.5     8.75983    1.318629   1.71921   
7982       8.79792    1.316649   1.685969  
7982.5     8.772499   1.26845    1.666869  
7983       8.7479     1.251499   1.652929  
7983.5     8.727049   1.26898    1.649099  
7984       8.72229    1.27667    1.666559  
7984.5     8.721209   1.31038    1.69312   
7985       8.72743    1.29915    1.71777   
7985.5     8.752729   1.269279   1.76188   
7986       8.757469   1.315829   1.786019  
7986.5     8.75639    1.30526    1.765289  
7987       8.75531    1.244109   1.68353   
7987.5     8.75424    1.1875     1.63653   
7988       8.75316    1.20896    1.61753   
7988.5     8.783199   1.245339   1.623529  
7989       8.790499   1.244889   1.70018   
7989.5     8.82518    1.25188    1.79247   
7990       8.82785    1.285669   1.849079  
7990.5     8.862329   1.29163    1.847489  
7991       8.8652     1.34392    1.791349  
7991.5     8.86413    1.306499   1.75581   
7992       8.86306    1.15683    1.71941   
7992.5     8.891949   1.07996    1.64343   
7993       8.9153     1.03245    1.59419   
7993.5     8.943619   1.006379   1.5737    
7994       8.91308    0.98376    1.57461   
7994.5     8.800739   1.04777    1.65568   
7995       8.79776    1.06016    1.67517   
7995.5     8.875389   1.05971    1.66126   
7996       9.0198     1.116389   1.68473   
7996.5     9.13501    1.464259   1.94236   
7997       9.223289   1.93254    2.09147   
7997.5     9.267349   1.667259   1.721999  
7998       9.29908    1.368959   1.53231   
7998.5     9.322439   1.27391    1.32778   
7999       9.22854    1.108589   1.27576   
7999.5     9.28344    1.10502    1.203699  
8000       9.43667    1.210079   1.098539  
8000.5     9.55612    1.094879   0.99956   
8001       9.55057    1.01334    0.9321699 
8001.5     9.468439   1.002649   0.8751999 
8002       9.394449   1.04885    0.87044   
8002.5     9.353739   1.073489   0.8345    
