~Version
 VERS              .         3.0                           : CWLS LOG ASCII STANDARD - VERSION 3.0
 WRAP              .         NO                            : ONE LINE PER DEPTH STEP
 DLM               .         SPACE                         : DELIMITING CHARACTER(SPACE TAB OR COMMA)
~Well Information
#_______________________________________________________________________________
#
#PARAMETER_NAME    .UNIT     VALUE                         : DESCRIPTION
#_______________________________________________________________________________
STRT               .ft       5000                          : First reference value
STOP               .ft       8049.5                        : Last reference value
STEP               .ft       0.5                           : Step increment
NULL               .         -9999                         : Missing value
COMP               .                                       : Company
WELL               .         EGBM-002                      : Well name
FLD                .         EGBEMA                        : Field
LOC                .                                       : Location
SRVC               .                                       : Service Company
CTRY               .                                       : Country
DATE               .         1967/05/21                    : Service Date
X                  .                                       : X or East-West coordinate
Y                  .                                       : Y or North South coordinate
GDAT               .                                       : Geodetic Datum
HZCS               .                                       : Horizontal Co-ordinate System
APIN               .         10802/01                      : 
BHT                .degC     -999.25                       : 
BLI                .ft       8085                          : 
BS                 .in       -999.25                       : 
CREATION-TIME      .         2067/5/21 0_0                 : 
CSIZ               .in       7                             : 
DFD                .g/cm3    -999.25                       : 
DFT                .         BENT.SPERSE.                  : 
DFV                .s        -999.25                       : 
ELZ                .in       -999.25                       : 
FIELD-NAME         .         EGBEMA                        : 
FILE-ID            .         SOH6  .8                      : 
FILE-NUMBER        .         0                             : 
FILE-SET-NAME      .                                       : 
FILE-SET-NUMBER    .         0                             : 
FILE-TYPE          .         PTF                           : 
HIDE               .         Well/Hole_ EGBM-2  Service Name_ NL  Run Number_ 1: 
LCC                .         0                             : 
LMF                .         1                             : 
MST                .degC     -999.25                       : 
NAME-SPACE-NAME    .         LIS                           : 
NAME-SPACE-VERSION .         0                             : 
PRODUC             .         SHELL(PARASOL)                : 
PRODUCER-CODE      .         0                             : 
PRODUCER-NAME      .         Schlumberger                  : 
PRODUCT            .                                       : 
PROGRAMS           .         INC                           : 
R1                 .         N. SPACING = 19.5"<_techsia_br_>: 
R2                 .         <_techsia_br_>                : 
R3                 .         DISTANCE N.-CCL = 8 1/2<_techsia_br_>: 
R4                 .         TIME LAG        =<_techsia_br_>: 
R5                 .         CCL TOO DEEP BY9 1/2          : 
R6                 .         LATEROLOG 3<_techsia_br_>     : 
R7                 .         GUARD LENGTH  5'<_techsia_br_>: 
R8                 .         BEAM WIDTH 12"                : 
RMCS               .ohm.m    -999.25                       : 
RMFS               .ohm.m    -999.25                       : 
RMS                .ohm.m    -999.25                       : 
TCS                .h        -999.25                       : 
TDD                .ft       8087                          : 
TDL                .ft       8085                          : 
TLI                .ft       5000                          : 
VERSION            .         2P01                          : 
WELL-ID            .         10802/01                      : 
WELL-NAME          .         EGBM-002                      : 
WN                 .         EGBM-002                      : 
~Parameter Information Block
#_______________________________________________________________________________
#
#PARAMETER_NAME    .UNIT     VALUE                         : DESCRIPTION
#_______________________________________________________________________________
SET                .         SOH10 _7_1                    : 
ACQUISITION-PRODUCT .         DLIS/U                        : 
CREATION-TIME      .         2026/5/13 10_15               : 
DLIS_FRAME_DIRECTION .         INCREASING                    : 
DLIS_FRAME_NAME    .         1                             : 
DLIS_FRAME_SPACING .ft       0.5                           : 
FIELD-NAME         .         EGBEMA                        : 
FILE-ID            .         SOH10 .7                      : 
FILE-NUMBER        .         6                             : 
FILE-SET-NAME      .         LIS-TO-DLIS-CONVERSION        : 
FILE-SET-NUMBER    .         6309                          : 
FILE-TYPE          .         PTF                           : 
INDEX-TYPE         .         BOREHOLE-DEPTH                : 
NAME-SPACE-NAME    .                                       : 
NAME-SPACE-VERSION .         0                             : 
OriginalDatasetName .         1                             : 
PRODUCER-CODE      .         440                           : 
PRODUCER-NAME      .         Schlumberger                  : 
PRODUCT            .         DLIS/U                        : 
PROGRAMS           .         LIS-TO-DLIS                   : 
TLFamily_CALM      .         Caliper                       : 
TLFamily_DEPT      .         Measured Depth                : 
TLFamily_MLI       .         Resistivity - Micro           : 
TLFamily_MLN       .         Resistivity - Micro           : 
VERSION            .         0.1                           : 
WELL-ID            .         10802/01                      : 
WELL-NAME          .         EGBM-002                      : 
~Curve Information
#_______________________________________________________________________________
#
#LOGNAME           .UNIT     LOG_ID                        : DESCRIPTION
#_______________________________________________________________________________
DEPT               .ft                                     :  {F}
CALM               .in                                     :  {F}
MLI                .ohm.m                                  :  {F}
MLN                .ohm.m                                  :  {F}
~Ascii
# ...
6001       9.327009   1.342239   1.957069  
6001.5     9.36997    1.4133     1.81534   
6002       9.479639   1.514339   1.810459  
6002.5     9.529449   1.575669   2.02617   
6003       9.604019   1.483749   1.68648   
6003.5     9.7834     1.35992    1.74556   
6004       10.05813   1.45546    1.698589  
6004.5     10.09053   1.62597    1.733359  
6005       10.02545   1.52004    1.93297   
6005.5     9.93947    1.47855    1.9191    
6006       10.13587   1.702889   1.83834   
6006.5     10.1406    1.719359   1.8375    
6007       10.10149   1.618959   1.89643   
6007.5     10.15958   1.677219   1.97573   
6008       10.27867   1.89565    1.958309  
6008.5     10.29536   1.83863    1.838449  
6009       10.29593   1.718229   1.7781    
6009.5     10.2965    1.71865    1.73905   
6010       10.29707   1.79492    1.767759  
6010.5     10.26494   1.443979   1.698669  
6011       10.39086   1.601549   1.7001    
6011.5     10.43409   1.658139   1.71723   
6012       10.43836   1.68098    1.6805    
6012.5     10.45503   1.71476    1.72436   
6013       10.43823   1.55258    1.57547   
6013.5     10.42022   1.405479   1.50357   
6014       10.4208    1.546209   1.601319  
6014.5     10.43734   1.659599   1.61043   
6015       10.45774   1.625219   1.63843   
6015.5     10.52565   1.58011    1.603009  
6016       10.54229   1.648219   1.68679   
6016.5     10.51127   1.66912    1.61121   
6017       10.50371   1.540589   1.523829  
6017.5     10.50428   1.5407     1.38696   
6018       10.50486   1.509749   1.47542   
6018.5     10.50544   1.4106     1.37229   
6019       10.44331   1.53444    1.371469  
6019.5     10.39574   1.563379   1.45642   
6020       10.38793   1.57782    1.48471   
6020.5     10.37458   1.5778     1.401959  
6021       10.32228   1.50878    1.42476   
6021.5     10.31014   1.48681    1.443419  
6022       10.34183   1.48965    1.35944   
6022.5     10.38626   1.4254     1.34586   
6023       10.4068    1.42542    1.37941   
6023.5     10.42935   1.289499   1.33848   
6024       10.43226   1.28686    1.32663   
6024.5     10.40212   1.35024    1.34789   
6025       10.3783    1.372829   1.355929  
6025.5     10.35901   1.4217     1.323509  
6026       10.3489    1.46795    1.33865   
6026.5     10.33975   1.40912    1.36344   
6027       10.35913   1.384029   1.30625   
6027.5     10.39651   1.361469   1.28714   
6028       10.41976   1.340199   1.311219  
6028.5     10.44288   1.342549   1.246699  
6029       10.48042   1.27615    1.22507   
6029.5     10.51813   1.056939   1.215349  
6030       10.55848   1.10547    1.16587   
6030.5     10.56147   1.259339   1.16064   
6031       10.59942   1.25011    1.1956    
6031.5     10.6       1.18576    1.170699  
6032       10.60058   1.24507    1.146119  
6032.5     10.64094   1.24601    1.186009  
6033       10.64153   1.2351     1.17079   
6033.5     10.64211   1.236919   1.146509  
6034       10.64269   1.179529   1.166519  
6034.5     10.66509   1.20214    1.10596   
6035       10.68731   1.12233    1.08847   
6035.5     10.72403   1.142839   1.14703   
6036       10.72461   1.134399   1.127279  
6036.5     10.7252    1.09093    1.128969  
6037       10.72257   1.066139   1.163549  
6037.5     10.68657   1.097139   1.15117   
6038       10.68406   1.1317     1.147679  
6038.5     10.64793   1.20048    1.18754   
6039       10.64851   1.17114    1.16671   
6039.5     10.6491    1.185499   1.16793   
6040       10.66958   1.12709    1.168059  
6040.5     10.69007   1.14382    1.12585   
6041       10.6894    1.128599   1.128599  
6041.5     10.65143   1.11164    1.125839  
6042       10.65201   1.108999   1.108999  
6042.5     10.65259   1.128989   1.10784   
6043       10.63474   1.12912    1.12912   
6043.5     10.65376   1.220329   1.109389  
6044       10.65434   1.135159   1.129379  
6044.5     10.67577   1.109659   1.0898    
6045       10.69533   1.14571    1.089939  
6045.5     10.6951    1.093989   1.10594   
6046       10.65588   1.10627    1.06619   
6046.5     10.61427   1.081759   1.050639  
6047       10.49767   1.03253    1.07062   
6047.5     10.49909   1.03408    1.02646   
6048       10.5395    1.01135    1.00212   
6048.5     10.54008   1.04987    1.020769  
6049       10.54066   1.051319   0.9935399 
6049.5     10.54013   1.07129    0.95224   
6050       10.50062   1.03177    0.9523799 
6050.5     10.46198   1.051499   0.92686   
6051       10.4346    0.9988999  0.93292   
6051.5     10.42178   1.05196    0.96718   
6052       10.43414   1.053089   0.93405   
6052.5     10.42143   0.9151     0.93443   
6053       10.41129   0.9542999  0.9544699 
6053.5     10.38455   0.9947     0.97472   
6054       10.371     1.08669    1.004959  
6054.5     10.34108   1.18713    1.04165   
6055       10.33075   1.19421    1.055349  
6055.5     10.33092   1.20113    1.035879  
6056       10.3664    1.28076    1.096     
6056.5     10.4976    1.580319   1.215159  
6057       10.61619   2.757549   1.16233   
6057.5     10.42998   1.664889   1.11632   
6058       10.30818   1.13647    1.046809  
6058.5     10.19917   1.123309   0.9984699 
6059       10.14047   1.07819    0.9786099 
6059.5     10.15095   1.13248    0.9397299 
6060       10.1907    1.10238    0.92027   
6060.5     10.24414   1.079309   0.92435   
6061       10.30999   1.15172    0.94831   
6061.5     10.36081   1.08748    1.04359   
6062       10.44048   1.27949    1.403749  
6062.5     10.50882   1.534949   1.709869  
6063       10.54284   1.54044    1.85611   
6063.5     10.56259   3.09219    1.71945   
6064       10.57534   3.72857    1.521819  
6064.5     10.5763    1.467649   1.39656   
6065       10.56456   1.118609   1.265429  
6065.5     10.51871   1.083059   1.16642   
6066       10.47053   1.06146    1.079419  
6066.5     10.43277   1.06121    1.07208   
6067       10.29664   1.5582     1.131949  
6067.5     10.15405   1.198979   1.135859  
6068       10.09773   1.264549   1.09235   
6068.5     10.09757   1.16078    1.023149  
6069       10.0974    1.12115    0.97806   
6069.5     10.09724   1.145539   0.9557099 
6070       10.04019   1.08789    0.9433299 
6070.5     9.953659   1.06699    0.92821   
6071       9.885899   1.08873    0.9285899 
6071.5     9.8459     1.08756    0.90914   
6072       9.805939   1.08462    0.8896999 
6072.5     9.780289   1.04867    0.9117    
6073       9.796249   1.058949   0.9535899 
6073.5     9.8487     1.07648    1.03863   
6074       9.921799   1.192169   1.12467   
6074.5     9.995119   1.02265    1.170959  
6075       10.04747   0.9490399  1.1874    
6075.5     10.04282   1.14732    1.169849  
6076       10.01561   1.102599   1.150399  
6076.5     10.02826   0.97324    1.13095   
6077       10.06796   1.297      1.167419  
6077.5     10.09286   1.444759   1.500649  
6078       10.12399   1.273319   1.62888   
6078.5     10.13406   1.29322    1.58828   
6079       10.1339    1.221749   1.58865   
6079.5     10.13373   1.28021    1.644919  
6080       10.13357   3.267489   1.713909  
6080.5     10.13341   4.27743    1.6249    
6081       10.13324   3.745259   1.604839  
6081.5     10.13308   3.58741    1.639819  
6082       10.09217   2.6317     1.601089  
6082.5     9.999939   1.573669   1.45222   
6083       10.03576   1.321899   1.342199  
6083.5     9.942049   1.585529   1.254439  
6084       9.88431    1.213949   1.19306   
6084.5     10.05263   1.060189   1.131149  
6085       9.95525    1.34954    1.10112   
6085.5     9.719019   1.04441    1.16103   
6086       9.61515    1.048869   1.268809  
6086.5     9.60808    1.18808    1.41924   
6087       9.601959   1.393889   1.54672   
6087.5     9.635729   1.42112    1.49899   
6088       9.69532    1.29814    1.25877   
6088.5     9.731689   1.0406     1.141789  
6089       9.747719   0.99728    1.05487   
6089.5     9.77301    0.9709899  1.02613   
6090       9.77286    0.9787799  1.037709  
6090.5     9.75709    1.01196    1.073469  
6091       9.71833    1.15088    1.1135    
6091.5     9.694109   1.10168    1.10675   
