~Version
 VERS              .         3.0                           : CWLS LOG ASCII STANDARD - VERSION 3.0
 WRAP              .         NO                            : ONE LINE PER DEPTH STEP
 DLM               .         SPACE                         : DELIMITING CHARACTER(SPACE TAB OR COMMA)
~Well Information
#_______________________________________________________________________________
#
#PARAMETER_NAME    .UNIT     VALUE                         : DESCRIPTION
#_______________________________________________________________________________
STRT               .ft       5000                          : First reference value
STOP               .ft       8049.5                        : Last reference value
STEP               .ft       0.5                           : Step increment
NULL               .         -9999                         : Missing value
COMP               .                                       : Company
WELL               .         EGBM-002                      : Well name
FLD                .         EGBEMA                        : Field
LOC                .                                       : Location
SRVC               .                                       : Service Company
CTRY               .                                       : Country
DATE               .         1967/05/21                    : Service Date
X                  .                                       : X or East-West coordinate
Y                  .                                       : Y or North South coordinate
GDAT               .                                       : Geodetic Datum
HZCS               .                                       : Horizontal Co-ordinate System
APIN               .         10802/01                      : 
BHT                .degC     -999.25                       : 
BLI                .ft       8085                          : 
BS                 .in       -999.25                       : 
CREATION-TIME      .         2067/5/21 0_0                 : 
CSIZ               .in       7                             : 
DFD                .g/cm3    -999.25                       : 
DFT                .         BENT.SPERSE.                  : 
DFV                .s        -999.25                       : 
ELZ                .in       -999.25                       : 
FIELD-NAME         .         EGBEMA                        : 
FILE-ID            .         SOH6  .8                      : 
FILE-NUMBER        .         0                             : 
FILE-SET-NAME      .                                       : 
FILE-SET-NUMBER    .         0                             : 
FILE-TYPE          .         PTF                           : 
HIDE               .         Well/Hole_ EGBM-2  Service Name_ NL  Run Number_ 1: 
LCC                .         0                             : 
LMF                .         1                             : 
MST                .degC     -999.25                       : 
NAME-SPACE-NAME    .         LIS                           : 
NAME-SPACE-VERSION .         0                             : 
PRODUC             .         SHELL(PARASOL)                : 
PRODUCER-CODE      .         0                             : 
PRODUCER-NAME      .         Schlumberger                  : 
PRODUCT            .                                       : 
PROGRAMS           .         INC                           : 
R1                 .         N. SPACING = 19.5"<_techsia_br_>: 
R2                 .         <_techsia_br_>                : 
R3                 .         DISTANCE N.-CCL = 8 1/2<_techsia_br_>: 
R4                 .         TIME LAG        =<_techsia_br_>: 
R5                 .         CCL TOO DEEP BY9 1/2          : 
R6                 .         LATEROLOG 3<_techsia_br_>     : 
R7                 .         GUARD LENGTH  5'<_techsia_br_>: 
R8                 .         BEAM WIDTH 12"                : 
RMCS               .ohm.m    -999.25                       : 
RMFS               .ohm.m    -999.25                       : 
RMS                .ohm.m    -999.25                       : 
TCS                .h        -999.25                       : 
TDD                .ft       8087                          : 
TDL                .ft       8085                          : 
TLI                .ft       5000                          : 
VERSION            .         2P01                          : 
WELL-ID            .         10802/01                      : 
WELL-NAME          .         EGBM-002                      : 
WN                 .         EGBM-002                      : 
~Parameter Information Block
#_______________________________________________________________________________
#
#PARAMETER_NAME    .UNIT     VALUE                         : DESCRIPTION
#_______________________________________________________________________________
SET                .         SOH10 _7_1                    : 
ACQUISITION-PRODUCT .         DLIS/U                        : 
CREATION-TIME      .         2026/5/13 10_15               : 
DLIS_FRAME_DIRECTION .         INCREASING                    : 
DLIS_FRAME_NAME    .         1                             : 
DLIS_FRAME_SPACING .ft       0.5                           : 
FIELD-NAME         .         EGBEMA                        : 
FILE-ID            .         SOH10 .7                      : 
FILE-NUMBER        .         6                             : 
FILE-SET-NAME      .         LIS-TO-DLIS-CONVERSION        : 
FILE-SET-NUMBER    .         6309                          : 
FILE-TYPE          .         PTF                           : 
INDEX-TYPE         .         BOREHOLE-DEPTH                : 
NAME-SPACE-NAME    .                                       : 
NAME-SPACE-VERSION .         0                             : 
OriginalDatasetName .         1                             : 
PRODUCER-CODE      .         440                           : 
PRODUCER-NAME      .         Schlumberger                  : 
PRODUCT            .         DLIS/U                        : 
PROGRAMS           .         LIS-TO-DLIS                   : 
TLFamily_CALM      .         Caliper                       : 
TLFamily_DEPT      .         Measured Depth                : 
TLFamily_MLI       .         Resistivity - Micro           : 
TLFamily_MLN       .         Resistivity - Micro           : 
VERSION            .         0.1                           : 
WELL-ID            .         10802/01                      : 
WELL-NAME          .         EGBM-002                      : 
~Curve Information
#_______________________________________________________________________________
#
#LOGNAME           .UNIT     LOG_ID                        : DESCRIPTION
#_______________________________________________________________________________
DEPT               .ft                                     :  {F}
CALM               .in                                     :  {F}
MLI                .ohm.m                                  :  {F}
MLN                .ohm.m                                  :  {F}
~Ascii
# ...
7730       10.57423   0.91396    0.84049   
7730.5     10.5258    0.88018    0.8404599 
7731       10.58599   0.85981    0.8398399 
7731.5     10.69563   0.85948    0.8195599 
7732       10.7603    0.8974199  0.8388799 
7732.5     10.47758   0.86025    0.81923   
7733       9.997269   0.8191099  0.7988    
7733.5     9.62048    0.81826    0.79775   
7734       9.239979   0.8368     0.8170199 
7734.5     9.091749   0.88489    0.8123699 
7735       9.076899   0.9148899  0.81599   
7735.5     9.185379   0.90043    0.85413   
7736       9.268919   0.96163    0.85864   
7736.5     9.308359   1.028239   0.84733   
7737       9.27725    1.035509   0.8559099 
7737.5     9.27038    1.035179   0.85558   
7738       9.23402    1.019199   0.8379999 
7738.5     9.192369   1.01456    0.8549299 
7739       9.150709   1.03457    0.88745   
7739.5     9.144129   1.130039   0.9299799 
7740       9.21093    1.124229   0.9381599 
7740.5     9.220209   1.054859   0.88174   
7741       9.184309   1.0976     0.88887   
7741.5     9.14263    1.17707    0.93286   
7742       9.100979   1.18668    0.96689   
7742.5     9.05929    1.11185    0.96473   
7743       9.05258    1.071879   0.95189   
7743.5     9.21488    1.14267    0.93888   
7744       9.347679   1.16255    0.95104   
7744.5     9.36401    1.14228    0.9294599 
7745       9.289879   1.113629   0.9109    
7745.5     9.208549   1.1313     0.9102299 
7746       9.13476    1.1641     0.92364   
7746.5     9.083059   1.188789   0.9293    
7747       9.04081    1.188459   0.92918   
7747.5     9.0366     1.17417    0.9288599 
7748       9.00131    1.14086    0.9368    
7748.5     9.02651    1.143499   0.94003   
7749       9.064209   1.18668    0.92818   
7749.5     9.19688    1.262939   0.95524   
7750       9.319759   1.3448     0.97094   
7750.5     9.3524     1.28681    0.9682    
7751       9.382879   1.20649    0.93835   
7751.5     9.34543    1.18584    0.9266    
7752       9.34503    1.264959   0.9430699 
7752.5     9.344639   1.30437    0.9820499 
7753       9.36709    1.22246    0.9671099 
7753.5     9.383659   1.176229   0.9312199 
7754       9.423059   1.1789     0.92422   
7754.5     9.394339   1.257299   0.92379   
7755       9.38246    1.3398     0.9617599 
7755.5     9.382059   1.27067    0.9867799 
7756       9.42144    1.27428    0.98359   
7756.5     9.42104    1.358259   0.9649999 
7757       9.460409   1.27899    0.9764    
7757.5     9.481039   1.2816     1.006049  
7758       9.53912    1.27302    0.9935399 
7758.5     9.55323    1.19413    0.98071   
7759       9.618029   1.20764    1.00031   
7759.5     9.65704    1.26518    1.01973   
7760       9.69644    1.29562    0.9994    
7760.5     9.656439   1.23625    0.9832    
7761       9.635899   1.18415    0.97869   
7761.5     9.63559    1.19243    0.99444   
7762       9.654959   1.24577    0.99788   
7762.5     9.733      1.248059   0.97921   
7763       9.792269   1.201679   0.9784399 
7763.5     9.84993    1.21632    0.9952199 
7764       9.85178    1.25072    0.99637   
7764.5     9.85132    1.224609   0.9959899 
7765       9.85087    1.199289   1.012959  
7765.5     9.85041    1.22217    1.01859   
7766       9.961979   1.20198    1.03476   
7766.5     10.03927   1.14026    1.03438   
7767       10.0823    1.11691    1.033999  
7767.5     10.12109   1.19325    1.03362   
7768       10.12583   1.149719   1.05147   
7768.5     10.09056   1.11473    1.072769  
7769       10.08519   1.09235    1.09071   
7769.5     9.682709   1.132489   1.12923   
7770       9.16176    1.458389   1.16854   
7770.5     8.998569   2.03947    1.547119  
7771       8.90967    1.77265    2.31003   
7771.5     8.795729   1.77846    2.26902   
7772       8.700899   1.64971    2.18678   
7772.5     8.69478    1.63876    2.111899  
7773       8.743959   1.57934    2.195109  
7773.5     9.12738    1.461189   2.180659  
7774       9.65711    1.433929   1.90424   
7774.5     9.921429   1.508679   1.527699  
7775       9.767879   1.126989   1.395329  
7775.5     9.49357    1.32947    1.437119  
7776       9.606279   0.99771    1.226789  
7776.5     10.06376   0.69477    1.143849  
7777       9.85928    0.78441    0.98948   
7777.5     9.68222    0.86008    1.05962   
7778       9.51963    1.244989   1.35427   
7778.5     9.3948     1.677299   1.68573   
7779       9.402849   1.70669    1.655979  
7779.5     9.442009   1.330159   1.431359  
7780       9.3993     1.931149   1.57766   
7780.5     9.35569    2.43898    1.672859  
7781       9.32214    1.540799   1.491369  
7781.5     9.321739   1.361839   1.53687   
7782       9.32135    1.48934    1.584189  
7782.5     9.32095    1.684039   1.621079  
7783       9.299309   1.4661     1.760289  
7783.5     9.47039    1.141279   1.4387    
7784       9.5569     0.91852    1.05231   
7784.5     9.514      1.303949   1.113119  
7785       9.421009   1.584499   1.263269  
7785.5     9.39192    1.297279   1.171929  
7786       9.357689   1.15656    1.020849  
7786.5     9.3573     1.363379   1.13241   
7787       9.3174     1.4128     1.262569  
7787.5     9.28676    1.251019   1.243509  
7788       9.362429   2.03374    1.295799  
7788.5     9.439289   2.474239   2.749519  
7789       9.513199   2.715739   3.411699  
7789.5     9.533819   2.647719   2.96772   
7790       9.551819   2.20404    2.29908   
7790.5     9.551399   2.06706    2.019     
7791       9.55098    1.90308    1.863979  
7791.5     9.55055    2.213369   2.09596   
7792       9.550129   2.73674    2.4094    
7792.5     9.529989   1.72851    1.85186   
7793       9.52486    1.584319   1.908939  
7793.5     9.548859   1.2739     1.604219  
7794       9.58787    1.21225    1.29324   
7794.5     9.586679   1.17787    1.26615   
7795       9.562069   1.095679   1.140599  
7795.5     9.678169   0.99291    1.034129  
7796       9.62435    0.9069799  0.89328   
7796.5     9.49139    1.140889   1.01289   
7797       9.492159   2.370939   1.64685   
7797.5     9.58634    1.29729    1.244269  
7798       9.663219   1.04865    1.00851   
7798.5     9.66279    1.01448    0.94091   
7799       9.66235    1.086659   0.94823   
7799.5     9.73975    0.89762    0.88323   
7800       9.85404    0.82094    0.8367    
7800.5     9.756599   0.9407899  0.93619   
7801       9.699459   0.96627    0.89823   
7801.5     9.65943    1.01553    1.02844   
7802       9.69813    1.126989   1.00307   
7802.5     9.69747    0.98184    0.90406   
7803       9.69681    0.9892     0.9430799 
7803.5     9.637039   1.021139   1.021689  
7804       9.618849   0.96839    0.92828   
7804.5     9.66058    0.9821     1.004399  
7805       9.78116    0.96524    0.9844899 
7805.5     9.850939   0.9647399  1.02257   
7806       9.86832    1.02285    0.98366   
7806.5     9.888969   1.00488    1.025399  
7807       9.739359   1.14907    1.04181   
7807.5     9.534519   1.05946    1.101569  
7808       9.431009   1.10419    1.198449  
7808.5     9.348509   1.39331    1.21968   
7809       9.36492    1.85495    1.18191   
7809.5     9.406      1.109179   1.0885    
7810       9.411619   1.369089   1.027659  
7810.5     9.41139    1.22864    1.138909  
7811       9.34383    1.1178     1.117599  
7811.5     9.28034    1.04128    1.0161    
7812       9.32247    1.13657    1.02557   
7812.5     9.47031    1.035529   0.97806   
7813       9.51964    1.075649   0.97813   
7813.5     9.525089   1.057389   1.01435   
7814       9.557669   1.209129   1.036429  
7814.5     9.66045    1.21682    1.11399   
7815       9.744669   1.43297    1.153589  
7815.5     9.774839   1.540839   1.413529  
7816       9.729599   1.61482    1.45953   
7816.5     9.685589   1.877259   1.651899  
7817       9.774849   2.035769   1.670979  
7817.5     9.811659   2.02392    1.49111   
7818       9.73274    1.38332    1.35915   
7818.5     9.731409   1.39919    1.269759  
7819       9.7836     1.55688    1.32344   
7819.5     9.799589   1.440359   1.34863   
7820       9.759199   1.48792    1.31181   
7820.5     9.752289   1.442109   1.29216   
