~Version
 VERS              .         3.0                           : CWLS LOG ASCII STANDARD - VERSION 3.0
 WRAP              .         NO                            : ONE LINE PER DEPTH STEP
 DLM               .         SPACE                         : DELIMITING CHARACTER(SPACE TAB OR COMMA)
~Well Information
#_______________________________________________________________________________
#
#PARAMETER_NAME    .UNIT     VALUE                         : DESCRIPTION
#_______________________________________________________________________________
STRT               .ft       5000                          : First reference value
STOP               .ft       8049.5                        : Last reference value
STEP               .ft       0.5                           : Step increment
NULL               .         -9999                         : Missing value
COMP               .                                       : Company
WELL               .         EGBM-002                      : Well name
FLD                .         EGBEMA                        : Field
LOC                .                                       : Location
SRVC               .                                       : Service Company
CTRY               .                                       : Country
DATE               .         1967/05/21                    : Service Date
X                  .                                       : X or East-West coordinate
Y                  .                                       : Y or North South coordinate
GDAT               .                                       : Geodetic Datum
HZCS               .                                       : Horizontal Co-ordinate System
APIN               .         10802/01                      : 
BHT                .degC     -999.25                       : 
BLI                .ft       8085                          : 
BS                 .in       -999.25                       : 
CREATION-TIME      .         2067/5/21 0_0                 : 
CSIZ               .in       7                             : 
DFD                .g/cm3    -999.25                       : 
DFT                .         BENT.SPERSE.                  : 
DFV                .s        -999.25                       : 
ELZ                .in       -999.25                       : 
FIELD-NAME         .         EGBEMA                        : 
FILE-ID            .         SOH6  .8                      : 
FILE-NUMBER        .         0                             : 
FILE-SET-NAME      .                                       : 
FILE-SET-NUMBER    .         0                             : 
FILE-TYPE          .         PTF                           : 
HIDE               .         Well/Hole_ EGBM-2  Service Name_ NL  Run Number_ 1: 
LCC                .         0                             : 
LMF                .         1                             : 
MST                .degC     -999.25                       : 
NAME-SPACE-NAME    .         LIS                           : 
NAME-SPACE-VERSION .         0                             : 
PRODUC             .         SHELL(PARASOL)                : 
PRODUCER-CODE      .         0                             : 
PRODUCER-NAME      .         Schlumberger                  : 
PRODUCT            .                                       : 
PROGRAMS           .         INC                           : 
R1                 .         N. SPACING = 19.5"<_techsia_br_>: 
R2                 .         <_techsia_br_>                : 
R3                 .         DISTANCE N.-CCL = 8 1/2<_techsia_br_>: 
R4                 .         TIME LAG        =<_techsia_br_>: 
R5                 .         CCL TOO DEEP BY9 1/2          : 
R6                 .         LATEROLOG 3<_techsia_br_>     : 
R7                 .         GUARD LENGTH  5'<_techsia_br_>: 
R8                 .         BEAM WIDTH 12"                : 
RMCS               .ohm.m    -999.25                       : 
RMFS               .ohm.m    -999.25                       : 
RMS                .ohm.m    -999.25                       : 
TCS                .h        -999.25                       : 
TDD                .ft       8087                          : 
TDL                .ft       8085                          : 
TLI                .ft       5000                          : 
VERSION            .         2P01                          : 
WELL-ID            .         10802/01                      : 
WELL-NAME          .         EGBM-002                      : 
WN                 .         EGBM-002                      : 
~Parameter Information Block
#_______________________________________________________________________________
#
#PARAMETER_NAME    .UNIT     VALUE                         : DESCRIPTION
#_______________________________________________________________________________
SET                .         SOH10 _7_1                    : 
ACQUISITION-PRODUCT .         DLIS/U                        : 
CREATION-TIME      .         2026/5/13 10_15               : 
DLIS_FRAME_DIRECTION .         INCREASING                    : 
DLIS_FRAME_NAME    .         1                             : 
DLIS_FRAME_SPACING .ft       0.5                           : 
FIELD-NAME         .         EGBEMA                        : 
FILE-ID            .         SOH10 .7                      : 
FILE-NUMBER        .         6                             : 
FILE-SET-NAME      .         LIS-TO-DLIS-CONVERSION        : 
FILE-SET-NUMBER    .         6309                          : 
FILE-TYPE          .         PTF                           : 
INDEX-TYPE         .         BOREHOLE-DEPTH                : 
NAME-SPACE-NAME    .                                       : 
NAME-SPACE-VERSION .         0                             : 
OriginalDatasetName .         1                             : 
PRODUCER-CODE      .         440                           : 
PRODUCER-NAME      .         Schlumberger                  : 
PRODUCT            .         DLIS/U                        : 
PROGRAMS           .         LIS-TO-DLIS                   : 
TLFamily_CALM      .         Caliper                       : 
TLFamily_DEPT      .         Measured Depth                : 
TLFamily_MLI       .         Resistivity - Micro           : 
TLFamily_MLN       .         Resistivity - Micro           : 
VERSION            .         0.1                           : 
WELL-ID            .         10802/01                      : 
WELL-NAME          .         EGBM-002                      : 
~Curve Information
#_______________________________________________________________________________
#
#LOGNAME           .UNIT     LOG_ID                        : DESCRIPTION
#_______________________________________________________________________________
DEPT               .ft                                     :  {F}
CALM               .in                                     :  {F}
MLI                .ohm.m                                  :  {F}
MLN                .ohm.m                                  :  {F}
~Ascii
# ...
5728       9.932409   1.338289   1.46966   
5728.5     9.81316    1.350039   1.586989  
5729       9.65394    1.459599   1.410629  
5729.5     9.56908    1.46377    1.421189  
5730       9.48699    1.44282    1.43335   
5730.5     9.44367    1.3579     1.40263   
5731       9.442429   1.33682    1.317369  
5731.5     9.557299   1.335019   1.261499  
5732       9.67477    1.42696    1.403399  
5732.5     9.714859   1.42207    1.50563   
5733       9.87163    1.417239   1.652089  
5733.5     9.95022    1.67244    1.82341   
5734       9.81654    1.476919   1.86022   
5734.5     9.71418    1.396689   1.84132   
5735       9.78956    1.49352    1.93792   
5735.5     9.906429   1.816839   2.256539  
5736       9.79088    2.37342    2.50426   
5736.5     9.74803    1.59656    2.084439  
5737       9.825779   1.662319   1.940559  
5737.5     9.82546    1.66892    1.95651   
5738       9.82416    1.392799   2.05126   
5738.5     9.82316    1.47296    2.07487   
5739       9.901419   1.892039   2.1114    
5739.5     9.979719   1.75762    2.20513   
5740       9.900799   1.70842    2.94703   
5740.5     10.13519   3.38188    2.558579  
5741       10.00968   2.0288     2.041969  
5741.5     9.41099    1.508619   1.58391   
5742       9.34844    1.212359   1.26409   
5742.5     9.500059   1.113219   1.14777   
5743       9.54077    1.041309   1.04241   
5743.5     9.66028    1.004729   1.057309  
5744       9.80764    1.01295    1.106709  
5744.5     9.7672     1.09015    1.040919  
5745       9.68928    1.10677    2.23216   
5745.5     9.7097     1.30672    2.58262   
5746       9.71735    1.388439   2.617749  
5746.5     9.598049   1.408759   2.69745   
5747       9.54554    1.424729   2.7223    
5747.5     9.86165    1.464709   2.67326   
5748       9.91168    2.02949    2.628779  
5748.5     9.939249   1.68685    2.642349  
5749       9.92746    1.585219   2.6676    
5749.5     9.48324    1.529679   2.59233   
5750       9.27985    1.37593    2.584499  
5750.5     9.20163    1.36805    2.57461   
5751       9.298939   1.46322    2.627     
5751.5     9.50993    1.72905    2.69984   
5752       9.80846    1.933769   2.764239  
5752.5     9.423729   1.647019   2.676479  
5753       9.2988     1.479609   2.55196   
5753.5     9.353979   1.48946    2.53033   
5754       9.469229   1.40663    2.63676   
5754.5     9.45525    1.68613    2.75317   
5755       9.39628    1.72767    2.86862   
5755.5     9.35478    1.621389   2.26711   
5756       9.35338    1.584729   2.15076   
5756.5     9.352829   1.58927    2.15976   
5757       9.31612    1.638889   2.211829  
5757.5     9.312359   1.69002    2.28376   
5758       9.2733     1.74224    2.28201   
5758.5     9.2341     1.75904    2.271709  
5759       9.27006    1.731119   2.26779   
5759.5     9.27066    1.691059   2.22771   
5760       9.270149   1.81528    2.355909  
5760.5     9.269619   1.82831    2.41976   
5761       9.2691     1.79062    2.37776   
5761.5     9.268579   1.85761    2.35818   
5762       9.28516    1.79929    2.39802   
5762.5     9.30657    1.691689   2.386809  
5763       9.27256    1.685289   2.31747   
5763.5     9.227859   1.96128    2.502239  
5764       9.18885    2.03092    2.71338   
5764.5     9.18647    2.11354    2.78372   
5765       9.185949   2.041599   2.73706   
5765.5     9.185429   2.02424    2.71357   
5766       9.18491    2.072309   2.73804   
5766.5     9.184389   2.024779   2.58921   
5767       9.16608    1.805619   2.49197   
5767.5     9.145859   1.706269   2.47506   
5768       9.178619   1.70556    2.558169  
5768.5     9.18231    1.645679   2.49002   
5769       9.181789   1.610909   2.42054   
5769.5     9.181269   1.628269   2.49998   
5770       9.163359   1.62307    2.51935   
5770.5     9.14159    1.525209   2.45686   
5771       9.1747     1.490789   2.35049   
5771.5     9.247499   1.53821    2.34061   
5772       9.45731    2.18466    2.27704   
5772.5     9.469059   1.87299    2.19924   
5773       9.387659   1.525829   2.18966   
5773.5     9.36772    1.836989   2.31226   
5774       9.45517    1.811      2.179999  
5774.5     9.813      4.37848    2.180349  
5775       10.12244   3.99556    2.18147   
5775.5     10.01155   3.35149    2.09593   
5776       9.81044    2.18398    1.97178   
5776.5     9.670059   1.07268    1.89567   
5777       9.66222    0.97163    1.609409  
5777.5     9.742109   1.07759    1.547179  
5778       9.858459   0.95866    1.446469  
5778.5     9.54109    1.2771     1.70395   
5779       9.35268    1.14631    1.74476   
5779.5     9.296919   1.41478    1.80724   
5780       9.25695    1.366739   2.15681   
5780.5     9.21295    1.329969   2.16087   
5781       9.20874    1.340059   2.10139   
5781.5     9.20822    1.336459   2.10133   
5782       9.207699   1.3593     2.10261   
5782.5     9.20718    1.39705    2.223169  
5783       9.20665    1.5153     2.4183    
5783.5     9.206129   1.459149   2.33577   
5784       9.220989   1.36325    2.26532   
5784.5     9.244509   1.357599   2.261029  
5785       9.24399    1.41068    2.28265   
5785.5     9.2736     1.472019   2.322519  
5786       9.28236    1.47125    2.35841   
5786.5     9.28183    1.497029   2.35612   
5787       9.296129   1.536839   2.333529  
5787.5     9.32019    1.5147     2.32099   
5788       9.31967    1.498569   2.35901   
5788.5     9.319139   1.62389    2.498859  
5789       9.318619   1.66045    2.585919  
5789.5     9.31809    1.528279   2.422359  
5790       9.31757    1.406659   2.28378   
5790.5     9.317039   1.403299   2.27491   
5791       9.316519   1.406699   2.27846   
5791.5     9.31599    1.35427    2.23014   
5792       9.27607    1.31353    2.15385   
5792.5     9.30368    1.30752    2.123159  
5793       9.314419   1.2919     2.07887   
5793.5     9.353279   1.1833     1.94415   
5794       9.392139   1.142179   1.86953   
5794.5     9.4335     1.148669   1.731549  
5795       9.496569   1.08855    1.596359  
5795.5     9.46805    1.052629   1.478769  
5796       9.335899   1.289769   1.46054   
5796.5     9.31074    1.198689   1.466849  
5797       9.310219   1.106179   1.99618   
5797.5     9.30969    1.24076    2.03864   
5798       9.30917    1.26643    2.147229  
5798.5     9.32217    1.314389   2.356609  
5799       9.353979   1.69276    2.52323   
5799.5     9.38611    1.40171    2.372419  
5800       9.424259   1.34695    2.11418   
5800.5     9.45833    1.39816    2.168059  
5801       9.464329   1.458179   2.22652   
5801.5     9.429739   1.4821     2.3129    
5802       9.424709   1.55933    2.40099   
5802.5     9.39031    1.549809   2.39168   
5803       9.38508    1.52485    2.41521   
5803.5     9.384949   1.388969   2.29782   
5804       9.384819   1.4486     2.218019  
5804.5     9.41843    1.514219   2.283099  
5805       9.45752    1.28947    2.0736    
5805.5     9.5299     1.133829   1.868059  
5806       9.608139   1.210999   1.81701   
5806.5     9.686399   1.0736     1.7091    
5807       9.720909   0.9955     1.73      
5807.5     9.564199   1.126229   1.84915   
5808       9.47604    1.1622     1.95126   
5808.5     9.42988    1.21972    2.041369  
5809       9.487909   1.21194    2.01196   
5809.5     9.50173    1.143209   1.945809  
5810       9.50161    1.19364    2.004709  
5810.5     9.50149    1.20842    2.0645    
5811       9.55826    1.287459   2.14225   
5811.5     9.706299   1.220229   2.1457    
5812       9.96159    1.04612    1.70255   
5812.5     10.00698   1.06605    1.71137   
5813       9.96756    1.062209   1.672959  
5813.5     9.974239   1.053949   1.695069  
5814       10.03442   0.98516    1.6777    
5814.5     10.05301   1.1145     1.68816   
5815       10.12593   0.98315    1.65628   
5815.5     9.8354     1.33824    1.69471   
5816       9.80006    1.202149   2.15337   
5816.5     10.01324   0.98086    1.69561   
5817       10.05309   1.00319    1.663119  
5817.5     10.41274   1.58196    2.13244   
5818       10.63545   2.524509   2.3608    
5818.5     10.47958   2.643399   2.41055   
