~Version
 VERS              .         3.0                           : CWLS LOG ASCII STANDARD - VERSION 3.0
 WRAP              .         NO                            : ONE LINE PER DEPTH STEP
 DLM               .         SPACE                         : DELIMITING CHARACTER(SPACE TAB OR COMMA)
~Well Information
#_______________________________________________________________________________
#
#PARAMETER_NAME    .UNIT     VALUE                         : DESCRIPTION
#_______________________________________________________________________________
STRT               .ft       5000                          : First reference value
STOP               .ft       8049.5                        : Last reference value
STEP               .ft       0.5                           : Step increment
NULL               .         -9999                         : Missing value
COMP               .                                       : Company
WELL               .         EGBM-002                      : Well name
FLD                .         EGBEMA                        : Field
LOC                .                                       : Location
SRVC               .                                       : Service Company
CTRY               .                                       : Country
DATE               .         1967/05/21                    : Service Date
X                  .                                       : X or East-West coordinate
Y                  .                                       : Y or North South coordinate
GDAT               .                                       : Geodetic Datum
HZCS               .                                       : Horizontal Co-ordinate System
APIN               .         10802/01                      : 
BHT                .degC     -999.25                       : 
BLI                .ft       8085                          : 
BS                 .in       -999.25                       : 
CREATION-TIME      .         2067/5/21 0_0                 : 
CSIZ               .in       7                             : 
DFD                .g/cm3    -999.25                       : 
DFT                .         BENT.SPERSE.                  : 
DFV                .s        -999.25                       : 
ELZ                .in       -999.25                       : 
FIELD-NAME         .         EGBEMA                        : 
FILE-ID            .         SOH6  .8                      : 
FILE-NUMBER        .         0                             : 
FILE-SET-NAME      .                                       : 
FILE-SET-NUMBER    .         0                             : 
FILE-TYPE          .         PTF                           : 
HIDE               .         Well/Hole_ EGBM-2  Service Name_ NL  Run Number_ 1: 
LCC                .         0                             : 
LMF                .         1                             : 
MST                .degC     -999.25                       : 
NAME-SPACE-NAME    .         LIS                           : 
NAME-SPACE-VERSION .         0                             : 
PRODUC             .         SHELL(PARASOL)                : 
PRODUCER-CODE      .         0                             : 
PRODUCER-NAME      .         Schlumberger                  : 
PRODUCT            .                                       : 
PROGRAMS           .         INC                           : 
R1                 .         N. SPACING = 19.5"<_techsia_br_>: 
R2                 .         <_techsia_br_>                : 
R3                 .         DISTANCE N.-CCL = 8 1/2<_techsia_br_>: 
R4                 .         TIME LAG        =<_techsia_br_>: 
R5                 .         CCL TOO DEEP BY9 1/2          : 
R6                 .         LATEROLOG 3<_techsia_br_>     : 
R7                 .         GUARD LENGTH  5'<_techsia_br_>: 
R8                 .         BEAM WIDTH 12"                : 
RMCS               .ohm.m    -999.25                       : 
RMFS               .ohm.m    -999.25                       : 
RMS                .ohm.m    -999.25                       : 
TCS                .h        -999.25                       : 
TDD                .ft       8087                          : 
TDL                .ft       8085                          : 
TLI                .ft       5000                          : 
VERSION            .         2P01                          : 
WELL-ID            .         10802/01                      : 
WELL-NAME          .         EGBM-002                      : 
WN                 .         EGBM-002                      : 
~Parameter Information Block
#_______________________________________________________________________________
#
#PARAMETER_NAME    .UNIT     VALUE                         : DESCRIPTION
#_______________________________________________________________________________
SET                .         SOH10 _7_1                    : 
ACQUISITION-PRODUCT .         DLIS/U                        : 
CREATION-TIME      .         2026/5/13 10_15               : 
DLIS_FRAME_DIRECTION .         INCREASING                    : 
DLIS_FRAME_NAME    .         1                             : 
DLIS_FRAME_SPACING .ft       0.5                           : 
FIELD-NAME         .         EGBEMA                        : 
FILE-ID            .         SOH10 .7                      : 
FILE-NUMBER        .         6                             : 
FILE-SET-NAME      .         LIS-TO-DLIS-CONVERSION        : 
FILE-SET-NUMBER    .         6309                          : 
FILE-TYPE          .         PTF                           : 
INDEX-TYPE         .         BOREHOLE-DEPTH                : 
NAME-SPACE-NAME    .                                       : 
NAME-SPACE-VERSION .         0                             : 
OriginalDatasetName .         1                             : 
PRODUCER-CODE      .         440                           : 
PRODUCER-NAME      .         Schlumberger                  : 
PRODUCT            .         DLIS/U                        : 
PROGRAMS           .         LIS-TO-DLIS                   : 
TLFamily_CALM      .         Caliper                       : 
TLFamily_DEPT      .         Measured Depth                : 
TLFamily_MLI       .         Resistivity - Micro           : 
TLFamily_MLN       .         Resistivity - Micro           : 
VERSION            .         0.1                           : 
WELL-ID            .         10802/01                      : 
WELL-NAME          .         EGBM-002                      : 
~Curve Information
#_______________________________________________________________________________
#
#LOGNAME           .UNIT     LOG_ID                        : DESCRIPTION
#_______________________________________________________________________________
DEPT               .ft                                     :  {F}
CALM               .in                                     :  {F}
MLI                .ohm.m                                  :  {F}
MLN                .ohm.m                                  :  {F}
~Ascii
# ...
5273       9.87141    1.60487    1.55203   
5273.5     9.858139   1.594069   1.841789  
5274       9.892519   1.263619   1.372069  
5274.5     9.894859   1.18376    1.042029  
5275       9.92572    1.197169   1.002009  
5275.5     9.899229   1.18012    1.034389  
5276       9.85545    1.226419   1.03762   
5276.5     9.811249   1.24552    1.071859  
5277       9.80842    1.36278    1.181629  
5277.5     9.84164    1.28823    1.12315   
5278       9.88295    1.25443    1.059199  
5278.5     9.917339   1.284479   1.105579  
5279       9.888739   1.22046    1.057739  
5279.5     9.881039   1.120159   0.9419299 
5280       9.842199   1.22958    0.94111   
5280.5     9.875719   1.19405    0.96233   
5281       9.90551    1.09437    0.9214699 
5281.5     9.978399   1.12214    0.91088   
5282       10.02381   1.142719   0.90783   
5282.5     10.03223   1.08851    0.87993   
5283       10.0003    1.065789   0.86629   
5283.5     9.989609   1.09182    0.8841599 
5284       9.957819   1.05944    0.86841   
5284.5     9.91647    1.018149   0.85579   
5285       9.90663    1.056959   0.8811899 
5285.5     9.90424    1.05993    0.8651999 
5286       9.88287    1.08604    0.86615   
5286.5     9.86149    1.004129   0.8469599 
5287       9.860079   0.95584    0.81066   
5287.5     9.858679   1.00128    0.80431   
5288       9.8535     1.0076     0.81584   
5288.5     9.815849   0.98013    0.80694   
5289       9.81443    0.95409    0.7783799 
5289.5     9.813009   0.94524    0.75948   
5290       9.85162    1.083059   0.76896   
5290.5     9.89299    1.42099    1.22767   
5291       10.00823   1.71861    1.508909  
5291.5     10.12567   1.58855    1.62432   
5292       9.90608    0.9850999  1.217549  
5292.5     9.76436    1.01431    0.97079   
5293       9.80356    1.232559   1.059159  
5293.5     9.80151    1.01198    0.98904   
5294       9.76026    0.91307    0.89217   
5294.5     9.87578    0.88218    0.81826   
5295       9.99798    0.8811899  0.78282   
5295.5     9.996599   0.89587    0.81747   
5296       9.92008    0.9500899  0.8795099 
5296.5     10.02071   1.01526    0.9675499 
5297       10.10668   1.025459   0.9762399 
5297.5     10.15181   0.99062    0.9518399 
5298       10.1748    1.240029   0.94865   
5298.5     10.38627   1.68254    1.319409  
5299       10.49083   1.63909    2.15076   
5299.5     10.51351   1.65979    2.341969  
5300       10.36039   1.87058    2.403179  
5300.5     10.0877    1.996969   2.439369  
5301       9.979479   2.289829   2.68909   
5301.5     9.896109   2.49082    3.140909  
5302       9.85334    2.781179   3.359349  
5302.5     9.77331    3.27411    3.94241   
5303       9.771429   3.660769   4.62471   
5303.5     9.72385    3.87051    5.06161   
5304       9.6332     2.6922     4.38669   
5304.5     9.470449   2.183949   2.87826   
5305       9.39436    2.779329   2.71214   
5305.5     9.35178    2.317189   2.97989   
5306       9.327589   2.500589   3.00618   
5306.5     9.368629   3.048229   3.468209  
5307       9.40387    3.60886    3.93409   
5307.5     9.48971    3.36224    4.46937   
5308       9.628649   2.67711    2.89532   
5308.5     9.89995    2.29958    2.11315   
5309       10.15779   1.84065    1.836499  
5309.5     10.30857   1.60533    1.72164   
5310       10.2665    1.57146    1.673329  
5310.5     10.2149    1.494969   1.6683    
5311       10.18241   1.54284    1.648219  
5311.5     10.20289   1.592799   1.61105   
5312       10.22103   1.513659   1.57025   
5312.5     10.21864   1.37184    1.547379  
5313       10.03581   1.241409   1.33184   
5313.5     9.845499   1.159679   0.98083   
5314       9.815229   1.18987    1.031309  
5314.5     9.85556    1.30382    1.122749  
5315       9.87726    1.01472    0.86391   
5315.5     9.88476    1.162279   0.89745   
5316       9.88286    1.304139   0.90095   
5316.5     9.873299   1.092389   0.83994   
5317       9.80628    1.02       0.8974    
5317.5     9.71722    1.027679   0.8492399 
5318       9.755339   1.00285    0.8634599 
5318.5     9.753469   0.96848    0.81654   
5319       9.69066    0.93817    0.7697799 
5319.5     9.60684    0.90201    0.7613    
5320       9.535679   0.93294    0.80193   
5320.5     9.46636    0.9371099  0.8022699 
5321       9.43766    0.902      0.7908599 
5321.5     9.422789   0.90983    0.79914   
5322       9.42098    0.88035    0.76756   
5322.5     9.41917    0.8944399  0.7193199 
5323       9.41736    0.90939    0.7122799 
5323.5     9.41555    0.90152    0.76429   
5324       9.41374    0.89475    0.7952    
5324.5     9.41193    0.88035    0.75633   
5325       9.41013    0.84057    0.70573   
5325.5     9.403049   0.84104    0.6742799 
5326       9.38117    1.0511     0.69495   
5326.5     9.36623    0.79659    0.71201   
5327       9.36318    0.77249    0.72574   
5327.5     9.37254    0.82576    0.7305499 
5328       9.45109    0.8257099  0.74842   
5328.5     9.56319    0.82741    0.78688   
5329       9.66427    1.0419     0.86102   
5329.5     9.59717    1.02551    0.9557099 
5330       9.46315    1.13015    0.91747   
5330.5     9.338209   0.8938     0.75616   
5331       9.310869   0.8776599  0.70056   
5331.5     9.280739   0.9511299  0.7523199 
5332       9.236309   1.017019   0.8206899 
5332.5     9.224579   1.048429   0.8221899 
5333       9.261959   1.16813    0.77388   
5333.5     9.273649   0.9483299  0.7274699 
5334       9.311499   0.8433     0.72075   
5334.5     9.362339   0.7826799  0.6813099 
5335       9.41382    0.77177    0.65966   
5335.5     9.41201    0.7765499  0.65879   
5336       9.396929   0.87111    0.6726199 
5336.5     9.355      0.81836    0.6770899 
5337       9.297489   0.86185    0.68364   
5337.5     9.29998    0.8846999  0.70973   
5338       9.36558    1.055679   0.7314399 
5338.5     9.44088    1.021689   0.72648   
5339       9.425249   0.81564    0.7130799 
5339.5     9.36762    0.8255199  0.74068   
5340       9.387579   0.86791    0.89397   
5340.5     9.557129   0.9883     1.24126   
5341       9.860319   2.1705     2.42984   
5341.5     10.14179   3.18368    3.201059  
5342       10.24246   3.92349    4.124559  
5342.5     10.14987   4.24791    4.28082   
5343       10.0262    4.1494     4.07955   
5343.5     9.90258    3.79563    3.6623    
5344       9.83202    3.543349   3.3575    
5344.5     9.65654    3.11979    3.04108   
5345       9.491529   2.34209    2.95556   
5345.5     9.40147    2.3207     2.768089  
5346       9.429359   2.489249   2.71602   
5346.5     9.49884    2.345969   2.75671   
5347       9.62645    2.101919   2.6409    
5347.5     9.793819   2.35668    2.65416   
5348       9.97472    1.85833    2.300659  
5348.5     10.08253   1.580569   2.017819  
5349       9.849129   1.647099   2.38118   
5349.5     9.601419   2.112969   2.69282   
5350       9.417519   3.04945    3.04799   
5350.5     9.401949   3.60291    3.526959  
5351       9.468769   3.168059   3.232539  
5351.5     9.475479   3.480209   3.073299  
5352       9.47455    2.64061    2.76864   
5352.5     9.44157    2.96739    3.04556   
5353       9.39366    2.816279   3.035999  
5353.5     9.390839   2.442249   2.662519  
5354       9.355669   2.72892    3.10427   
5354.5     9.351379   2.3685     2.71495   
5355       9.35046    2.492929   2.7674    
5355.5     9.349539   2.087669   2.320479  
5356       9.348619   1.96001    2.359859  
5356.5     9.380249   1.93998    2.26894   
5357       9.386269   1.859409   2.171329  
5357.5     9.41762    1.90027    2.33344   
5358       9.423929   1.860789   2.28726   
5358.5     9.423      1.855829   2.320729  
5359       9.422079   1.793489   2.318689  
5359.5     9.42115    1.951289   2.3276    
5360       9.38422    1.8304     2.07395   
5360.5     9.41213    1.803929   1.789029  
5361       9.481859   1.56341    1.636149  
5361.5     9.496439   1.474839   1.587649  
5362       9.4636     1.47524    1.60755   
5362.5     9.415609   1.69986    1.89919   
5363       9.41819    1.496349   1.535589  
5363.5     9.51614    1.461989   1.316509  
