~Version
 VERS              .         3.0                           : CWLS LOG ASCII STANDARD - VERSION 3.0
 WRAP              .         NO                            : ONE LINE PER DEPTH STEP
 DLM               .         SPACE                         : DELIMITING CHARACTER(SPACE TAB OR COMMA)
~Well Information
#_______________________________________________________________________________
#
#PARAMETER_NAME    .UNIT     VALUE                         : DESCRIPTION
#_______________________________________________________________________________
STRT               .ft       5000                          : First reference value
STOP               .ft       8049.5                        : Last reference value
STEP               .ft       0.5                           : Step increment
NULL               .         -9999                         : Missing value
COMP               .                                       : Company
WELL               .         EGBM-002                      : Well name
FLD                .         EGBEMA                        : Field
LOC                .                                       : Location
SRVC               .                                       : Service Company
CTRY               .                                       : Country
DATE               .         1967/05/21                    : Service Date
X                  .                                       : X or East-West coordinate
Y                  .                                       : Y or North South coordinate
GDAT               .                                       : Geodetic Datum
HZCS               .                                       : Horizontal Co-ordinate System
APIN               .         10802/01                      : 
BHT                .degC     -999.25                       : 
BLI                .ft       8085                          : 
BS                 .in       -999.25                       : 
CREATION-TIME      .         2067/5/21 0_0                 : 
CSIZ               .in       7                             : 
DFD                .g/cm3    -999.25                       : 
DFT                .         BENT.SPERSE.                  : 
DFV                .s        -999.25                       : 
ELZ                .in       -999.25                       : 
FIELD-NAME         .         EGBEMA                        : 
FILE-ID            .         SOH6  .8                      : 
FILE-NUMBER        .         0                             : 
FILE-SET-NAME      .                                       : 
FILE-SET-NUMBER    .         0                             : 
FILE-TYPE          .         PTF                           : 
HIDE               .         Well/Hole_ EGBM-2  Service Name_ NL  Run Number_ 1: 
LCC                .         0                             : 
LMF                .         1                             : 
MST                .degC     -999.25                       : 
NAME-SPACE-NAME    .         LIS                           : 
NAME-SPACE-VERSION .         0                             : 
PRODUC             .         SHELL(PARASOL)                : 
PRODUCER-CODE      .         0                             : 
PRODUCER-NAME      .         Schlumberger                  : 
PRODUCT            .                                       : 
PROGRAMS           .         INC                           : 
R1                 .         N. SPACING = 19.5"<_techsia_br_>: 
R2                 .         <_techsia_br_>                : 
R3                 .         DISTANCE N.-CCL = 8 1/2<_techsia_br_>: 
R4                 .         TIME LAG        =<_techsia_br_>: 
R5                 .         CCL TOO DEEP BY9 1/2          : 
R6                 .         LATEROLOG 3<_techsia_br_>     : 
R7                 .         GUARD LENGTH  5'<_techsia_br_>: 
R8                 .         BEAM WIDTH 12"                : 
RMCS               .ohm.m    -999.25                       : 
RMFS               .ohm.m    -999.25                       : 
RMS                .ohm.m    -999.25                       : 
TCS                .h        -999.25                       : 
TDD                .ft       8087                          : 
TDL                .ft       8085                          : 
TLI                .ft       5000                          : 
VERSION            .         2P01                          : 
WELL-ID            .         10802/01                      : 
WELL-NAME          .         EGBM-002                      : 
WN                 .         EGBM-002                      : 
~Parameter Information Block
#_______________________________________________________________________________
#
#PARAMETER_NAME    .UNIT     VALUE                         : DESCRIPTION
#_______________________________________________________________________________
SET                .         SOH10 _7_1                    : 
ACQUISITION-PRODUCT .         DLIS/U                        : 
CREATION-TIME      .         2026/5/13 10_15               : 
DLIS_FRAME_DIRECTION .         INCREASING                    : 
DLIS_FRAME_NAME    .         1                             : 
DLIS_FRAME_SPACING .ft       0.5                           : 
FIELD-NAME         .         EGBEMA                        : 
FILE-ID            .         SOH10 .7                      : 
FILE-NUMBER        .         6                             : 
FILE-SET-NAME      .         LIS-TO-DLIS-CONVERSION        : 
FILE-SET-NUMBER    .         6309                          : 
FILE-TYPE          .         PTF                           : 
INDEX-TYPE         .         BOREHOLE-DEPTH                : 
NAME-SPACE-NAME    .                                       : 
NAME-SPACE-VERSION .         0                             : 
OriginalDatasetName .         1                             : 
PRODUCER-CODE      .         440                           : 
PRODUCER-NAME      .         Schlumberger                  : 
PRODUCT            .         DLIS/U                        : 
PROGRAMS           .         LIS-TO-DLIS                   : 
TLFamily_CALM      .         Caliper                       : 
TLFamily_DEPT      .         Measured Depth                : 
TLFamily_MLI       .         Resistivity - Micro           : 
TLFamily_MLN       .         Resistivity - Micro           : 
VERSION            .         0.1                           : 
WELL-ID            .         10802/01                      : 
WELL-NAME          .         EGBM-002                      : 
~Curve Information
#_______________________________________________________________________________
#
#LOGNAME           .UNIT     LOG_ID                        : DESCRIPTION
#_______________________________________________________________________________
DEPT               .ft                                     :  {F}
CALM               .in                                     :  {F}
MLI                .ohm.m                                  :  {F}
MLN                .ohm.m                                  :  {F}
~Ascii
# ...
6092       9.707489   1.06747    1.087279  
6092.5     9.761879   1.047999   1.106979  
6093       9.85627    1.38462    1.26824   
6093.5     9.94561    1.528529   1.31522   
6094       10.0013    1.321959   1.46787   
6094.5     9.875139   1.28864    1.618159  
6095       9.63199    1.42505    1.88064   
6095.5     9.264769   1.929509   2.12719   
6096       9.249069   1.5018     2.473889  
6096.5     9.28651    1.35683    1.919709  
6097       9.22481    1.26448    1.84489   
6097.5     9.14525    1.49399    2.19106   
6098       9.135429   1.49809    2.28556   
6098.5     9.150429   1.53552    2.37365   
6099       9.19009    1.474489   2.013559  
6099.5     9.26041    1.233109   1.752879  
6100       9.395159   1.20301    1.65345   
6100.5     9.462839   1.150789   1.805659  
6101       9.46203    1.46336    2.0106    
6101.5     9.293499   1.386299   1.996679  
6102       9.21723    1.285669   1.93576   
6102.5     9.11911    1.32498    1.99722   
6103       8.89995    1.45562    2.15591   
6103.5     9.03265    1.149699   1.88238   
6104       9.267      1.17334    1.731279  
6104.5     9.359669   1.28862    1.86205   
6105       9.27434    1.18859    1.83276   
6105.5     9.2118     1.333139   1.842389  
6106       9.18889    1.21869    1.77485   
6106.5     9.15921    1.283199   1.789889  
6107       9.15159    1.50513    2.01474   
6107.5     9.155769   1.410069   1.80725   
6108       9.53895    0.94629    1.24778   
6108.5     9.943769   0.85917    1.09435   
6109       9.686289   1.029189   1.54247   
6109.5     9.3981     1.40589    1.97386   
6110       9.1896     1.383989   2.228909  
6110.5     9.120409   1.52119    2.26659   
6111       9.165279   1.449599   2.04157   
6111.5     9.269989   1.21717    1.71579   
6112       9.190319   1.536599   2.10137   
6112.5     9.04841    1.60555    2.422339  
6113       9.01795    1.598729   2.472919  
6113.5     9.02282    1.623349   2.43876   
6114       9.04887    1.44491    2.24271   
6114.5     9.0504     1.332569   2.14152   
6115       9.06572    1.540979   2.30141   
6115.5     9.09194    1.526629   2.43289   
6116       9.093639   1.57477    2.437619  
6116.5     9.094839   1.52117    2.34592   
6117       9.068279   1.506989   2.33007   
6117.5     9.057859   1.48       2.396509  
6118       9.072489   1.52162    2.37272   
6118.5     9.09878    1.51267    2.33455   
6119       9.100779   1.494439   2.34892   
6119.5     9.113119   1.59927    2.476689  
6120       9.1728     1.72409    1.714239  
6120.5     9.503059   1.63668    1.72681   
6121       9.652      1.69502    1.76647   
6121.5     9.59535    1.40834    1.52986   
6122       9.39744    1.38311    1.94973   
6122.5     9.584789   1.21632    1.377419  
6123       9.647619   1.286489   1.30656   
6123.5     9.31036    1.468659   1.782789  
6124       9.318369   1.218019   1.57446   
6124.5     9.64773    0.89283    1.38427   
6125       9.860079   0.9498199  1.413409  
6125.5     9.550789   1.468909   1.895439  
6126       9.44441    1.64751    2.14615   
6126.5     9.430159   1.457069   1.948449  
6127       9.475119   1.43627    1.936749  
6127.5     9.408459   1.60133    2.08781   
6128       9.429199   1.408959   1.611979  
6128.5     9.473349   1.39228    1.437409  
6129       9.661419   1.282109   1.40918   
6129.5     9.89031    1.23576    1.400339  
6130       9.537079   1.38917    1.54904   
6130.5     9.24423    1.500409   1.970449  
6131       9.17281    1.328879   2.225169  
6131.5     9.13274    1.53679    2.396569  
6132       9.159559   1.555369   2.46863   
6132.5     9.25469    1.32537    2.10067   
6133       9.345959   1.08206    1.840509  
6133.5     9.296999   1.206369   2.0186    
6134       9.189159   1.46452    2.37888   
6134.5     9.1642     1.56421    2.50597   
6135       9.273689   1.62078    2.34802   
6135.5     9.351259   1.47433    2.07484   
6136       9.377439   1.330179   1.89825   
6136.5     9.43008    1.306      1.71641   
6137       9.83889    1.29194    1.53004   
6137.5     10.17262   1.23273    1.473149  
6138       9.997179   1.342119   1.562119  
6138.5     9.62384    1.314019   1.77345   
6139       9.394379   1.42439    2.07618   
6139.5     9.287369   1.63849    2.28228   
6140       9.25816    1.51297    2.266     
6140.5     9.23135    1.48572    2.127689  
6141       9.20459    1.54461    2.1538    
6141.5     9.14864    1.57467    2.189199  
6142       9.130039   1.52166    2.1777    
6142.5     9.11706    1.46737    2.2289    
6143       9.11825    1.427799   2.149819  
6143.5     9.11944    1.461789   2.197479  
6144       9.13147    1.522449   2.26137   
6144.5     9.17215    1.42546    2.221809  
6145       9.21283    1.3687     2.186009  
6145.5     9.24017    1.40132    2.21719   
6146       9.254589   1.51863    2.32605   
6146.5     9.28532    1.43431    2.28553   
6147       9.28651    1.43625    2.16058   
6147.5     9.287699   1.314079   2.055039  
6148       9.288889   1.398259   2.08048   
6148.5     9.290079   1.477229   2.215679  
6149       9.291269   1.475659   2.17663   
6149.5     9.31072    1.56769    2.01985   
6150       9.33309    1.5154     1.99873   
6150.5     9.332939   1.7231     1.91049   
6151       9.38574    1.48253    1.95694   
6151.5     9.411489   1.37828    1.887859  
6152       9.371429   1.26248    1.876459  
6152.5     9.331369   1.183909   1.79089   
6153       9.318369   1.185369   1.76938   
6153.5     9.36495    1.268109   1.625589  
6154       9.428959   1.160419   1.627     
6154.5     9.468349   1.17633    1.57058   
6155       9.487949   1.09344    1.563789  
6155.5     9.487539   1.06498    1.550699  
6156       9.51379    1.005159   1.516419  
6156.5     9.546789   0.9423699  1.46842   
6157       9.635889   0.94681    1.489719  
6157.5     9.73892    1.003929   1.47526   
6158       9.787699   0.94669    1.40854   
6158.5     9.81229    0.92145    1.428109  
6159       9.856739   0.93984    1.45992   
6159.5     9.915779   0.97988    1.5046    
6160       9.97477    1.019919   1.53784   
6160.5     10.02847   1.033799   1.57243   
6161       10.06229   1.02739    1.57517   
6161.5     10.07624   1.00515    1.50558   
6162       10.06205   0.99404    1.426339  
6162.5     10.03571   0.99404    1.416719  
6163       10.04087   0.9600099  1.415449  
6163.5     10.05328   0.901      1.37052   
6164       10.07383   0.8995399  1.383389  
6164.5     10.07335   0.91958    1.404449  
6165       10.10095   0.9463999  1.41093   
6165.5     10.12372   0.96718    1.44207   
6166       10.1747    1.01927    1.502339  
6166.5     10.28148   1.20167    1.60963   
6167       10.45765   2.531779   1.771509  
6167.5     10.69317   3.07984    1.848909  
6168       10.61665   2.25034    1.80147   
6168.5     10.47989   1.817479   1.749499  
6169       10.42457   1.545899   1.794     
6169.5     10.42404   1.39944    1.83179   
6170       10.46203   1.30195    1.766339  
6170.5     10.46249   1.573649   1.77835   
6171       10.38299   1.50225    1.83484   
6171.5     10.38247   1.52646    1.800429  
6172       10.26352   1.29919    1.694639  
6172.5     10.26302   1.47261    1.704949  
6173       10.22304   1.35957    1.66      
6173.5     10.09971   1.42246    1.59024   
6174       9.924419   1.273299   1.510579  
6174.5     9.87039    1.24342    1.430969  
6175       9.986319   1.14047    1.41153   
6175.5     10.02124   1.3551     1.59767   
6176       9.98341    1.37539    1.67198   
6176.5     9.977819   1.262589   1.57354   
6177       9.897789   1.42491    1.503369  
6177.5     9.9289     1.24899    1.47518   
6178       10.00123   1.25989    1.42338   
6178.5     9.96344    1.217079   1.34334   
6179       9.844149   1.14432    1.29993   
6179.5     9.78307    1.1332     1.26001   
6180       9.782619   1.096539   1.23627   
6180.5     9.782169   1.112089   1.265389  
6181       9.83033    1.113239   1.240359  
6181.5     9.918749   1.096889   1.19953   
6182       9.79019    1.662999   1.293799  
6182.5     9.460949   1.362129   1.92876   
