~Version
 VERS              .         3.0                           : CWLS LOG ASCII STANDARD - VERSION 3.0
 WRAP              .         NO                            : ONE LINE PER DEPTH STEP
 DLM               .         SPACE                         : DELIMITING CHARACTER(SPACE TAB OR COMMA)
~Well Information
#_______________________________________________________________________________
#
#PARAMETER_NAME    .UNIT     VALUE                         : DESCRIPTION
#_______________________________________________________________________________
STRT               .ft       5000                          : First reference value
STOP               .ft       8049.5                        : Last reference value
STEP               .ft       0.5                           : Step increment
NULL               .         -9999                         : Missing value
COMP               .                                       : Company
WELL               .         EGBM-002                      : Well name
FLD                .         EGBEMA                        : Field
LOC                .                                       : Location
SRVC               .                                       : Service Company
CTRY               .                                       : Country
DATE               .         1967/05/21                    : Service Date
X                  .                                       : X or East-West coordinate
Y                  .                                       : Y or North South coordinate
GDAT               .                                       : Geodetic Datum
HZCS               .                                       : Horizontal Co-ordinate System
APIN               .         10802/01                      : 
BHT                .degC     -999.25                       : 
BLI                .ft       8085                          : 
BS                 .in       -999.25                       : 
CREATION-TIME      .         2067/5/21 0_0                 : 
CSIZ               .in       7                             : 
DFD                .g/cm3    -999.25                       : 
DFT                .         BENT.SPERSE.                  : 
DFV                .s        -999.25                       : 
ELZ                .in       -999.25                       : 
FIELD-NAME         .         EGBEMA                        : 
FILE-ID            .         SOH6  .8                      : 
FILE-NUMBER        .         0                             : 
FILE-SET-NAME      .                                       : 
FILE-SET-NUMBER    .         0                             : 
FILE-TYPE          .         PTF                           : 
HIDE               .         Well/Hole_ EGBM-2  Service Name_ NL  Run Number_ 1: 
LCC                .         0                             : 
LMF                .         1                             : 
MST                .degC     -999.25                       : 
NAME-SPACE-NAME    .         LIS                           : 
NAME-SPACE-VERSION .         0                             : 
PRODUC             .         SHELL(PARASOL)                : 
PRODUCER-CODE      .         0                             : 
PRODUCER-NAME      .         Schlumberger                  : 
PRODUCT            .                                       : 
PROGRAMS           .         INC                           : 
R1                 .         N. SPACING = 19.5"<_techsia_br_>: 
R2                 .         <_techsia_br_>                : 
R3                 .         DISTANCE N.-CCL = 8 1/2<_techsia_br_>: 
R4                 .         TIME LAG        =<_techsia_br_>: 
R5                 .         CCL TOO DEEP BY9 1/2          : 
R6                 .         LATEROLOG 3<_techsia_br_>     : 
R7                 .         GUARD LENGTH  5'<_techsia_br_>: 
R8                 .         BEAM WIDTH 12"                : 
RMCS               .ohm.m    -999.25                       : 
RMFS               .ohm.m    -999.25                       : 
RMS                .ohm.m    -999.25                       : 
TCS                .h        -999.25                       : 
TDD                .ft       8087                          : 
TDL                .ft       8085                          : 
TLI                .ft       5000                          : 
VERSION            .         2P01                          : 
WELL-ID            .         10802/01                      : 
WELL-NAME          .         EGBM-002                      : 
WN                 .         EGBM-002                      : 
~Parameter Information Block
#_______________________________________________________________________________
#
#PARAMETER_NAME    .UNIT     VALUE                         : DESCRIPTION
#_______________________________________________________________________________
SET                .         SOH10 _7_1                    : 
ACQUISITION-PRODUCT .         DLIS/U                        : 
CREATION-TIME      .         2026/5/13 10_15               : 
DLIS_FRAME_DIRECTION .         INCREASING                    : 
DLIS_FRAME_NAME    .         1                             : 
DLIS_FRAME_SPACING .ft       0.5                           : 
FIELD-NAME         .         EGBEMA                        : 
FILE-ID            .         SOH10 .7                      : 
FILE-NUMBER        .         6                             : 
FILE-SET-NAME      .         LIS-TO-DLIS-CONVERSION        : 
FILE-SET-NUMBER    .         6309                          : 
FILE-TYPE          .         PTF                           : 
INDEX-TYPE         .         BOREHOLE-DEPTH                : 
NAME-SPACE-NAME    .                                       : 
NAME-SPACE-VERSION .         0                             : 
OriginalDatasetName .         1                             : 
PRODUCER-CODE      .         440                           : 
PRODUCER-NAME      .         Schlumberger                  : 
PRODUCT            .         DLIS/U                        : 
PROGRAMS           .         LIS-TO-DLIS                   : 
TLFamily_CALM      .         Caliper                       : 
TLFamily_DEPT      .         Measured Depth                : 
TLFamily_MLI       .         Resistivity - Micro           : 
TLFamily_MLN       .         Resistivity - Micro           : 
VERSION            .         0.1                           : 
WELL-ID            .         10802/01                      : 
WELL-NAME          .         EGBM-002                      : 
~Curve Information
#_______________________________________________________________________________
#
#LOGNAME           .UNIT     LOG_ID                        : DESCRIPTION
#_______________________________________________________________________________
DEPT               .ft                                     :  {F}
CALM               .in                                     :  {F}
MLI                .ohm.m                                  :  {F}
MLN                .ohm.m                                  :  {F}
~Ascii
# ...
5091       9.400589   0.97026    0.7549    
5091.5     9.38027    0.94468    0.75517   
5092       9.41765    0.98279    0.76702   
5092.5     9.417009   0.95698    0.73929   
5093       9.41581    0.94542    0.74753   
5093.5     9.414339   0.94233    0.7377599 
5094       9.394169   0.9365699  0.7563599 
5094.5     9.412199   0.9768599  0.76421   
5095       9.410999   0.9544699  0.7539999 
5095.5     9.4098     0.96024    0.7619699 
5096       9.42992    0.93857    0.75431   
5096.5     9.446949   0.92501    0.76596   
5097       9.44574    0.87704    0.7330999 
5097.5     9.44898    0.91886    0.70567   
5098       9.52536    0.8922499  0.72254   
5098.5     9.563679   0.8766     0.70962   
5099       9.599049   0.87761    0.68225   
5099.5     9.601179   0.9296     0.7003599 
5100       9.636139   0.93608    0.74665   
5100.5     9.635029   0.8422899  0.7108099 
5101       9.650879   0.85495    0.69691   
5101.5     9.669159   0.88045    0.69478   
5102       9.670439   0.86262    0.69397   
5102.5     9.669239   0.8799599  0.70705   
5103       9.66791    1.029779   0.78089   
5103.5     9.66658    1.137079   0.84113   
5104       9.665249   0.9163899  0.80509   
5104.5     9.6805     0.8691599  0.7973399 
5105       9.69879    1.012819   0.88597   
5105.5     9.700779   1.4641     0.93729   
5106       9.69945    1.080649   0.82462   
5106.5     9.69812    0.89931    0.745     
5107       9.696789   0.83417    0.6659499 
5107.5     9.695459   0.81652    0.64561   
5108       9.69413    0.83845    0.65739   
5108.5     9.692799   0.8333299  0.6732    
5109       9.691469   0.85869    0.69223   
5109.5     9.70594    0.8291299  0.70172   
5110       9.726259   0.83057    0.69388   
5110.5     9.726799   0.9295     0.7192299 
5111       9.72563    0.86057    0.75352   
5111.5     9.754959   0.8912899  0.7197599 
5112       9.76247    0.89723    0.7955999 
5112.5     9.796469   0.91587    0.8931199 
5113       9.798849   1.02718    0.96296   
5113.5     9.685129   1.12428    0.8658099 
5114       9.64296    0.8934599  0.7366799 
5114.5     9.667969   0.80988    0.6538    
5115       9.735289   0.78539    0.63308   
5115.5     9.792629   0.80915    0.67238   
5116       9.79129    0.8724799  0.71741   
5116.5     9.789959   0.98703    0.76059   
5117       9.83462    0.9579799  0.83271   
5117.5     9.90571    0.86522    0.83284   
5118       9.90233    0.81339    0.70761   
5118.5     9.858829   0.82048    0.65106   
5119       9.80035    0.83512    0.7065799 
5119.5     9.781969   0.92037    0.80213   
5120       9.741169   0.9612299  0.88589   
5120.5     9.789169   0.98009    0.93267   
5121       10.01232   1.164749   0.9790599 
5121.5     10.09055   1.62774    0.9227899 
5122       10.05303   0.90904    0.84233   
5122.5     9.89163    0.8715     0.78017   
5123       9.810869   0.89632    0.7793599 
5123.5     9.771309   0.90747    0.79819   
5124       9.73053    0.9613299  0.84978   
5124.5     9.725769   0.97049    0.90221   
5125       9.688419   0.92836    0.94603   
5125.5     9.68709    0.9815899  0.89877   
5126       9.685759   1.016299   0.8146399 
5126.5     9.6691     0.8854699  0.7325699 
5127       9.643669   0.81266    0.6851    
5127.5     9.657349   0.8019     0.67256   
5128       9.69455    0.81766    0.6916499 
5128.5     9.711779   0.86106    0.73833   
5129       9.676729   0.91799    0.81776   
5129.5     9.637039   0.92889    0.8881899 
5130       9.67514    0.95116    0.82769   
5130.5     9.725479   0.91397    0.86211   
5131       9.840239   0.8118399  0.80063   
5131.5     9.877439   0.84952    0.6263    
5132       9.906399   0.97961    0.6493399 
5132.5     9.90506    0.8736299  0.6860399 
5133       9.8678     0.80292    0.68355   
5133.5     9.82354    0.8095599  0.68275   
5134       9.82221    0.9445499  0.72683   
5134.5     9.80279    1.17499    1.013249  
5135       9.8041     1.325549   1.069929  
5135.5     9.864859   1.183559   0.8453    
5136       9.94079    0.97042    0.75826   
5136.5     10.05361   0.9323     0.77974   
5137       10.0901    0.96829    0.8300799 
5137.5     10.12388   0.96832    0.80751   
5138       10.12682   0.9728299  0.7947999 
5138.5     10.08607   1.024799   0.84146   
5139       10.1151    1.090469   0.99191   
5139.5     10.24765   1.54886    1.19772   
5140       10.22537   2.648769   1.443589  
5140.5     10.04332   1.90446    1.85263   
5141       9.8382     2.074539   2.92277   
5141.5     9.762829   2.069429   2.60415   
5142       9.722109   1.96318    2.370709  
5142.5     9.686279   1.77996    2.26505   
5143       9.680059   2.00777    2.48954   
5143.5     9.714359   2.05318    2.285069  
5144       9.8239     1.66896    1.93049   
5144.5     9.67564    1.40967    1.58146   
5145       9.326519   1.340199   1.244789  
5145.5     9.2402     1.36551    1.17149   
5146       9.23889    1.402969   1.268709  
5146.5     9.276539   1.49819    1.54227   
5147       9.35265    1.450399   1.54089   
5147.5     9.390419   1.402519   1.31709   
5148       9.352739   1.43888    1.3004    
5148.5     9.38575    1.539      1.35565   
5149       9.50869    1.648379   1.7779    
5149.5     9.505339   1.578759   2.147389  
5150       9.5394     1.535069   2.33692   
5150.5     9.5415     1.697129   2.23951   
5151       9.50296    1.57922    2.072459  
5151.5     9.459999   1.39086    2.005799  
5152       9.41873    1.520309   2.11218   
5152.5     9.49288    1.555969   2.38044   
5153       9.515659   1.461989   2.528299  
5153.5     9.374609   1.82586    2.67423   
5154       9.332809   1.91959    2.83595   
5154.5     9.31131    1.97687    2.932059  
5155       9.290049   2.03428    2.970059  
5155.5     9.28834    1.92701    2.89264   
5156       9.28664    1.895949   2.83181   
5156.5     9.284939   2.07831    2.963579  
5157       9.283989   2.186549   3.07979   
5157.5     9.320879   2.19599    3.05983   
5158       9.31918    2.2619     3.11871   
5158.5     9.356359   2.043039   2.98887   
5159       9.35511    2.05556    2.92419   
5159.5     9.39213    1.837939   2.84373   
5160       9.391039   2.234309   2.938479  
5160.5     9.427689   2.25673    2.992499  
5161       9.42695    2.138439   2.81668   
5161.5     9.425259   1.80277    2.72666   
5162       9.42355    1.99383    2.800779  
5162.5     9.421839   2.25398    2.91447   
5163       9.45891    1.8343     2.751149  
5163.5     9.45775    1.69776    2.56923   
5164       9.456049   2.09143    2.87153   
5164.5     9.41506    2.01973    2.79192   
5165       9.413309   2.0969     2.74595   
5165.5     9.4116     1.87004    2.79066   
5166       9.409889   1.607759   2.66815   
5166.5     9.40819    1.704559   2.60059   
5167       9.406479   2.15983    2.74442   
5167.5     9.424229   2.25278    2.903689  
5168       9.442129   2.03305    3.01841   
5168.5     9.477669   1.830239   2.67384   
5169       9.55327    1.86331    2.62472   
5169.5     9.537029   1.68604    2.61032   
5170       9.514269   1.98671    2.4776    
5170.5     9.586119   1.810479   2.23708   
5171       9.69845    2.044069   2.04153   
5171.5     9.81459    1.60656    1.88036   
5172       9.891319   1.51297    1.686709  
5172.5     9.82798    1.635449   1.66832   
5173       9.67206    1.76061    1.83208   
5173.5     9.58498    1.79795    1.955     
5174       9.5021     1.772949   2.02442   
5174.5     9.49881    1.698159   2.087049  
5175       9.64534    1.70228    2.050039  
5175.5     9.794809   1.33564    1.89331   
5176       9.58433    1.39045    1.9312    
5176.5     9.41501    1.53214    2.044     
5177       9.333319   1.55098    2.222369  
5177.5     9.369919   1.579769   2.26797   
5178       9.368959   1.634069   2.28284   
5178.5     9.386379   1.704579   2.27781   
5179       9.404659   1.59894    2.2381    
5179.5     9.40313    1.6619     2.08171   
5180       9.362329   1.765229   2.09874   
5180.5     9.360449   1.74898    2.18703   
5181       9.37793    1.77115    2.25377   
5181.5     9.43359    1.683709   2.03123   
