~Version
 VERS              .         3.0                           : CWLS LOG ASCII STANDARD - VERSION 3.0
 WRAP              .         NO                            : ONE LINE PER DEPTH STEP
 DLM               .         SPACE                         : DELIMITING CHARACTER(SPACE TAB OR COMMA)
~Well Information
#_______________________________________________________________________________
#
#PARAMETER_NAME    .UNIT     VALUE                         : DESCRIPTION
#_______________________________________________________________________________
STRT               .ft       5000                          : First reference value
STOP               .ft       8049.5                        : Last reference value
STEP               .ft       0.5                           : Step increment
NULL               .         -9999                         : Missing value
COMP               .                                       : Company
WELL               .         EGBM-002                      : Well name
FLD                .         EGBEMA                        : Field
LOC                .                                       : Location
SRVC               .                                       : Service Company
CTRY               .                                       : Country
DATE               .         1967/05/21                    : Service Date
X                  .                                       : X or East-West coordinate
Y                  .                                       : Y or North South coordinate
GDAT               .                                       : Geodetic Datum
HZCS               .                                       : Horizontal Co-ordinate System
APIN               .         10802/01                      : 
BHT                .degC     -999.25                       : 
BLI                .ft       8085                          : 
BS                 .in       -999.25                       : 
CREATION-TIME      .         2067/5/21 0_0                 : 
CSIZ               .in       7                             : 
DFD                .g/cm3    -999.25                       : 
DFT                .         BENT.SPERSE.                  : 
DFV                .s        -999.25                       : 
ELZ                .in       -999.25                       : 
FIELD-NAME         .         EGBEMA                        : 
FILE-ID            .         SOH6  .8                      : 
FILE-NUMBER        .         0                             : 
FILE-SET-NAME      .                                       : 
FILE-SET-NUMBER    .         0                             : 
FILE-TYPE          .         PTF                           : 
HIDE               .         Well/Hole_ EGBM-2  Service Name_ NL  Run Number_ 1: 
LCC                .         0                             : 
LMF                .         1                             : 
MST                .degC     -999.25                       : 
NAME-SPACE-NAME    .         LIS                           : 
NAME-SPACE-VERSION .         0                             : 
PRODUC             .         SHELL(PARASOL)                : 
PRODUCER-CODE      .         0                             : 
PRODUCER-NAME      .         Schlumberger                  : 
PRODUCT            .                                       : 
PROGRAMS           .         INC                           : 
R1                 .         N. SPACING = 19.5"<_techsia_br_>: 
R2                 .         <_techsia_br_>                : 
R3                 .         DISTANCE N.-CCL = 8 1/2<_techsia_br_>: 
R4                 .         TIME LAG        =<_techsia_br_>: 
R5                 .         CCL TOO DEEP BY9 1/2          : 
R6                 .         LATEROLOG 3<_techsia_br_>     : 
R7                 .         GUARD LENGTH  5'<_techsia_br_>: 
R8                 .         BEAM WIDTH 12"                : 
RMCS               .ohm.m    -999.25                       : 
RMFS               .ohm.m    -999.25                       : 
RMS                .ohm.m    -999.25                       : 
TCS                .h        -999.25                       : 
TDD                .ft       8087                          : 
TDL                .ft       8085                          : 
TLI                .ft       5000                          : 
VERSION            .         2P01                          : 
WELL-ID            .         10802/01                      : 
WELL-NAME          .         EGBM-002                      : 
WN                 .         EGBM-002                      : 
~Parameter Information Block
#_______________________________________________________________________________
#
#PARAMETER_NAME    .UNIT     VALUE                         : DESCRIPTION
#_______________________________________________________________________________
SET                .         SOH10 _7_1                    : 
ACQUISITION-PRODUCT .         DLIS/U                        : 
CREATION-TIME      .         2026/5/13 10_15               : 
DLIS_FRAME_DIRECTION .         INCREASING                    : 
DLIS_FRAME_NAME    .         1                             : 
DLIS_FRAME_SPACING .ft       0.5                           : 
FIELD-NAME         .         EGBEMA                        : 
FILE-ID            .         SOH10 .7                      : 
FILE-NUMBER        .         6                             : 
FILE-SET-NAME      .         LIS-TO-DLIS-CONVERSION        : 
FILE-SET-NUMBER    .         6309                          : 
FILE-TYPE          .         PTF                           : 
INDEX-TYPE         .         BOREHOLE-DEPTH                : 
NAME-SPACE-NAME    .                                       : 
NAME-SPACE-VERSION .         0                             : 
OriginalDatasetName .         1                             : 
PRODUCER-CODE      .         440                           : 
PRODUCER-NAME      .         Schlumberger                  : 
PRODUCT            .         DLIS/U                        : 
PROGRAMS           .         LIS-TO-DLIS                   : 
TLFamily_CALM      .         Caliper                       : 
TLFamily_DEPT      .         Measured Depth                : 
TLFamily_MLI       .         Resistivity - Micro           : 
TLFamily_MLN       .         Resistivity - Micro           : 
VERSION            .         0.1                           : 
WELL-ID            .         10802/01                      : 
WELL-NAME          .         EGBM-002                      : 
~Curve Information
#_______________________________________________________________________________
#
#LOGNAME           .UNIT     LOG_ID                        : DESCRIPTION
#_______________________________________________________________________________
DEPT               .ft                                     :  {F}
CALM               .in                                     :  {F}
MLI                .ohm.m                                  :  {F}
MLN                .ohm.m                                  :  {F}
~Ascii
# ...
6183       9.32515    1.47611    2.03867   
6183.5     9.272999   1.59981    2.140579  
6184       9.26778    1.681849   2.2859    
6184.5     9.266899   1.7532     2.36514   
6185       9.26651    1.769059   2.34534   
6185.5     9.29731    1.76938    2.384939  
6186       9.30509    1.78694    2.376269  
6186.5     9.304689   1.77148    2.289069  
6187       9.335819   1.683889   2.17038   
6187.5     9.37484    1.631949   2.068919  
6188       9.445389   1.537419   2.00902   
6188.5     9.460419   2.30617    1.99786   
6189       9.423639   2.6088     2.047319  
6189.5     9.45228    2.061069   1.96923   
6190       9.57102    1.49945    1.81092   
6190.5     9.77047    1.609779   1.65335   
6191       9.92317    1.40164    1.54181   
6191.5     9.837189   1.710879   1.53088   
6192       9.67404    1.518829   1.5904    
6192.5     9.71312    1.55964    1.65049   
6193       10.04815   1.255919   1.66893   
6193.5     10.25595   1.27199    1.60549   
6194       10.34447   0.99805    1.44981   
6194.5     10.42257   1.09344    1.394019  
6195       10.50058   0.99404    1.47024   
6195.5     10.58631   0.91449    1.427219  
6196       10.18741   0.87483    1.383479  
6196.5     9.88872    0.91451    1.41436   
6197       9.810919   0.91451    1.46945   
6197.5     9.80617    0.91369    1.447499  
6198       9.80571    0.89463    1.409519  
6198.5     9.80526    0.89463    1.369639  
6199       9.770849   0.89463    1.35075   
6199.5     9.662409   0.89463    1.335299  
6200       9.647039   0.90571    1.36564   
6200.5     9.60413    0.89784    1.41295   
6201       9.483919   1.013579   1.44566   
6201.5     9.412569   0.9953099  1.55341   
6202       9.41284    1.03408    1.59244   
6202.5     9.4198     1.03508    1.590449  
6203       9.44585    0.9949399  1.55001   
6203.5     9.40036    0.95559    1.47345   
6204       9.328899   0.9752899  1.533119  
6204.5     9.290039   1.0546     1.60242   
6205       9.257479   1.07518    1.64189   
6205.5     9.305599   1.06594    1.65193   
6206       9.343069   1.03669    1.6128    
6206.5     9.421959   1.054859   1.55369   
6207       9.500919   1.037      1.475039  
6207.5     9.579899   0.97866    1.49263   
6208       9.61241    1.070669   1.59091   
6208.5     9.609159   1.286719   1.555099  
6209       9.5667     1.12313    1.55373   
6209.5     9.527779   1.01357    1.516259  
6210       9.487249   1.108589   1.4569    
6210.5     9.817739   1.17287    1.43707   
6211       9.849829   1.061769   1.37931   
6211.5     10.05268   1.29743    1.375859  
6212       10.24927   1.71035    1.43053   
6212.5     10.01568   1.39378    1.54735   
6213       9.880169   1.20447    1.482599  
6213.5     9.804579   1.090119   1.394219  
6214       9.72644    0.9898499  1.46774   
6214.5     9.723989   0.97462    1.365459  
6215       10.18011   0.98935    1.249189  
6215.5     10.86883   0.7113999  1.14569   
6216       10.76334   0.87177    1.208779  
6216.5     11.01816   0.7979     1.13184   
6217       11.10768   0.8476599  1.102099  
6217.5     10.46395   0.95156    1.31316   
6218       10.18935   1.08637    1.479469  
6218.5     10.04883   1.16081    1.651469  
6219       10.23079   1.833019   1.590569  
6219.5     10.2877    1.35926    1.441549  
6220       10.21553   1.250119   1.384749  
6220.5     9.940689   1.43991    1.529969  
6221       9.386789   1.254189   1.73343   
6221.5     9.305319   1.07093    1.68137   
6222       9.30558    1.010949   1.603029  
6222.5     9.30584    1.13153    1.68053   
6223       9.329039   1.152909   1.804159  
6223.5     9.34573    0.96864    1.65383   
6224       9.345989   0.95775    1.514859  
6224.5     9.34297    0.9744799  1.615609  
6225       9.30715    1.14014    1.80324   
6225.5     9.307409   1.093129   1.802079  
6226       9.307669   1.047529   1.766009  
6226.5     9.30793    1.06619    1.726709  
6227       9.3169     1.08081    1.701289  
6227.5     9.400539   1.10086    1.77683   
6228       9.535759   1.201449   1.922979  
6228.5     9.64315    1.22258    1.88921   
6229       9.649429   1.064679   1.676009  
6229.5     9.52737    1.086349   1.698099  
6230       9.65663    1.23422    1.66496   
6230.5     10.14141   1.06909    1.442949  
6231       10.40646   0.95408    1.333389  
6231.5     10.58707   0.93985    1.321329  
6232       10.1022    1.29451    1.469589  
6232.5     9.98115    0.86667    1.390759  
6233       9.70657    1.061879   1.50381   
6233.5     9.37719    1.19382    1.70754   
6234       9.26388    1.668389   1.87542   
6234.5     9.230059   1.62183    2.074349  
6235       9.23349    1.68388    2.2666    
6235.5     9.236929   1.89343    2.312079  
6236       9.273439   2.015739   2.23304   
6236.5     9.2673     1.91988    2.179569  
6237       9.226049   1.91401    2.21968   
6237.5     9.18903    1.791909   2.260039  
6238       9.149939   1.802469   2.29673   
6238.5     9.116909   1.86222    2.25768   
6239       9.123299   1.900419   2.21883   
6239.5     9.15686    1.822029   2.229099  
6240       9.117649   1.84194    2.259359  
6240.5     9.11483    1.86201    2.29888   
6241       9.0984     1.89154    2.318749  
6241.5     9.09864    1.90193    2.378269  
6242       9.118629   1.99827    2.43784   
6242.5     9.13118    1.77238    2.35992   
6243       9.20439    1.706559   2.28047   
6243.5     9.27286    1.68298    2.337279  
6244       9.312979   1.801189   2.361279  
6244.5     9.299559   1.716339   2.31814   
6245       9.27877    1.92202    2.31987   
6245.5     9.278339   1.864269   2.24436   
6246       9.278589   1.997299   2.3369    
6246.5     9.278849   2.06763    2.39666   
6247       9.292759   1.91081    2.46956   
6247.5     9.35416    1.671659   2.33058   
6248       9.396009   1.556359   2.17097   
6248.5     9.425819   1.594359   2.27123   
6249       9.41044    1.70575    2.39361   
6249.5     9.399309   1.92983    2.476089  
6250       -9999      -9999      -9999     
6250.5     -9999      -9999      -9999     
6251       -9999      -9999      -9999     
6251.5     -9999      -9999      -9999     
6252       -9999      -9999      -9999     
6252.5     -9999      -9999      -9999     
6253       -9999      -9999      -9999     
6253.5     -9999      -9999      -9999     
6254       -9999      -9999      -9999     
6254.5     -9999      -9999      -9999     
6255       -9999      -9999      -9999     
6255.5     -9999      -9999      -9999     
6256       -9999      -9999      -9999     
6256.5     -9999      -9999      -9999     
6257       -9999      -9999      -9999     
6257.5     -9999      -9999      -9999     
6258       -9999      -9999      -9999     
6258.5     -9999      -9999      -9999     
6259       -9999      -9999      -9999     
6259.5     -9999      -9999      -9999     
6260       -9999      -9999      -9999     
6260.5     -9999      -9999      -9999     
6261       -9999      -9999      -9999     
6261.5     -9999      -9999      -9999     
6262       -9999      -9999      -9999     
6262.5     -9999      -9999      -9999     
6263       -9999      -9999      -9999     
6263.5     -9999      -9999      -9999     
6264       -9999      -9999      -9999     
6264.5     -9999      -9999      -9999     
6265       -9999      -9999      -9999     
6265.5     -9999      -9999      -9999     
6266       -9999      -9999      -9999     
6266.5     -9999      -9999      -9999     
6267       -9999      -9999      -9999     
6267.5     -9999      -9999      -9999     
6268       -9999      -9999      -9999     
6268.5     -9999      -9999      -9999     
6269       -9999      -9999      -9999     
6269.5     -9999      -9999      -9999     
6270       -9999      -9999      -9999     
6270.5     -9999      -9999      -9999     
6271       -9999      -9999      -9999     
6271.5     -9999      -9999      -9999     
6272       -9999      -9999      -9999     
6272.5     -9999      -9999      -9999     
6273       -9999      -9999      -9999     
6273.5     -9999      -9999      -9999     
