~Version
 VERS              .         3.0                           : CWLS LOG ASCII STANDARD - VERSION 3.0
 WRAP              .         NO                            : ONE LINE PER DEPTH STEP
 DLM               .         SPACE                         : DELIMITING CHARACTER(SPACE TAB OR COMMA)
~Well Information
#_______________________________________________________________________________
#
#PARAMETER_NAME    .UNIT     VALUE                         : DESCRIPTION
#_______________________________________________________________________________
STRT               .ft       5000                          : First reference value
STOP               .ft       8049.5                        : Last reference value
STEP               .ft       0.5                           : Step increment
NULL               .         -9999                         : Missing value
COMP               .                                       : Company
WELL               .         EGBM-002                      : Well name
FLD                .         EGBEMA                        : Field
LOC                .                                       : Location
SRVC               .                                       : Service Company
CTRY               .                                       : Country
DATE               .         1967/05/21                    : Service Date
X                  .                                       : X or East-West coordinate
Y                  .                                       : Y or North South coordinate
GDAT               .                                       : Geodetic Datum
HZCS               .                                       : Horizontal Co-ordinate System
APIN               .         10802/01                      : 
BHT                .degC     -999.25                       : 
BLI                .ft       8085                          : 
BS                 .in       -999.25                       : 
CREATION-TIME      .         2067/5/21 0_0                 : 
CSIZ               .in       7                             : 
DFD                .g/cm3    -999.25                       : 
DFT                .         BENT.SPERSE.                  : 
DFV                .s        -999.25                       : 
ELZ                .in       -999.25                       : 
FIELD-NAME         .         EGBEMA                        : 
FILE-ID            .         SOH6  .8                      : 
FILE-NUMBER        .         0                             : 
FILE-SET-NAME      .                                       : 
FILE-SET-NUMBER    .         0                             : 
FILE-TYPE          .         PTF                           : 
HIDE               .         Well/Hole_ EGBM-2  Service Name_ NL  Run Number_ 1: 
LCC                .         0                             : 
LMF                .         1                             : 
MST                .degC     -999.25                       : 
NAME-SPACE-NAME    .         LIS                           : 
NAME-SPACE-VERSION .         0                             : 
PRODUC             .         SHELL(PARASOL)                : 
PRODUCER-CODE      .         0                             : 
PRODUCER-NAME      .         Schlumberger                  : 
PRODUCT            .                                       : 
PROGRAMS           .         INC                           : 
R1                 .         N. SPACING = 19.5"<_techsia_br_>: 
R2                 .         <_techsia_br_>                : 
R3                 .         DISTANCE N.-CCL = 8 1/2<_techsia_br_>: 
R4                 .         TIME LAG        =<_techsia_br_>: 
R5                 .         CCL TOO DEEP BY9 1/2          : 
R6                 .         LATEROLOG 3<_techsia_br_>     : 
R7                 .         GUARD LENGTH  5'<_techsia_br_>: 
R8                 .         BEAM WIDTH 12"                : 
RMCS               .ohm.m    -999.25                       : 
RMFS               .ohm.m    -999.25                       : 
RMS                .ohm.m    -999.25                       : 
TCS                .h        -999.25                       : 
TDD                .ft       8087                          : 
TDL                .ft       8085                          : 
TLI                .ft       5000                          : 
VERSION            .         2P01                          : 
WELL-ID            .         10802/01                      : 
WELL-NAME          .         EGBM-002                      : 
WN                 .         EGBM-002                      : 
~Parameter Information Block
#_______________________________________________________________________________
#
#PARAMETER_NAME    .UNIT     VALUE                         : DESCRIPTION
#_______________________________________________________________________________
SET                .         SOH10 _7_1                    : 
ACQUISITION-PRODUCT .         DLIS/U                        : 
CREATION-TIME      .         2026/5/13 10_15               : 
DLIS_FRAME_DIRECTION .         INCREASING                    : 
DLIS_FRAME_NAME    .         1                             : 
DLIS_FRAME_SPACING .ft       0.5                           : 
FIELD-NAME         .         EGBEMA                        : 
FILE-ID            .         SOH10 .7                      : 
FILE-NUMBER        .         6                             : 
FILE-SET-NAME      .         LIS-TO-DLIS-CONVERSION        : 
FILE-SET-NUMBER    .         6309                          : 
FILE-TYPE          .         PTF                           : 
INDEX-TYPE         .         BOREHOLE-DEPTH                : 
NAME-SPACE-NAME    .                                       : 
NAME-SPACE-VERSION .         0                             : 
OriginalDatasetName .         1                             : 
PRODUCER-CODE      .         440                           : 
PRODUCER-NAME      .         Schlumberger                  : 
PRODUCT            .         DLIS/U                        : 
PROGRAMS           .         LIS-TO-DLIS                   : 
TLFamily_CALM      .         Caliper                       : 
TLFamily_DEPT      .         Measured Depth                : 
TLFamily_MLI       .         Resistivity - Micro           : 
TLFamily_MLN       .         Resistivity - Micro           : 
VERSION            .         0.1                           : 
WELL-ID            .         10802/01                      : 
WELL-NAME          .         EGBM-002                      : 
~Curve Information
#_______________________________________________________________________________
#
#LOGNAME           .UNIT     LOG_ID                        : DESCRIPTION
#_______________________________________________________________________________
DEPT               .ft                                     :  {F}
CALM               .in                                     :  {F}
MLI                .ohm.m                                  :  {F}
MLN                .ohm.m                                  :  {F}
~Ascii
# ...
5364       9.531279   1.500259   1.341929  
5364.5     9.53035    1.448779   1.31059   
5365       9.529419   1.351239   1.17227   
5365.5     9.52849    1.28721    1.0884    
5366       9.49201    1.282169   1.103559  
5366.5     9.48716    1.394859   1.23634   
5367       9.45051    1.389589   1.1889    
5367.5     9.409969   1.287029   1.108899  
5368       9.37285    1.208309   1.04836   
5368.5     9.365049   1.16702    1.04445   
5369       9.36413    1.13592    1.03582   
5369.5     9.363209   1.12445    1.006439  
5370       9.39469    1.17208    1.00478   
5370.5     9.400829   1.16354    0.9865299 
5371       9.43202    1.126209   0.96487   
5371.5     9.43844    1.10491    0.9825799 
5372       9.45347    1.084129   0.99317   
5372.5     9.47604    1.07436    0.9661599 
5373       9.475119   1.0636     0.94469   
5373.5     9.47419    1.12025    0.9813299 
5374       9.508739   1.212339   1.06049   
5374.5     9.55228    1.158839   1.095639  
5375       9.58547    1.46104    1.201309  
5375.5     9.485979   1.15294    1.0692    
5376       9.401289   1.086929   1.00319   
5376.5     9.357059   1.098909   0.9827499 
5377       9.349619   1.19685    1.07465   
5377.5     9.40942    1.18574    1.04671   
5378       9.39403    1.105209   0.94749   
5378.5     9.36862    1.02572    0.90353   
5379       9.346439   1.16231    1.05622   
5379.5     9.382809   1.088679   0.9260399 
5380       9.421129   1.00361    0.89142   
5380.5     9.405649   1.03869    0.92018   
5381       9.38377    1.039189   0.92136   
5381.5     9.345549   1.069019   0.8634599 
5382       9.32263    1.00495    0.8796899 
5382.5     9.301939   1.02003    0.8428099 
5383       9.29892    1.001949   0.84122   
5383.5     9.298      1.05516    0.8421099 
5384       9.297079   0.98216    0.8784599 
5384.5     9.331209   0.9604399  0.87885   
5385       9.36952    0.92216    0.8704599 
5385.5     9.39052    0.95725    0.8797699 
5386       9.391939   0.9398999  0.86156   
5386.5     9.356089   0.98166    0.8019199 
5387       9.33316    0.9208     0.7986    
5387.5     9.36495    0.9568599  0.86483   
5388       9.54253    1.318979   1.135579  
5388.5     9.978809   1.62873    1.640739  
5389       10.09577   2.9071     2.62963   
5389.5     9.83968    3.64442    3.61319   
5390       9.837679   4.094709   4.07939   
5390.5     9.870699   4.466829   4.45599   
5391       9.86068    3.56872    3.419399  
5391.5     9.77611    2.87961    2.92468   
5392       9.69577    1.539829   1.78936   
5392.5     9.75419    1.6501     1.743119  
5393       9.979969   1.31479    1.58554   
5393.5     9.960089   1.531699   1.602389  
5394       10.0045    1.49764    1.68938   
5394.5     10.20879   2.37233    2.165339  
5395       10.10624   3.24409    3.15737   
5395.5     9.82976    2.559669   2.27516   
5396       9.641199   1.12157    1.56884   
5396.5     9.43025    1.017799   1.2063    
5397       9.35462    1.034369   0.96206   
5397.5     9.382999   0.9680899  0.9355    
5398       9.42403    0.9731799  0.8576    
5398.5     9.46229    1.01198    0.86457   
5399       9.466419   0.8790799  0.8384299 
5399.5     9.46549    0.91131    0.8147199 
5400       9.46452    0.88157    0.76902   
5400.5     9.48031    0.84332    0.7674099 
5401       9.53244    0.85759    0.75427   
5401.5     9.606319   0.72657    0.7174699 
5402       9.649929   0.7129799  0.65776   
5402.5     9.5931     0.67582    0.57679   
5403       9.471579   0.59556    0.53385   
5403.5     9.38563    0.55356    0.51289   
5404       9.265829   0.58953    0.53166   
5404.5     9.25526    0.70847    0.61022   
5405       9.25387    0.8015599  0.72785   
5405.5     9.285019   0.88502    0.78815   
5406       9.290499   0.92703    0.7880599 
5406.5     9.34326    0.90696    0.7675899 
5407       9.39888    0.96459    0.78739   
5407.5     9.43906    0.94592    0.84592   
5408       9.51082    0.98418    0.8447599 
5408.5     9.55393    0.96374    0.8248399 
5409       9.52404    0.96793    0.82592   
5409.5     9.44842    1.038919   0.86155   
5410       9.36735    0.88269    0.81925   
5410.5     9.341059   0.9178799  0.7842699 
5411       9.35326    0.95617    0.8057899 
5411.5     9.423529   0.90078    0.8175399 
5412       9.46595    0.91531    0.82066   
5412.5     9.43508    0.9592299  0.83995   
5413       9.394079   0.9556199  0.83935   
5413.5     9.353039   0.93475    0.83875   
5414       9.309139   0.9157699  0.8339499 
5414.5     9.306389   0.9170799  0.82224   
5415       9.32118    0.9035699  0.8615    
5415.5     9.34087    0.91589    0.8991899 
5416       9.341669   0.91027    0.85439   
5416.5     9.34029    0.91939    0.80707   
5417       9.3738     0.92845    0.8405399 
5417.5     9.411669   0.9561     0.86      
5418       9.44952    0.98464    0.87314   
5418.5     9.4874     0.9583299  0.8658099 
5419       9.52861    1.016379   0.83935   
5419.5     9.494699   1.06444    0.8905699 
5420       9.45079    1.022309   0.8805699 
5420.5     9.377579   0.93484    0.83953   
5421       9.33218    0.97429    0.82117   
5421.5     9.29113    0.96355    0.84908   
5422       9.42415    0.91659    0.8198099 
5422.5     9.476479   0.9344     0.79045   
5423       9.46298    1.13046    1.114929  
5423.5     9.406979   1.929919   2.438479  
5424       9.4331     1.86984    2.427079  
5424.5     9.521969   1.570769   2.28749   
5425       9.58951    1.336599   2.50007   
5425.5     9.535719   2.23827    3.235829  
5426       9.42482    1.94135    2.78302   
5426.5     9.42865    1.44784    2.54361   
5427       9.326429   2.23421    3.372169  
5427.5     9.20228    2.351589   3.489619  
5428       9.190199   2.37223    3.238379  
5428.5     9.224289   2.15368    3.21394   
5429       9.29734    2.1867     3.05796   
5429.5     9.374189   2.28337    3.02586   
5430       9.41662    1.86031    2.8041    
5430.5     9.3878     1.77489    2.72718   
5431       9.344009   1.75211    2.71396   
5431.5     9.338379   1.879169   2.82391   
5432       9.301519   1.94809    2.96946   
5432.5     9.257629   2.0078     2.86321   
5433       9.255039   1.779229   2.79183   
5433.5     9.324369   1.977429   2.87643   
5434       9.34886    2.08632    3.1762    
5434.5     9.33209    2.454639   3.32835   
5435       9.328529   2.19804    3.205549  
5435.5     9.32715    2.14588    3.043799  
5436       9.32576    2.07168    2.91375   
5436.5     9.324369   2.15138    3.02494   
5437       9.322979   2.16554    3.02314   
5437.5     9.3216     2.17169    3.07338   
5438       9.355289   2.12673    3.228209  
5438.5     9.35836    2.237209   3.19763   
5439       9.39653    2.368179   3.29288   
5439.5     9.39514    2.22347    3.21678   
5440       9.393759   2.24686    3.380719  
5440.5     9.39237    2.3384     3.7023    
5441       9.390989   2.586249   3.790139  
5441.5     9.42436    2.352369   3.44802   
5442       9.462349   2.23       3.268149  
5442.5     9.500309   2.46406    3.405809  
5443       9.519499   2.543739   3.49167   
5443.5     9.50539    2.442209   3.500939  
5444       9.50139    2.408259   3.60213   
5444.5     9.46204    2.287789   3.60431   
5445       9.459059   2.20021    3.47931   
5445.5     9.4181     2.14582    3.31823   
5446       9.41671    2.13188    3.139979  
5446.5     9.415329   2.18189    3.169069  
5447       9.41394    2.22872    3.11727   
5447.5     9.41256    2.11854    2.990979  
5448       9.411169   2.0924     2.86722   
5448.5     9.425699   1.97995    2.7946    
5449       9.44553    1.88038    2.75031   
5449.5     9.481089   1.88938    2.725189  
5450       9.49905    1.90848    2.72355   
5450.5     9.523779   1.95383    2.770289  
5451       9.5228     2.08392    2.8814    
5451.5     9.52183    2.15871    2.81109   
5452       9.520849   2.02255    2.762899  
5452.5     9.51988    2.04285    2.84561   
5453       9.5189     2.164499   2.96003   
5453.5     9.56707    2.17985    2.97752   
5454       9.644129   2.15918    2.97687   
5454.5     9.810369   2.145129   2.956329  
