~Version
 VERS              .         3.0                           : CWLS LOG ASCII STANDARD - VERSION 3.0
 WRAP              .         NO                            : ONE LINE PER DEPTH STEP
 DLM               .         SPACE                         : DELIMITING CHARACTER(SPACE TAB OR COMMA)
~Well Information
#_______________________________________________________________________________
#
#PARAMETER_NAME    .UNIT     VALUE                         : DESCRIPTION
#_______________________________________________________________________________
STRT               .ft       5000                          : First reference value
STOP               .ft       8049.5                        : Last reference value
STEP               .ft       0.5                           : Step increment
NULL               .         -9999                         : Missing value
COMP               .                                       : Company
WELL               .         EGBM-002                      : Well name
FLD                .         EGBEMA                        : Field
LOC                .                                       : Location
SRVC               .                                       : Service Company
CTRY               .                                       : Country
DATE               .         1967/05/21                    : Service Date
X                  .                                       : X or East-West coordinate
Y                  .                                       : Y or North South coordinate
GDAT               .                                       : Geodetic Datum
HZCS               .                                       : Horizontal Co-ordinate System
APIN               .         10802/01                      : 
BHT                .degC     -999.25                       : 
BLI                .ft       8085                          : 
BS                 .in       -999.25                       : 
CREATION-TIME      .         2067/5/21 0_0                 : 
CSIZ               .in       7                             : 
DFD                .g/cm3    -999.25                       : 
DFT                .         BENT.SPERSE.                  : 
DFV                .s        -999.25                       : 
ELZ                .in       -999.25                       : 
FIELD-NAME         .         EGBEMA                        : 
FILE-ID            .         SOH6  .8                      : 
FILE-NUMBER        .         0                             : 
FILE-SET-NAME      .                                       : 
FILE-SET-NUMBER    .         0                             : 
FILE-TYPE          .         PTF                           : 
HIDE               .         Well/Hole_ EGBM-2  Service Name_ NL  Run Number_ 1: 
LCC                .         0                             : 
LMF                .         1                             : 
MST                .degC     -999.25                       : 
NAME-SPACE-NAME    .         LIS                           : 
NAME-SPACE-VERSION .         0                             : 
PRODUC             .         SHELL(PARASOL)                : 
PRODUCER-CODE      .         0                             : 
PRODUCER-NAME      .         Schlumberger                  : 
PRODUCT            .                                       : 
PROGRAMS           .         INC                           : 
R1                 .         N. SPACING = 19.5"<_techsia_br_>: 
R2                 .         <_techsia_br_>                : 
R3                 .         DISTANCE N.-CCL = 8 1/2<_techsia_br_>: 
R4                 .         TIME LAG        =<_techsia_br_>: 
R5                 .         CCL TOO DEEP BY9 1/2          : 
R6                 .         LATEROLOG 3<_techsia_br_>     : 
R7                 .         GUARD LENGTH  5'<_techsia_br_>: 
R8                 .         BEAM WIDTH 12"                : 
RMCS               .ohm.m    -999.25                       : 
RMFS               .ohm.m    -999.25                       : 
RMS                .ohm.m    -999.25                       : 
TCS                .h        -999.25                       : 
TDD                .ft       8087                          : 
TDL                .ft       8085                          : 
TLI                .ft       5000                          : 
VERSION            .         2P01                          : 
WELL-ID            .         10802/01                      : 
WELL-NAME          .         EGBM-002                      : 
WN                 .         EGBM-002                      : 
~Parameter Information Block
#_______________________________________________________________________________
#
#PARAMETER_NAME    .UNIT     VALUE                         : DESCRIPTION
#_______________________________________________________________________________
SET                .         SOH10 _7_1                    : 
ACQUISITION-PRODUCT .         DLIS/U                        : 
CREATION-TIME      .         2026/5/13 10_15               : 
DLIS_FRAME_DIRECTION .         INCREASING                    : 
DLIS_FRAME_NAME    .         1                             : 
DLIS_FRAME_SPACING .ft       0.5                           : 
FIELD-NAME         .         EGBEMA                        : 
FILE-ID            .         SOH10 .7                      : 
FILE-NUMBER        .         6                             : 
FILE-SET-NAME      .         LIS-TO-DLIS-CONVERSION        : 
FILE-SET-NUMBER    .         6309                          : 
FILE-TYPE          .         PTF                           : 
INDEX-TYPE         .         BOREHOLE-DEPTH                : 
NAME-SPACE-NAME    .                                       : 
NAME-SPACE-VERSION .         0                             : 
OriginalDatasetName .         1                             : 
PRODUCER-CODE      .         440                           : 
PRODUCER-NAME      .         Schlumberger                  : 
PRODUCT            .         DLIS/U                        : 
PROGRAMS           .         LIS-TO-DLIS                   : 
TLFamily_CALM      .         Caliper                       : 
TLFamily_DEPT      .         Measured Depth                : 
TLFamily_MLI       .         Resistivity - Micro           : 
TLFamily_MLN       .         Resistivity - Micro           : 
VERSION            .         0.1                           : 
WELL-ID            .         10802/01                      : 
WELL-NAME          .         EGBM-002                      : 
~Curve Information
#_______________________________________________________________________________
#
#LOGNAME           .UNIT     LOG_ID                        : DESCRIPTION
#_______________________________________________________________________________
DEPT               .ft                                     :  {F}
CALM               .in                                     :  {F}
MLI                .ohm.m                                  :  {F}
MLN                .ohm.m                                  :  {F}
~Ascii
# ...
7639       9.558479   1.22261    1.121889  
7639.5     9.559839   1.125259   1.06424   
7640       9.55905    1.0637     1.024799  
7640.5     9.55827    1.06325    1.042959  
7641       9.59115    1.04301    1.00386   
7641.5     9.629539   1.04391    1.04194   
7642       9.701229   1.08161    1.01355   
7642.5     9.74547    1.04274    1.06022   
7643       9.751179   1.070109   1.02277   
7643.5     9.750389   1.02003    1.058599  
7644       9.749599   1.002509   1.00208   
7644.5     9.748819   1.04169    1.037189  
7645       9.74803    1.07871    0.98171   
7645.5     9.779949   1.01501    0.9929399 
7646       9.7854     0.9436899  0.9044299 
7646.5     9.785009   1.004109   0.96714   
7647       9.75141    1.059279   0.9742399 
7647.5     9.744089   0.89977    0.93318   
7648       9.77602    0.96487    0.90641   
7648.5     9.814409   1.05209    0.95987   
7649       9.88476    1.06152    0.9944299 
7649.5     9.94619    1.05211    0.9606299 
7650       10.03511   1.01056    0.9844199 
7650.5     10.05448   1.153159   1.008829  
7651       9.92284    1.065029   1.113939  
7651.5     9.83016    1.188379   1.06368   
7652       9.854069   1.13326    1.07251   
7652.5     9.825069   1.111779   1.03208   
7653       9.747679   1.13122    1.04159   
7653.5     9.66729    1.034559   1.049419  
7654       9.65626    1.167589   0.98996   
7654.5     9.62093    1.00822    0.9985    
7655       9.583429   0.9685199  0.96682   
7655.5     9.540169   0.969      0.96776   
7656       9.535519   1.008639   0.97514   
7656.5     9.64027    1.076289   0.9393899 
7657       9.72208    1.105      1.00807   
7657.5     9.799629   1.06327    1.06438   
7658       9.80868    1.002569   1.06322   
7658.5     9.80805    0.98427    1.029699  
7659       9.77232    0.9823799  0.96375   
7659.5     9.695959   1.001559   0.95901   
7660       9.615519   0.99983    0.91197   
7660.5     9.570919   0.9789599  0.94023   
7661       9.568499   0.95941    0.93794   
7661.5     9.56778    0.95865    0.91649   
7662       9.567129   0.9578899  0.89993   
7662.5     9.58552    0.97823    0.9371899 
7663       9.585539   0.9962599  0.9182    
7663.5     9.566999   0.9755599  0.9341099 
7664       9.566109   0.9748     0.9149699 
7664.5     9.563919   0.9740399  0.93415   
7665       9.56324    0.97328    0.91171   
7665.5     9.56259    0.97252    0.89465   
7666       9.63735    0.98338    0.9341999 
7666.5     9.734339   1.03173    0.99296   
7667       9.795109   1.049359   1.05133   
7667.5     9.796469   1.071199   1.08898   
7668       9.83408    1.16801    1.068789  
7668.5     9.86993    1.087839   1.08766   
7669       9.89102    1.126519   1.067309  
7669.5     9.946629   1.20297    1.10611   
7670       9.9874     1.28333    1.125239  
7670.5     10.02773   1.08286    1.14405   
7671       10.02864   0.92777    1.17307   
7671.5     9.953659   1.198319   1.16362   
7672       9.91066    1.21227    1.16221   
7672.5     9.870529   1.220659   1.14191   
7673       9.868399   1.240069   1.160529  
7673.5     9.867739   1.435539   1.17009   
7674       10.01853   1.658319   1.139709  
7674.5     10.17658   1.162729   1.09853   
7675       10.21933   1.157729   1.097919  
7675.5     10.22018   1.233      1.156019  
7676       10.18121   1.37256    1.23292   
7676.5     10.14096   1.40584    1.29346   
7677       10.10067   1.24861    1.216599  
7677.5     10.09863   1.23304    1.155169  
7678       10.13756   1.252999   1.23      
7678.5     10.17635   1.203059   1.174     
7679       10.19499   0.8958399  1.091769  
7679.5     10.25171   1.010489   1.070649  
7680       10.29075   1.225349   1.05056   
7680.5     10.36765   1.2576     1.06983   
7681       10.40959   1.08898    1.07877   
7681.5     10.37331   1.22018    1.107849  
7682       10.29335   1.25241    1.14713   
7682.5     10.13242   1.20533    1.16562   
7683       10.01227   1.263109   1.204889  
7683.5     9.973389   1.28229    1.22341   
7684       9.933279   1.18956    1.18713   
7684.5     9.88942    1.00177    1.072749  
7685       9.80995    1.00509    1.001619  
7685.5     9.795809   1.081349   0.98311   
7686       9.85178    0.9988099  1.00037   
7686.5     9.8459     0.93865    0.9592999 
7687       9.80657    0.9622799  0.9398299 
7687.5     9.765909   0.9760599  0.95841   
7688       9.741499   0.96163    0.9368299 
7688.5     9.871199   0.9549     0.9197199 
7689       10.08178   0.9251499  0.93678   
7689.5     10.01937   0.95426    0.91382   
7690       9.92565    0.97522    0.89772   
7690.5     9.882889   0.93941    0.9304199 
7691       9.845379   0.92019    0.89738   
7691.5     9.83877    0.99096    0.93494   
7692       9.8046     0.95478    0.9306999 
7692.5     9.79723    1.031389   0.93293   
7693       9.756559   0.9896699  0.9712299 
7693.5     9.723669   0.98989    0.97883   
7694       9.70327    0.96796    0.94779   
7694.5     9.70673    0.9323599  0.9323599 
7695       9.721739   1.00593    0.97287   
7695.5     9.72109    0.9794999  1.04587   
7696       9.720449   1.04669    1.00822   
7696.5     9.77067    1.085139   1.065009  
7697       9.809389   1.04577    1.022909  
7697.5     9.837059   1.0833     0.95295   
7698       9.83642    0.98096    0.96618   
7698.5     9.835779   0.96542    0.9812499 
7699       9.847029   1.04581    0.9627399 
7699.5     9.882849   1.03797    0.98215   
7700       9.961119   0.96164    0.97895   
7700.5     10.02928   1.01579    0.94144   
7701       9.989159   0.86181    0.9801199 
7701.5     9.907759   0.92014    0.98868   
7702       9.82637    0.93907    0.9598299 
7702.5     9.74655    0.93808    0.99831   
7703       9.74618    0.9180399  0.95767   
7703.5     9.78373    0.9387     0.9188399 
7704       9.820839   1.09061    1.051089  
7704.5     9.85849    1.22788    1.17242   
7705       9.89604    1.27249    1.196059  
7705.5     9.894699   1.148979   1.122459  
7706       9.89304    1.041039   1.03103   
7706.5     9.852209   0.99782    1.014899  
7707       9.810879   1.014139   1.015349  
7707.5     9.76955    0.9973199  0.97743   
7708       9.7474     0.9755499  0.9905499 
7708.5     9.76576    0.99173    1.021689  
7709       9.803259   1.13898    0.99462   
7709.5     9.85918    1.187639   1.02965   
7710       9.91744    1.07024    1.05108   
7710.5     9.956669   0.9994199  1.01754   
7711       9.99346    1.1445     0.977     
7711.5     9.99338    1.19603    0.99009   
7712       9.953819   1.066259   1.03014   
7712.5     9.87718    0.9982799  0.97936   
7713       9.831539   0.95652    0.9362999 
7713.5     9.75387    0.93214    0.93609   
7714       9.71129    0.93416    0.94226   
7714.5     9.706249   0.91318    0.94049   
7715       9.70447    0.89288    0.94961   
7715.5     9.70278    0.9242699  0.9328799 
7716       9.66518    0.89547    0.89547   
7716.5     9.659889   0.88922    0.92337   
7717       9.658089   0.9220799  0.9288599 
7717.5     9.656389   0.92853    0.90367   
7718       9.69277    0.87844    0.8899699 
7718.5     9.709749   0.88332    0.9123    
7719       9.72954    0.95116    0.9262999 
7719.5     9.72892    0.92685    0.89431   
7720       9.76309    0.83805    0.9028499 
7720.5     9.803539   0.8428299  0.9144399 
7721       9.82955    0.89624    0.8957499 
7721.5     9.84115    0.92135    0.91908   
7722       9.83947    0.92558    0.89473   
7722.5     9.83779    0.91175    0.9130599 
7723       9.85335    0.9979399  0.9552599 
7723.5     9.87307    1.20511    1.150769  
7724       9.906309   1.021649   1.05429   
7724.5     9.943939   0.96075    0.96389   
7725       10.11553   0.92362    0.9435899 
7725.5     10.29968   0.93188    0.94054   
7726       10.2487    0.94293    0.9014699 
7726.5     10.08455   0.94261    0.89123   
7727       9.99585    0.9695699  0.92231   
7727.5     10.06988   1.053889   0.90018   
7728       10.56643   1.04258    0.86176   
7728.5     10.58169   0.9412999  0.8814    
7729       10.54581   0.94751    0.88007   
7729.5     10.58351   1.006619   0.84082   
