~Version
 VERS              .         3.0                           : CWLS LOG ASCII STANDARD - VERSION 3.0
 WRAP              .         NO                            : ONE LINE PER DEPTH STEP
 DLM               .         SPACE                         : DELIMITING CHARACTER(SPACE TAB OR COMMA)
~Well Information
#_______________________________________________________________________________
#
#PARAMETER_NAME    .UNIT     VALUE                         : DESCRIPTION
#_______________________________________________________________________________
STRT               .ft       5000                          : First reference value
STOP               .ft       8049.5                        : Last reference value
STEP               .ft       0.5                           : Step increment
NULL               .         -9999                         : Missing value
COMP               .                                       : Company
WELL               .         EGBM-002                      : Well name
FLD                .         EGBEMA                        : Field
LOC                .                                       : Location
SRVC               .                                       : Service Company
CTRY               .                                       : Country
DATE               .         1967/05/21                    : Service Date
X                  .                                       : X or East-West coordinate
Y                  .                                       : Y or North South coordinate
GDAT               .                                       : Geodetic Datum
HZCS               .                                       : Horizontal Co-ordinate System
APIN               .         10802/01                      : 
BHT                .degC     -999.25                       : 
BLI                .ft       8085                          : 
BS                 .in       -999.25                       : 
CREATION-TIME      .         2067/5/21 0_0                 : 
CSIZ               .in       7                             : 
DFD                .g/cm3    -999.25                       : 
DFT                .         BENT.SPERSE.                  : 
DFV                .s        -999.25                       : 
ELZ                .in       -999.25                       : 
FIELD-NAME         .         EGBEMA                        : 
FILE-ID            .         SOH6  .8                      : 
FILE-NUMBER        .         0                             : 
FILE-SET-NAME      .                                       : 
FILE-SET-NUMBER    .         0                             : 
FILE-TYPE          .         PTF                           : 
HIDE               .         Well/Hole_ EGBM-2  Service Name_ NL  Run Number_ 1: 
LCC                .         0                             : 
LMF                .         1                             : 
MST                .degC     -999.25                       : 
NAME-SPACE-NAME    .         LIS                           : 
NAME-SPACE-VERSION .         0                             : 
PRODUC             .         SHELL(PARASOL)                : 
PRODUCER-CODE      .         0                             : 
PRODUCER-NAME      .         Schlumberger                  : 
PRODUCT            .                                       : 
PROGRAMS           .         INC                           : 
R1                 .         N. SPACING = 19.5"<_techsia_br_>: 
R2                 .         <_techsia_br_>                : 
R3                 .         DISTANCE N.-CCL = 8 1/2<_techsia_br_>: 
R4                 .         TIME LAG        =<_techsia_br_>: 
R5                 .         CCL TOO DEEP BY9 1/2          : 
R6                 .         LATEROLOG 3<_techsia_br_>     : 
R7                 .         GUARD LENGTH  5'<_techsia_br_>: 
R8                 .         BEAM WIDTH 12"                : 
RMCS               .ohm.m    -999.25                       : 
RMFS               .ohm.m    -999.25                       : 
RMS                .ohm.m    -999.25                       : 
TCS                .h        -999.25                       : 
TDD                .ft       8087                          : 
TDL                .ft       8085                          : 
TLI                .ft       5000                          : 
VERSION            .         2P01                          : 
WELL-ID            .         10802/01                      : 
WELL-NAME          .         EGBM-002                      : 
WN                 .         EGBM-002                      : 
~Parameter Information Block
#_______________________________________________________________________________
#
#PARAMETER_NAME    .UNIT     VALUE                         : DESCRIPTION
#_______________________________________________________________________________
SET                .         SOH10 _7_1                    : 
ACQUISITION-PRODUCT .         DLIS/U                        : 
CREATION-TIME      .         2026/5/13 10_15               : 
DLIS_FRAME_DIRECTION .         INCREASING                    : 
DLIS_FRAME_NAME    .         1                             : 
DLIS_FRAME_SPACING .ft       0.5                           : 
FIELD-NAME         .         EGBEMA                        : 
FILE-ID            .         SOH10 .7                      : 
FILE-NUMBER        .         6                             : 
FILE-SET-NAME      .         LIS-TO-DLIS-CONVERSION        : 
FILE-SET-NUMBER    .         6309                          : 
FILE-TYPE          .         PTF                           : 
INDEX-TYPE         .         BOREHOLE-DEPTH                : 
NAME-SPACE-NAME    .                                       : 
NAME-SPACE-VERSION .         0                             : 
OriginalDatasetName .         1                             : 
PRODUCER-CODE      .         440                           : 
PRODUCER-NAME      .         Schlumberger                  : 
PRODUCT            .         DLIS/U                        : 
PROGRAMS           .         LIS-TO-DLIS                   : 
TLFamily_CALM      .         Caliper                       : 
TLFamily_DEPT      .         Measured Depth                : 
TLFamily_MLI       .         Resistivity - Micro           : 
TLFamily_MLN       .         Resistivity - Micro           : 
VERSION            .         0.1                           : 
WELL-ID            .         10802/01                      : 
WELL-NAME          .         EGBM-002                      : 
~Curve Information
#_______________________________________________________________________________
#
#LOGNAME           .UNIT     LOG_ID                        : DESCRIPTION
#_______________________________________________________________________________
DEPT               .ft                                     :  {F}
CALM               .in                                     :  {F}
MLI                .ohm.m                                  :  {F}
MLN                .ohm.m                                  :  {F}
~Ascii
# ...
7548       9.74963    1.41634    1.61121   
7548.5     9.82588    1.697169   1.768419  
7549       9.823919   1.54729    1.90784   
7549.5     9.704069   1.56565    1.64503   
7550       9.703579   1.546659   1.575789  
7550.5     9.723249   2.45437    1.604119  
7551       9.4277     1.930409   1.690749  
7551.5     9.303379   1.50828    1.78622   
7552       9.31613    1.38431    1.848009  
7552.5     9.45751    1.58114    1.81973   
7553       9.650589   1.53307    1.86679   
7553.5     9.694519   1.61504    1.77646   
7554       9.66404    1.12434    1.54964   
7554.5     9.7803     1.151159   1.41787   
7555       9.832079   1.141649   1.645639  
7555.5     9.655479   1.506229   1.89843   
7556       9.531059   2.235189   2.12916   
7556.5     9.44936    1.987539   2.23283   
7557       9.488209   1.781099   1.933459  
7557.5     9.605719   1.76231    1.75954   
7558       9.52574    1.78749    1.847549  
7558.5     9.424459   1.698319   1.910749  
7559       9.36179    1.85625    1.846809  
7559.5     9.36968    2.02283    1.85119   
7560       9.506889   2.04877    2.17781   
7560.5     9.369829   1.89835    2.3769    
7561       9.32045    1.78231    2.42136   
7561.5     9.35881    1.49054    2.282599  
7562       9.397169   1.765229   2.21128   
7562.5     9.450569   2.13038    2.239909  
7563       9.56674    2.27603    2.48979   
7563.5     9.63085    2.31333    2.32202   
7564       9.62953    1.994659   2.5939    
7564.5     9.373159   2.023749   2.557859  
7565       9.148279   1.92882    2.349259  
7565.5     9.087179   1.72746    2.194969  
7566       9.041279   1.611549   2.099259  
7566.5     9.030729   1.42977    2.034699  
7567       9.05637    1.38439    1.987459  
7567.5     9.12826    1.45257    2.11712   
7568       9.233599   1.53994    2.31012   
7568.5     9.355869   1.657049   2.43802   
7569       9.51506    1.45134    1.878989  
7569.5     9.61894    1.620159   1.563459  
7570       9.56082    1.396199   1.50134   
7570.5     9.192539   1.424129   1.442969  
7571       9.21365    1.6931     1.3616    
7571.5     9.126289   1.33865    1.50256   
7572       8.94821    1.798369   1.75219   
7572.5     8.837479   1.79358    2.020869  
7573       8.8116     1.522229   2.010159  
7573.5     9.18284    1.37612    1.74366   
7574       9.71921    1.14071    1.533819  
7574.5     10.01078   1.129169   1.35695   
7575       10.14877   1.031549   1.20224   
7575.5     10.32287   1.09868    1.18924   
7576       9.93001    1.089829   1.21033   
7576.5     9.87627    1.222239   1.16243   
7577       9.914249   1.123039   1.12122   
7577.5     9.95233    1.087649   1.12972   
7578       10.06754   1.14135    1.165179  
7578.5     10.40278   1.055079   1.15664   
7579       10.56112   1.09921    1.120139  
7579.5     9.919939   1.29066    1.15916   
7580       9.786739   1.271359   1.202129  
7580.5     9.7456     1.09911    1.179839  
7581       9.66151    1.05456    1.15327   
7581.5     9.62709    0.9838099  1.168449  
7582       9.66534    0.97814    1.12289   
7582.5     9.69747    1.154779   1.07794   
7583       9.555489   1.06209    1.10454   
7583.5     9.504099   1.48063    1.58256   
7584       9.751049   1.28817    1.54453   
7584.5     9.684389   1.10697    1.349819  
7585       9.468599   1.130389   1.17847   
7585.5     9.358839   1.92161    1.554029  
7586       9.340239   1.68608    1.91412   
7586.5     9.33905    1.505409   1.571179  
7587       9.306629   1.814329   1.866269  
7587.5     9.265709   2.320359   2.33474   
7588       9.24077    2.807159   2.995219  
7588.5     9.282299   2.230229   2.61333   
7589       9.38674    1.846669   2.343579  
7589.5     9.50621    1.527519   1.99764   
7590       9.58724    1.267369   1.67357   
7590.5     9.68433    1.227019   1.40057   
7591       9.72254    1.18705    1.262179  
7591.5     9.66194    1.207709   1.28208   
7592       9.550049   1.04161    1.321139  
7592.5     9.420069   1.327129   1.35181   
7593       9.55512    1.65481    1.493099  
7593.5     9.422039   1.398379   1.6586    
7594       9.368349   1.07792    1.50766   
7594.5     9.38838    1.16677    1.361199  
7595       9.52335    1.36763    1.39104   
7595.5     9.648609   1.443259   1.54449   
7596       9.818129   1.380879   1.51557   
7596.5     9.757929   1.34322    1.43929   
7597       9.651699   1.46562    1.450709  
7597.5     9.628109   1.645809   1.562269  
7598       9.626909   1.435889   1.50336   
7598.5     9.62571    1.39808    1.36512   
7599       9.687149   1.136279   1.35197   
7599.5     9.79719    1.58377    1.29466   
7600       9.78982    0.98724    1.22814   
7600.5     9.746359   1.500609   1.23294   
7601       9.738579   1.185699   1.17171   
7601.5     9.737789   1.146139   1.17062   
7602       9.76972    1.487209   1.3613    
7602.5     9.775589   1.736079   1.648809  
7603       9.774799   1.3986     1.54947   
7603.5     9.707949   1.05927    1.417959  
7604       9.661219   1.36016    1.340679  
7604.5     9.62084    1.319819   1.38063   
7605       9.580479   1.73302    1.632     
7605.5     9.574299   1.870399   1.945829  
7606       9.573229   1.620219   1.964239  
7606.5     9.605999   1.264729   1.753389  
7607       9.62775    1.44376    1.616969  
7607.5     9.646599   1.69875    1.592299  
7608       9.648819   1.65175    1.6957    
7608.5     9.648029   1.848289   1.72505   
7609       9.64724    1.79552    1.743959  
7609.5     9.64646    1.613279   1.68087   
7610       9.64567    1.78084    1.60563   
7610.5     9.64488    1.49545    1.61239   
7611       9.677309   1.49109    1.660959  
7611.5     9.715689   1.65148    1.611279  
7612       9.690939   1.66048    1.60076   
7612.5     9.681099   1.54781    1.56215   
7613       9.680319   1.80686    1.725969  
7613.5     9.679529   2.164169   2.021729  
7614       9.71176    2.32809    2.256249  
7614.5     9.798759   1.93118    1.99066   
7615       9.83116    2.33712    2.00139   
7615.5     9.801289   1.48135    1.973189  
7616       9.760939   1.79441    1.687639  
7616.5     9.720549   1.81001    1.77782   
7617       9.713379   1.960719   1.878719  
7617.5     9.712599   1.73242    1.501329  
7618       9.777969   2.40491    1.306259  
7618.5     9.926399   1.75004    1.76437   
7619       10.00937   1.85259    1.769469  
7619.5     10.05563   1.993039   1.975679  
7620       10.03163   1.278239   1.58564   
7620.5     10.07875   0.9490499  1.29925   
7621       10.1621    0.83924    1.118259  
7621.5     10.17874   1.03546    0.96008   
7622       10.06673   0.8273799  0.8254299 
7622.5     9.847139   0.93354    0.8925799 
7623       9.7894     0.9527     0.9339299 
7623.5     9.715479   1.02024    0.9930899 
7624       9.70236    1.03618    1.014859  
7624.5     9.67173    1.018069   1.001679  
7625       9.661419   1.01596    1.05005   
7625.5     9.62714    1.034989   1.00036   
7626       9.62047    1.03504    1.017159  
7626.5     9.585989   0.9987099  0.9957    
7627       9.579529   0.9929199  1.015229  
7627.5     9.578739   0.99598    1.01231   
7628       9.57795    1.06603    1.052629  
7628.5     9.577169   1.035609   1.0145    
7629       9.54245    1.039929   1.051069  
7629.5     9.536219   0.9961599  0.99462   
7630       9.51841    0.97225    1.011419  
7630.5     9.497879   1.065499   0.9817799 
7631       9.49449    1.063709   1.04748   
7631.5     9.476559   1.01195    0.9735299 
7632       9.47323    1.067829   1.04811   
7632.5     9.472439   1.069639   0.9917899 
7633       9.471649   1.03125    1.046989  
7633.5     9.453669   1.029099   1.009709  
7634       9.46756    1.10431    1.00962   
7634.5     9.46929    1.155849   0.98814   
7635       9.487339   1.20035    0.9483399 
7635.5     9.48736    1.071819   0.92758   
7636       9.524189   0.9674     0.87735   
7636.5     9.49387    0.9471999  0.8881199 
7637       9.485039   0.97665    0.92737   
7637.5     9.467089   1.04496    0.96612   
7638       9.480909   1.0055     0.98595   
7638.5     9.516769   1.04462    0.9869    
