~Version
 VERS              .         3.0                           : CWLS LOG ASCII STANDARD - VERSION 3.0
 WRAP              .         NO                            : ONE LINE PER DEPTH STEP
 DLM               .         SPACE                         : DELIMITING CHARACTER(SPACE TAB OR COMMA)
~Well Information
#_______________________________________________________________________________
#
#PARAMETER_NAME    .UNIT     VALUE                         : DESCRIPTION
#_______________________________________________________________________________
STRT               .ft       5000                          : First reference value
STOP               .ft       8049.5                        : Last reference value
STEP               .ft       0.5                           : Step increment
NULL               .         -9999                         : Missing value
COMP               .                                       : Company
WELL               .         EGBM-002                      : Well name
FLD                .         EGBEMA                        : Field
LOC                .                                       : Location
SRVC               .                                       : Service Company
CTRY               .                                       : Country
DATE               .         1967/05/21                    : Service Date
X                  .                                       : X or East-West coordinate
Y                  .                                       : Y or North South coordinate
GDAT               .                                       : Geodetic Datum
HZCS               .                                       : Horizontal Co-ordinate System
APIN               .         10802/01                      : 
BHT                .degC     -999.25                       : 
BLI                .ft       8085                          : 
BS                 .in       -999.25                       : 
CREATION-TIME      .         2067/5/21 0_0                 : 
CSIZ               .in       7                             : 
DFD                .g/cm3    -999.25                       : 
DFT                .         BENT.SPERSE.                  : 
DFV                .s        -999.25                       : 
ELZ                .in       -999.25                       : 
FIELD-NAME         .         EGBEMA                        : 
FILE-ID            .         SOH6  .8                      : 
FILE-NUMBER        .         0                             : 
FILE-SET-NAME      .                                       : 
FILE-SET-NUMBER    .         0                             : 
FILE-TYPE          .         PTF                           : 
HIDE               .         Well/Hole_ EGBM-2  Service Name_ NL  Run Number_ 1: 
LCC                .         0                             : 
LMF                .         1                             : 
MST                .degC     -999.25                       : 
NAME-SPACE-NAME    .         LIS                           : 
NAME-SPACE-VERSION .         0                             : 
PRODUC             .         SHELL(PARASOL)                : 
PRODUCER-CODE      .         0                             : 
PRODUCER-NAME      .         Schlumberger                  : 
PRODUCT            .                                       : 
PROGRAMS           .         INC                           : 
R1                 .         N. SPACING = 19.5"<_techsia_br_>: 
R2                 .         <_techsia_br_>                : 
R3                 .         DISTANCE N.-CCL = 8 1/2<_techsia_br_>: 
R4                 .         TIME LAG        =<_techsia_br_>: 
R5                 .         CCL TOO DEEP BY9 1/2          : 
R6                 .         LATEROLOG 3<_techsia_br_>     : 
R7                 .         GUARD LENGTH  5'<_techsia_br_>: 
R8                 .         BEAM WIDTH 12"                : 
RMCS               .ohm.m    -999.25                       : 
RMFS               .ohm.m    -999.25                       : 
RMS                .ohm.m    -999.25                       : 
TCS                .h        -999.25                       : 
TDD                .ft       8087                          : 
TDL                .ft       8085                          : 
TLI                .ft       5000                          : 
VERSION            .         2P01                          : 
WELL-ID            .         10802/01                      : 
WELL-NAME          .         EGBM-002                      : 
WN                 .         EGBM-002                      : 
~Parameter Information Block
#_______________________________________________________________________________
#
#PARAMETER_NAME    .UNIT     VALUE                         : DESCRIPTION
#_______________________________________________________________________________
SET                .         SOH10 _7_1                    : 
ACQUISITION-PRODUCT .         DLIS/U                        : 
CREATION-TIME      .         2026/5/13 10_15               : 
DLIS_FRAME_DIRECTION .         INCREASING                    : 
DLIS_FRAME_NAME    .         1                             : 
DLIS_FRAME_SPACING .ft       0.5                           : 
FIELD-NAME         .         EGBEMA                        : 
FILE-ID            .         SOH10 .7                      : 
FILE-NUMBER        .         6                             : 
FILE-SET-NAME      .         LIS-TO-DLIS-CONVERSION        : 
FILE-SET-NUMBER    .         6309                          : 
FILE-TYPE          .         PTF                           : 
INDEX-TYPE         .         BOREHOLE-DEPTH                : 
NAME-SPACE-NAME    .                                       : 
NAME-SPACE-VERSION .         0                             : 
OriginalDatasetName .         1                             : 
PRODUCER-CODE      .         440                           : 
PRODUCER-NAME      .         Schlumberger                  : 
PRODUCT            .         DLIS/U                        : 
PROGRAMS           .         LIS-TO-DLIS                   : 
TLFamily_CALM      .         Caliper                       : 
TLFamily_DEPT      .         Measured Depth                : 
TLFamily_MLI       .         Resistivity - Micro           : 
TLFamily_MLN       .         Resistivity - Micro           : 
VERSION            .         0.1                           : 
WELL-ID            .         10802/01                      : 
WELL-NAME          .         EGBM-002                      : 
~Curve Information
#_______________________________________________________________________________
#
#LOGNAME           .UNIT     LOG_ID                        : DESCRIPTION
#_______________________________________________________________________________
DEPT               .ft                                     :  {F}
CALM               .in                                     :  {F}
MLI                .ohm.m                                  :  {F}
MLN                .ohm.m                                  :  {F}
~Ascii
# ...
5455       9.803469   2.221359   2.86514   
5455.5     9.716709   2.097469   2.703139  
5456       9.671579   1.93866    2.632179  
5456.5     9.67453    2.05707    2.747069  
5457       9.71653    2.09699    2.845409  
5457.5     9.83259    1.932989   2.82519   
5458       9.901239   1.858399   2.700589  
5458.5     9.79652    1.909479   2.652989  
5459       9.709839   1.841729   2.65234   
5459.5     9.75733    1.75354    2.583839  
5460       9.753019   1.73368    2.450749  
5460.5     9.574049   1.86099    2.5743    
5461       9.50522    1.958529   2.72905   
5461.5     9.50231    1.94177    2.73043   
5462       9.501329   1.893339   2.67104   
5462.5     9.51911    1.91258    2.667669  
5463       9.53904    1.88225    2.616489  
5463.5     9.538059   1.839939   2.60592   
5464       9.573999   1.93824    2.700689  
5464.5     9.575779   1.89563    2.684939  
5465       9.57481    1.83521    2.71155   
5465.5     9.611919   1.90877    2.58852   
5466       9.6486     1.858729   2.546969  
5466.5     9.686859   1.88855    2.60396   
5467       9.727369   1.80423    2.690889  
5467.5     9.76338    1.825199   2.73654   
5468       9.76742    1.81353    2.64067   
5468.5     9.772869   1.81463    2.67694   
5469       9.805189   1.78514    2.68054   
5469.5     9.80422    1.79569    2.658589  
5470       9.803259   1.87817    2.69457   
5470.5     9.802299   1.953019   2.744289  
5471       9.766649   1.60298    2.478539  
5471.5     9.7255     1.704419   2.682529  
5472       9.684299   1.853789   2.763089  
5472.5     9.71467    1.97172    2.6774    
5473       9.797499   1.66959    2.47567   
5473.5     9.80257    1.894939   2.58814   
5474       9.80094    1.71805    2.41937   
5474.5     9.794609   1.78469    2.332999  
5475       9.753929   1.58781    2.31232   
5475.5     9.71323    1.54101    2.28593   
5476       9.67643    1.619639   2.35341   
5476.5     9.63525    1.663039   2.35044   
5477       9.630859   1.617319   2.32329   
5477.5     9.591589   1.63102    2.39343   
5478       9.551859   1.84468    2.50822   
5478.5     9.52335    1.86545    2.64238   
5479       9.50774    1.85263    2.757179  
5479.5     9.46772    1.972919   2.802059  
5480       9.46603    2.064839   2.78626   
5480.5     9.42618    1.900109   2.70891   
5481       9.424309   1.95892    2.7547    
5481.5     9.42333    2.16293    2.94374   
5482       9.42234    2.04745    2.91202   
5482.5     9.40177    1.96666    2.76952   
5483       9.38061    2.00178    2.64578   
5483.5     9.37962    1.961109   2.555019  
5484       9.37863    1.953549   2.55989   
5484.5     9.37764    2.043019   2.78089   
5485       9.37665    2.08949    2.90358   
5485.5     9.41474    2.034699   2.782249  
5486       9.41445    2.10119    2.622339  
5486.5     9.43289    2.06222    2.56891   
5487       9.452259   2.05769    2.828569  
5487.5     9.451269   2.37008    3.0169    
5488       9.4105     2.211639   2.88511   
5488.5     9.3699     2.16317    2.76149   
5489       9.368729   1.98915    2.6227    
5489.5     9.32795    1.96068    2.53342   
5490       9.327299   2.16492    2.57133   
5490.5     9.3657     2.055759   2.64765   
5491       9.384499   2.04254    2.750649  
5491.5     9.40358    2.10658    2.833059  
5492       9.40259    2.01415    2.693629  
5492.5     9.4016     2.018579   2.67912   
5493       9.40062    2.036389   2.677759  
5493.5     9.39963    2.05194    2.70523   
5494       9.39864    1.95014    2.70509   
5494.5     9.377319   1.90496    2.58939   
5495       9.594229   1.96921    2.56601   
5495.5     10.00087   2.9245     2.571199  
5496       10.01143   2.20442    2.79241   
5496.5     9.9911     2.20062    2.624869  
5497       9.997709   2.06903    2.84419   
5497.5     9.611799   2.175799   2.757339  
5498       9.473019   2.422649   2.83756   
5498.5     9.4694     2.439369   2.89882   
5499       9.468409   2.24337    2.90646   
5499.5     9.41264    2.16927    2.97056   
5500       9.306099   2.09168    2.81007   
5500.5     9.26535    1.941999   2.6992    
5501       9.263769   2.184449   2.738649  
5501.5     9.26219    2.18476    3.00787   
5502       9.247049   1.94842    2.94004   
5502.5     9.20542    1.89724    2.7638    
5503       9.168499   1.84703    2.639569  
5503.5     9.13645    1.722389   2.55684   
5504       9.148809   1.695439   2.49609   
5504.5     9.179909   1.77382    2.64736   
5505       9.211349   1.817929   2.74619   
5505.5     9.23613    1.69504    2.62204   
5506       9.24799    1.67978    2.53618   
5506.5     9.237949   1.65941    2.47471   
5507       9.205059   1.70193    2.547609  
5507.5     9.190039   1.757489   2.5337    
5508       9.20192    1.753289   2.474859  
5508.5     9.24011    1.736919   2.526139  
5509       9.238529   1.759      2.587709  
5509.5     9.22068    1.76094    2.58891   
5510       9.183229   1.688869   2.5348    
5510.5     9.11458    1.675159   2.49239   
5511       9.07329    1.6943     2.55799   
5511.5     9.088829   1.70463    2.634809  
5512       9.17375    1.653999   2.40444   
5512.5     9.289299   1.541149   2.19675   
5513       9.40974    1.949389   2.3517    
5513.5     9.55401    1.8319     2.41875   
5514       9.46105    1.92863    2.47651   
5514.5     9.446939   1.66251    2.51761   
5515       9.3988     1.672469   2.539909  
5515.5     9.53536    1.56184    1.893029  
5516       9.7973     1.524659   1.866719  
5516.5     9.97813    1.64135    1.886149  
5517       10.09378   1.8229     1.84777   
5517.5     10.03687   1.47425    1.84409   
5518       9.822439   1.43995    1.94679   
5518.5     9.702419   1.39942    2.052779  
5519       9.71369    1.27985    1.84026   
5519.5     9.720169   1.28547    1.7519    
5520       9.673349   1.22952    1.740009  
5520.5     9.59886    1.26635    1.765639  
5521       9.62586    1.24136    1.70498   
5521.5     9.6749     1.213779   1.67991   
5522       9.673279   1.25614    1.770539  
5522.5     9.677519   1.27343    1.716269  
5523       9.70825    1.2574     1.675099  
5523.5     9.7577     1.24803    1.654699  
5524       9.883289   1.2394     1.634319  
5524.5     9.92613    1.24193    1.62074   
5525       9.98332    1.24842    1.61873   
5525.5     10.06237   1.34676    1.62575   
5526       10.15051   1.643379   1.855829  
5526.5     10.14608   1.67715    2.0478    
5527       10.17373   1.85287    2.173039  
5527.5     10.28875   1.97903    2.294889  
5528       10.32623   1.89271    2.33047   
5528.5     10.32467   1.91515    2.351729  
5529       10.32323   1.95933    2.41587   
5529.5     10.32153   2.064839   2.279289  
5530       10.28074   1.90372    2.02325   
5530.5     10.19935   1.784349   1.8553    
5531       10.13258   1.64164    1.73893   
5531.5     10.21553   1.416519   1.743589  
5532       10.19459   1.70179    1.82821   
5532.5     10.11295   1.52623    1.855579  
5533       9.9508     1.456639   1.600889  
5533.5     9.83363    1.48996    1.48996   
5534       9.85387    1.484119   1.489389  
5534.5     9.86986    1.45638    1.498759  
5535       9.868219   1.445089   1.488259  
5535.5     9.86657    1.296459   1.447949  
5536       9.84337    1.26534    1.439859  
5536.5     9.778309   1.340349   1.45282   
5537       9.698149   1.406509   1.518829  
5537.5     9.62306    1.32646    1.69422   
5538       9.62974    1.28264    1.89526   
5538.5     9.789619   1.10884    1.59902   
5539       10.40839   0.9403399  1.47722   
5539.5     9.60672    1.10236    1.64259   
5540       9.45306    1.386849   1.86061   
5540.5     9.41608    1.415339   1.957299  
5541       9.41448    1.469319   2.02495   
5541.5     9.412899   1.39849    2.10409   
5542       9.409309   1.446119   2.17851   
5542.5     9.37027    1.641709   2.22777   
5543       9.32925    1.73708    2.4471    
5543.5     9.32177    1.296869   2.14841   
5544       9.291239   1.383369   2.143049  
5544.5     9.3328     1.55476    2.34908   
5545       9.405209   1.4247     2.1108    
5545.5     9.47901    1.25262    1.90527   
