~Version
 VERS              .         3.0                           : CWLS LOG ASCII STANDARD - VERSION 3.0
 WRAP              .         NO                            : ONE LINE PER DEPTH STEP
 DLM               .         SPACE                         : DELIMITING CHARACTER(SPACE TAB OR COMMA)
~Well Information
#_______________________________________________________________________________
#
#PARAMETER_NAME    .UNIT     VALUE                         : DESCRIPTION
#_______________________________________________________________________________
STRT               .ft       5000                          : First reference value
STOP               .ft       8049.5                        : Last reference value
STEP               .ft       0.5                           : Step increment
NULL               .         -9999                         : Missing value
COMP               .                                       : Company
WELL               .         EGBM-002                      : Well name
FLD                .         EGBEMA                        : Field
LOC                .                                       : Location
SRVC               .                                       : Service Company
CTRY               .                                       : Country
DATE               .         1967/05/21                    : Service Date
X                  .                                       : X or East-West coordinate
Y                  .                                       : Y or North South coordinate
GDAT               .                                       : Geodetic Datum
HZCS               .                                       : Horizontal Co-ordinate System
APIN               .         10802/01                      : 
BHT                .degC     -999.25                       : 
BLI                .ft       8085                          : 
BS                 .in       -999.25                       : 
CREATION-TIME      .         2067/5/21 0_0                 : 
CSIZ               .in       7                             : 
DFD                .g/cm3    -999.25                       : 
DFT                .         BENT.SPERSE.                  : 
DFV                .s        -999.25                       : 
ELZ                .in       -999.25                       : 
FIELD-NAME         .         EGBEMA                        : 
FILE-ID            .         SOH6  .8                      : 
FILE-NUMBER        .         0                             : 
FILE-SET-NAME      .                                       : 
FILE-SET-NUMBER    .         0                             : 
FILE-TYPE          .         PTF                           : 
HIDE               .         Well/Hole_ EGBM-2  Service Name_ NL  Run Number_ 1: 
LCC                .         0                             : 
LMF                .         1                             : 
MST                .degC     -999.25                       : 
NAME-SPACE-NAME    .         LIS                           : 
NAME-SPACE-VERSION .         0                             : 
PRODUC             .         SHELL(PARASOL)                : 
PRODUCER-CODE      .         0                             : 
PRODUCER-NAME      .         Schlumberger                  : 
PRODUCT            .                                       : 
PROGRAMS           .         INC                           : 
R1                 .         N. SPACING = 19.5"<_techsia_br_>: 
R2                 .         <_techsia_br_>                : 
R3                 .         DISTANCE N.-CCL = 8 1/2<_techsia_br_>: 
R4                 .         TIME LAG        =<_techsia_br_>: 
R5                 .         CCL TOO DEEP BY9 1/2          : 
R6                 .         LATEROLOG 3<_techsia_br_>     : 
R7                 .         GUARD LENGTH  5'<_techsia_br_>: 
R8                 .         BEAM WIDTH 12"                : 
RMCS               .ohm.m    -999.25                       : 
RMFS               .ohm.m    -999.25                       : 
RMS                .ohm.m    -999.25                       : 
TCS                .h        -999.25                       : 
TDD                .ft       8087                          : 
TDL                .ft       8085                          : 
TLI                .ft       5000                          : 
VERSION            .         2P01                          : 
WELL-ID            .         10802/01                      : 
WELL-NAME          .         EGBM-002                      : 
WN                 .         EGBM-002                      : 
~Parameter Information Block
#_______________________________________________________________________________
#
#PARAMETER_NAME    .UNIT     VALUE                         : DESCRIPTION
#_______________________________________________________________________________
SET                .         SOH10 _7_1                    : 
ACQUISITION-PRODUCT .         DLIS/U                        : 
CREATION-TIME      .         2026/5/13 10_15               : 
DLIS_FRAME_DIRECTION .         INCREASING                    : 
DLIS_FRAME_NAME    .         1                             : 
DLIS_FRAME_SPACING .ft       0.5                           : 
FIELD-NAME         .         EGBEMA                        : 
FILE-ID            .         SOH10 .7                      : 
FILE-NUMBER        .         6                             : 
FILE-SET-NAME      .         LIS-TO-DLIS-CONVERSION        : 
FILE-SET-NUMBER    .         6309                          : 
FILE-TYPE          .         PTF                           : 
INDEX-TYPE         .         BOREHOLE-DEPTH                : 
NAME-SPACE-NAME    .                                       : 
NAME-SPACE-VERSION .         0                             : 
OriginalDatasetName .         1                             : 
PRODUCER-CODE      .         440                           : 
PRODUCER-NAME      .         Schlumberger                  : 
PRODUCT            .         DLIS/U                        : 
PROGRAMS           .         LIS-TO-DLIS                   : 
TLFamily_CALM      .         Caliper                       : 
TLFamily_DEPT      .         Measured Depth                : 
TLFamily_MLI       .         Resistivity - Micro           : 
TLFamily_MLN       .         Resistivity - Micro           : 
VERSION            .         0.1                           : 
WELL-ID            .         10802/01                      : 
WELL-NAME          .         EGBM-002                      : 
~Curve Information
#_______________________________________________________________________________
#
#LOGNAME           .UNIT     LOG_ID                        : DESCRIPTION
#_______________________________________________________________________________
DEPT               .ft                                     :  {F}
CALM               .in                                     :  {F}
MLI                .ohm.m                                  :  {F}
MLN                .ohm.m                                  :  {F}
~Ascii
5000.0     -9999      0.8574899  -9999     
5000.5     9.57675    0.84122    0.69944   
5001       9.57901    0.89793    0.7309999 
5001.5     9.612959   0.9180599  0.7699499 
5002       9.604839   0.9703599  0.8267    
5002.5     9.569639   1.767969   0.94522   
5003       9.682339   2.415919   1.57869   
5003.5     10.10945   2.279469   2.89542   
5004       10.09523   2.259459   3.9044    
5004.5     9.8745     2.15805    3.82521   
5005       9.84923    1.95039    3.269899  
5005.5     9.750719   1.90368    2.5724    
5006       9.80971    1.153749   1.8171    
5006.5     10.37842   1.04976    1.61864   
5007       10.40576   1.2233     1.73668   
5007.5     10.22837   1.29266    1.771359  
5008       10.15173   1.160439   1.813029  
5008.5     9.751509   1.80841    1.94094   
5009       9.407839   1.4934     2.07541   
5009.5     9.305859   2.02529    2.28025   
5010       9.33461    1.45118    2.08816   
5010.5     9.44257    1.29707    1.899509  
5011       9.52973    1.23353    1.85088   
5011.5     9.50709    1.653749   2.11212   
5012       9.39385    1.642739   2.22462   
5012.5     9.406029   1.61994    2.18456   
5013       9.41275    1.646919   2.129849  
5013.5     9.37113    1.624829   2.06211   
5014       9.32951    1.5664     2.03667   
5014.5     9.359959   1.600869   2.14221   
5015       9.43018    1.328739   2.01867   
5015.5     9.345459   1.26018    1.88472   
5016       9.28249    1.985169   2.37085   
5016.5     9.24085    1.92525    2.36815   
5017       9.272699   1.712139   2.25875   
5017.5     9.316929   1.88225    2.27028   
5018       9.31513    1.96606    2.27743   
5018.5     9.31892    1.848499   2.25869   
5019       9.436289   1.57706    2.10216   
5019.5     9.815119   1.283899   1.81108   
5020       10.34975   1.12848    1.71417   
5020.5     10.62057   1.194799   1.68961   
5021       10.61969   1.06604    1.53657   
5021.5     10.10601   1.19154    1.71612   
5022       9.8582     1.24214    1.934489  
5022.5     9.65177    1.55516    2.13243   
5023       9.616089   1.50375    2.07193   
5023.5     9.654169   1.41202    1.9998    
5024       9.477579   1.622129   2.47091   
5024.5     9.33847    2.13198    2.674729  
5025       9.252939   2.58573    2.67132   
5025.5     9.248249   2.05064    2.48734   
5026       9.25639    1.89318    2.40012   
5026.5     9.329319   1.808749   2.3244    
5027       9.362499   1.91945    2.35287   
5027.5     9.360699   2.0673     2.47742   
5028       9.280939   1.89083    2.503289  
5028.5     9.237419   1.809859   2.52047   
5029       9.235609   2.2134     2.6846    
5029.5     9.272539   2.437469   2.86938   
5030       9.2719     2.424629   3.036719  
5030.5     9.309999   2.26553    2.862249  
5031       9.308199   2.147099   2.79185   
5031.5     9.3064     1.98821    2.55295   
5032       9.30459    1.914519   2.47164   
5032.5     9.30279    2.03381    2.51347   
5033       9.300989   1.960649   2.50311   
5033.5     9.29954    2.085449   2.49667   
5034       9.317339   2.20735    2.635019  
5034.5     9.29558    2.45617    2.80795   
5035       9.293779   2.215509   2.676519  
5035.5     9.291969   2.10269    2.70422   
5036       9.290169   2.050429   2.41735   
5036.5     9.3283     1.98526    2.20515   
5037       9.32649    1.91363    2.075029  
5037.5     9.380119   1.801149   2.090019  
5038       9.54484    1.86343    2.114579  
5038.5     9.72311    1.87966    2.23786   
5039       9.879179   1.8354     1.998329  
5039.5     9.986549   1.796089   1.49722   
5040       9.91394    1.80273    1.70296   
5040.5     9.68236    1.680349   1.890269  
5041       9.535229   1.22536    1.38732   
5041.5     9.43012    1.00923    0.8632599 
5042       9.581869   1.20655    0.9322699 
5042.5     9.750509   1.356819   1.20998   
5043       9.808189   1.4331     1.403899  
5043.5     9.702679   1.528649   1.5089    
5044       9.757849   1.723229   1.63913   
5044.5     9.875589   2.18073    1.7393    
5045       9.83444    1.98422    1.942579  
5045.5     9.446579   1.45706    1.531879  
5046       9.41394    1.229079   1.3291    
5046.5     9.48657    1.179299   1.006789  
5047       9.570259   1.24196    1.00775   
5047.5     9.56847    1.15741    1.03286   
5048       9.57682    1.07685    0.9796    
5048.5     9.803099   1.08706    0.9328699 
5049       9.692959   1.0545     0.91263   
5049.5     9.487789   1.04711    0.87875   
5050       9.346359   1.11533    0.8628    
5050.5     9.355209   1.063689   0.8658199 
5051       9.385359   1.02745    0.9074199 
5051.5     9.43478    1.045939   0.9435199 
5052       9.43515    1.090839   0.9457999 
5052.5     9.35606    1.157439   0.9898399 
5053       9.342369   1.33478    1.244989  
5053.5     9.502829   2.233729   2.03581   
5054       9.69948    1.724199   1.592529  
5054.5     9.68059    1.184879   1.08834   
5055       9.630569   1.089939   0.8988299 
5055.5     9.58712    1.12791    0.91027   
5056       9.555759   1.19452    0.9977599 
5056.5     9.5441     1.18662    1.08449   
5057       9.537979   1.344339   1.13005   
5057.5     9.581579   1.1791     1.001989  
5058       9.58036    1.165649   0.90439   
5058.5     9.539209   1.05656    0.8382699 
5059       9.498079   1.06775    0.796     
5059.5     9.496859   1.1022     0.81629   
5060       9.459049   1.11401    0.96419   
5060.5     9.414629   1.22267    1.195149  
5061       9.41342    1.421619   1.3812    
5061.5     9.4807     1.45817    1.45478   
5062       9.597639   1.484159   1.409289  
5062.5     9.734039   1.52364    1.32237   
5063       9.7055     2.18224    2.301889  
5063.5     9.64082    1.856119   4.08655   
5064       9.56566    1.728169   4.306499  
5064.5     9.57217    1.71826    4.02951   
5065       9.603069   2.07698    3.537109  
5065.5     9.36672    1.501719   3.115769  
5066       9.26202    1.170469   1.43606   
5066.5     9.320429   1.13134    0.90729   
5067       9.359129   0.99366    0.84038   
5067.5     9.35721    0.9624699  0.83821   
5068       9.277069   1.000489   0.89282   
5068.5     9.31571    1.16       1.106569  
5069       9.35433    1.481839   1.47149   
5069.5     9.37484    1.5279     1.485649  
5070       9.39175    1.44018    1.35755   
5070.5     9.434269   1.310019   1.276739  
5071       9.508739   1.32498    1.2121    
5071.5     9.507519   1.31222    1.193089  
5072       9.46652    1.4529     1.169749  
5072.5     9.505089   1.36323    1.157559  
5073       9.543659   1.255719   1.15644   
5073.5     9.502659   1.27446    1.17517   
5074       9.457159   1.264489   1.174049  
5074.5     9.425579   1.345429   1.153069  
5075       9.45549    1.30585    1.1655    
5075.5     9.45804    1.24805    1.13099   
5076       9.456829   1.195359   1.075999  
5076.5     9.470989   1.24615    1.028379  
5077       9.489719   1.18318    1.0356    
5077.5     9.492939   1.407729   1.051749  
5078       9.52289    1.2918     1.03865   
5078.5     9.545879   1.223559   1.0175    
5079       9.5646     1.21879    0.99887   
5079.5     9.56752    1.27475    0.98286   
5080       9.5296     1.18792    0.98173   
5080.5     9.492699   1.2251     0.98059   
5081       9.484449   1.19631    0.94925   
5081.5     9.48324    1.14152    0.93515   
5082       9.482019   1.14615    0.94258   
5082.5     9.44647    1.10913    0.94118   
5083       9.439909   1.114079   0.91001   
5083.5     9.42281    1.104919   0.8942599 
5084       9.39867    1.13025    0.88778   
5084.5     9.414259   1.2184     0.87747   
5085       9.39744    1.03004    0.8882099 
5085.5     9.39422    1.028899   0.87369   
5086       9.393019   1.0342     0.8690599 
5086.5     9.391819   1.07443    0.84962   
5087       9.446459   1.073239   0.8464999 
5087.5     9.467619   1.04427    0.85887   
5088       9.467449   1.03484    0.83883   
5088.5     9.427969   1.002219   0.81073   
5089       9.38765    1.00108    0.8048999 
5089.5     9.384649   1.012529   0.81366   
5090       9.383419   1.0344     0.8088599 
5090.5     9.382219   0.95152    0.76748   
