~Version
 VERS              .         3.0                           : CWLS LOG ASCII STANDARD - VERSION 3.0
 WRAP              .         NO                            : ONE LINE PER DEPTH STEP
 DLM               .         SPACE                         : DELIMITING CHARACTER(SPACE TAB OR COMMA)
~Well Information
#_______________________________________________________________________________
#
#PARAMETER_NAME    .UNIT     VALUE                         : DESCRIPTION
#_______________________________________________________________________________
STRT               .ft       5000                          : First reference value
STOP               .ft       8049.5                        : Last reference value
STEP               .ft       0.5                           : Step increment
NULL               .         -9999                         : Missing value
COMP               .                                       : Company
WELL               .         EGBM-002                      : Well name
FLD                .         EGBEMA                        : Field
LOC                .                                       : Location
SRVC               .                                       : Service Company
CTRY               .                                       : Country
DATE               .         1967/05/21                    : Service Date
X                  .                                       : X or East-West coordinate
Y                  .                                       : Y or North South coordinate
GDAT               .                                       : Geodetic Datum
HZCS               .                                       : Horizontal Co-ordinate System
APIN               .         10802/01                      : 
BHT                .degC     -999.25                       : 
BLI                .ft       8085                          : 
BS                 .in       -999.25                       : 
CREATION-TIME      .         2067/5/21 0_0                 : 
CSIZ               .in       7                             : 
DFD                .g/cm3    -999.25                       : 
DFT                .         BENT.SPERSE.                  : 
DFV                .s        -999.25                       : 
ELZ                .in       -999.25                       : 
FIELD-NAME         .         EGBEMA                        : 
FILE-ID            .         SOH6  .8                      : 
FILE-NUMBER        .         0                             : 
FILE-SET-NAME      .                                       : 
FILE-SET-NUMBER    .         0                             : 
FILE-TYPE          .         PTF                           : 
HIDE               .         Well/Hole_ EGBM-2  Service Name_ NL  Run Number_ 1: 
LCC                .         0                             : 
LMF                .         1                             : 
MST                .degC     -999.25                       : 
NAME-SPACE-NAME    .         LIS                           : 
NAME-SPACE-VERSION .         0                             : 
PRODUC             .         SHELL(PARASOL)                : 
PRODUCER-CODE      .         0                             : 
PRODUCER-NAME      .         Schlumberger                  : 
PRODUCT            .                                       : 
PROGRAMS           .         INC                           : 
R1                 .         N. SPACING = 19.5"<_techsia_br_>: 
R2                 .         <_techsia_br_>                : 
R3                 .         DISTANCE N.-CCL = 8 1/2<_techsia_br_>: 
R4                 .         TIME LAG        =<_techsia_br_>: 
R5                 .         CCL TOO DEEP BY9 1/2          : 
R6                 .         LATEROLOG 3<_techsia_br_>     : 
R7                 .         GUARD LENGTH  5'<_techsia_br_>: 
R8                 .         BEAM WIDTH 12"                : 
RMCS               .ohm.m    -999.25                       : 
RMFS               .ohm.m    -999.25                       : 
RMS                .ohm.m    -999.25                       : 
TCS                .h        -999.25                       : 
TDD                .ft       8087                          : 
TDL                .ft       8085                          : 
TLI                .ft       5000                          : 
VERSION            .         2P01                          : 
WELL-ID            .         10802/01                      : 
WELL-NAME          .         EGBM-002                      : 
WN                 .         EGBM-002                      : 
~Parameter Information Block
#_______________________________________________________________________________
#
#PARAMETER_NAME    .UNIT     VALUE                         : DESCRIPTION
#_______________________________________________________________________________
SET                .         SOH10 _7_1                    : 
ACQUISITION-PRODUCT .         DLIS/U                        : 
CREATION-TIME      .         2026/5/13 10_15               : 
DLIS_FRAME_DIRECTION .         INCREASING                    : 
DLIS_FRAME_NAME    .         1                             : 
DLIS_FRAME_SPACING .ft       0.5                           : 
FIELD-NAME         .         EGBEMA                        : 
FILE-ID            .         SOH10 .7                      : 
FILE-NUMBER        .         6                             : 
FILE-SET-NAME      .         LIS-TO-DLIS-CONVERSION        : 
FILE-SET-NUMBER    .         6309                          : 
FILE-TYPE          .         PTF                           : 
INDEX-TYPE         .         BOREHOLE-DEPTH                : 
NAME-SPACE-NAME    .                                       : 
NAME-SPACE-VERSION .         0                             : 
OriginalDatasetName .         1                             : 
PRODUCER-CODE      .         440                           : 
PRODUCER-NAME      .         Schlumberger                  : 
PRODUCT            .         DLIS/U                        : 
PROGRAMS           .         LIS-TO-DLIS                   : 
TLFamily_CALM      .         Caliper                       : 
TLFamily_DEPT      .         Measured Depth                : 
TLFamily_MLI       .         Resistivity - Micro           : 
TLFamily_MLN       .         Resistivity - Micro           : 
VERSION            .         0.1                           : 
WELL-ID            .         10802/01                      : 
WELL-NAME          .         EGBM-002                      : 
~Curve Information
#_______________________________________________________________________________
#
#LOGNAME           .UNIT     LOG_ID                        : DESCRIPTION
#_______________________________________________________________________________
DEPT               .ft                                     :  {F}
CALM               .in                                     :  {F}
MLI                .ohm.m                                  :  {F}
MLN                .ohm.m                                  :  {F}
~Ascii
# ...
5819       10.36107   2.267779   2.46355   
5819.5     10.29278   1.872689   2.41385   
5820       10.30645   2.28236    2.19537   
5820.5     10.00272   1.65891    1.941529  
5821       10.10975   1.04212    1.530319  
5821.5     10.3816    0.9655399  1.57586   
5822       10.01238   1.40282    1.78101   
5822.5     10.00838   0.94774    1.54517   
5823       9.84495    1.19817    1.97763   
5823.5     9.65218    1.34701    2.22933   
5824       9.782259   1.47732    1.583309  
5824.5     10.85639   0.9137599  1.47623   
5825       10.25413   0.9976699  1.60777   
5825.5     9.762829   1.32481    1.915819  
5826       9.57374    1.427899   2.111179  
5826.5     9.537249   1.462649   2.091619  
5827       9.539209   1.176559   1.928479  
5827.5     9.53702    1.37311    2.11111   
5828       9.54574    1.605089   2.00338   
5828.5     9.77718    1.176729   1.86899   
5829       9.933559   1.08534    1.68956   
5829.5     10.09032   0.9897799  1.61778   
5830       10.09024   0.97145    1.56716   
5830.5     9.97172    1.02671    1.59429   
5831       9.93185    1.02172    1.68118   
5831.5     10.04863   1.064199   1.569099  
5832       9.85988    0.80248    1.429939  
5832.5     9.773319   1.12945    1.66786   
5833       9.93132    0.93344    1.551579  
5833.5     9.655479   1.022519   1.640209  
5834       9.497629   1.129959   1.77802   
5834.5     9.49581    1.18926    1.803969  
5835       9.495689   1.19084    1.750999  
5835.5     9.495569   1.070849   1.686549  
5836       9.495449   1.090489   1.76087   
5836.5     9.456989   1.21142    1.74677   
5837       9.45561    1.12863    1.869949  
5837.5     9.397329   1.396219   2.04079   
5838       9.357899   1.49474    2.20226   
5838.5     9.3368     1.47032    2.204229  
5839       9.336279   1.44813    2.16745   
5839.5     9.33613    1.428289   2.144819  
5840       9.336      1.464009   2.167279  
5840.5     9.335869   1.53156    2.21462   
5841       9.335739   1.54612    2.254519  
5841.5     9.373989   1.526389   2.08554   
5842       9.453379   1.31778    1.973189  
5842.5     9.454199   1.381749   2.080549  
5843       9.39851    1.4688     2.218969  
5843.5     9.34082    1.52403    2.24959   
5844       9.317669   1.47254    2.17804   
5844.5     9.295519   1.52244    2.188359  
5845       9.332909   1.544889   2.216479  
5845.5     9.389179   1.352139   2.213369  
5846       9.448059   1.36444    1.8658    
5846.5     9.453249   1.134399   1.894569  
5847       9.453119   1.200219   1.97001   
5847.5     9.452999   1.28358    2.036019  
5848       9.435059   1.271999   2.02739   
5848.5     9.415159   1.269759   2.007629  
5849       9.412949   1.285709   2.019839  
5849.5     9.39518    1.32422    2.0554    
5850       9.38991    1.38064    2.09485   
5850.5     9.413099   1.468539   2.16303   
5851       9.453169   1.507879   2.26285   
5851.5     9.48381    1.488819   2.321899  
5852       9.534149   1.52903    2.36216   
5852.5     9.574409   1.58931    2.42141   
5853       9.613489   1.66756    2.46122   
5853.5     9.65357    1.66667    2.479819  
5854       9.674599   1.636539   2.45864   
5854.5     9.69405    1.607169   2.380569  
5855       9.69445    1.588349   2.340879  
5855.5     9.69268    1.567539   2.301189  
5856       9.65556    1.55248    2.26268   
5856.5     9.655949   1.65199    2.262739  
5857       9.656349   1.72754    2.29534   
5857.5     9.65675    1.729609   2.344399  
5858       9.657139   1.793489   2.383969  
5858.5     9.67907    1.91128    2.44477   
5859       9.69762    2.010139   2.48109   
5859.5     9.70306    1.926209   2.47925   
5860       9.742069   1.914399   2.42702   
5860.5     9.778179   1.522019   2.1516    
5861       9.7742     1.3961     2.08556   
5861.5     9.733219   1.94473    2.316649  
5862       9.695219   1.95354    2.46874   
5862.5     9.660719   1.9135     2.48475   
5863       9.66111    1.95824    2.534909  
5863.5     9.66151    1.98899    2.585959  
5864       9.72975    1.97299    2.5686    
5864.5     9.787119   1.818279   2.28358   
5865       9.825399   1.828099   2.335139  
5865.5     9.983509   1.32338    2.031509  
5866       10.47381   1.021159   1.54392   
5866.5     10.47015   1.291759   1.599239  
5867       10.99719   1.10127    1.42976   
5867.5     11.09987   0.81742    1.30318   
5868       10.04428   1.66877    1.611199  
5868.5     9.814409   1.8236     2.16972   
5869       9.78492    1.887509   2.28391   
5869.5     9.77499    1.62743    2.24801   
5870       9.65873    1.93061    2.443939  
5870.5     9.60211    1.951369   2.54517   
5871       9.54999    1.901039   2.450029  
5871.5     9.548809   1.925349   2.424439  
5872       9.54921    1.94228    2.53597   
5872.5     9.54961    1.89326    2.478009  
5873       9.556099   1.92847    2.44827   
5873.5     9.57024    1.9239     2.41855   
5874       9.590479   1.90253    2.38369   
5874.5     9.590879   1.87585    2.388599  
5875       9.59128    1.89913    2.423369  
5875.5     9.591669   1.95498    2.44321   
5876       9.597229   1.91949    2.45078   
5876.5     9.632149   1.98316    2.522039  
5877       9.64686    2.029659   2.487459  
5877.5     9.67395    1.891649   2.518069  
5878       9.7127     1.993389   2.602489  
5878.5     9.7131     2.128059   2.644779  
5879       9.713499   2.1626     2.7121    
5879.5     9.71389    2.274059   2.84087   
5880       9.688499   1.9929     2.68159   
5880.5     9.675009   2.14131    2.71242   
5881       9.6754     2.06818    2.41766   
5881.5     9.70397    1.693179   2.14051   
5882       9.78949    1.486739   2.06833   
5882.5     9.835329   1.54463    2.048639  
5883       9.83572    1.72687    2.147099  
5883.5     9.80974    1.766689   2.039809  
5884       9.86355    1.225619   1.870239  
5884.5     9.916279   1.7258     1.964869  
5885       9.8717     1.207279   1.89687   
5885.5     9.769779   1.74918    2.00653   
5886       9.70199    1.94226    2.43966   
5886.5     9.73661    2.123859   2.573569  
5887       9.759529   1.869679   2.47184   
5887.5     9.742559   1.81566    2.37698   
5888       9.738119   1.884399   2.48619   
5888.5     9.760719   2.026239   2.56081   
5889       9.836109   1.93983    2.490649  
5889.5     9.833179   1.92738    2.44777   
5890       9.80159    1.848359   2.401279  
5890.5     9.801989   1.898029   2.41348   
5891       9.838509   1.930579   2.44483   
5891.5     9.878769   1.907459   2.40708   
5892       9.919079   1.848169   2.34173   
5892.5     10.09062   1.90308    2.34168   
5893       10.17685   1.81884    2.28712   
5893.5     10.23832   1.97135    2.337339  
5894       10.27857   1.54649    1.94171   
5894.5     10.31888   1.69175    2.08027   
5895       10.43653   1.739369   1.92554   
5895.5     10.5185    1.163099   1.73837   
5896       10.43016   1.22262    1.66949   
5896.5     10.40199   1.686999   2.056339  
5897       10.26      1.259279   1.83902   
5897.5     10.14634   1.355439   1.77568   
5898       10.04756   1.276939   2.01302   
5898.5     9.96085    1.497239   2.11644   
5899       9.91511    1.53805    2.156099  
5899.5     9.8885     1.57755    2.267759  
5900       9.838669   1.62723    2.465489  
5900.5     9.77009    1.759109   2.504789  
5901       9.73806    1.851069   2.46001   
5901.5     9.71476    1.71322    2.325589  
5902       9.731159   1.699969   2.18701   
5902.5     9.763599   1.55567    2.10226   
5903       9.77133    1.777599   2.189899  
5903.5     9.81283    1.77551    2.267679  
5904       9.847359   1.825419   2.33204   
5904.5     9.88336    1.87354    2.42485   
5905       9.891319   1.8754     2.46391   
5905.5     9.89156    1.81131    2.414129  
5906       9.8918     1.77253    2.3545    
5906.5     9.86001    1.772309   2.29486   
5907       9.852629   1.755819   2.27037   
5907.5     9.852869   1.75408    2.31125   
5908       9.885059   1.804009   2.382139  
5908.5     10.13327   1.849669   2.08319   
5909       10.17084   1.80011    2.05357   
5909.5     10.29556   1.83315    2.28693   
