~Version
 VERS              .         3.0                           : CWLS LOG ASCII STANDARD - VERSION 3.0
 WRAP              .         NO                            : ONE LINE PER DEPTH STEP
 DLM               .         SPACE                         : DELIMITING CHARACTER(SPACE TAB OR COMMA)
~Well Information
#_______________________________________________________________________________
#
#PARAMETER_NAME    .UNIT     VALUE                         : DESCRIPTION
#_______________________________________________________________________________
STRT               .ft       5000                          : First reference value
STOP               .ft       8049.5                        : Last reference value
STEP               .ft       0.5                           : Step increment
NULL               .         -9999                         : Missing value
COMP               .                                       : Company
WELL               .         EGBM-002                      : Well name
FLD                .         EGBEMA                        : Field
LOC                .                                       : Location
SRVC               .                                       : Service Company
CTRY               .                                       : Country
DATE               .         1967/05/21                    : Service Date
X                  .                                       : X or East-West coordinate
Y                  .                                       : Y or North South coordinate
GDAT               .                                       : Geodetic Datum
HZCS               .                                       : Horizontal Co-ordinate System
APIN               .         10802/01                      : 
BHT                .degC     -999.25                       : 
BLI                .ft       8085                          : 
BS                 .in       -999.25                       : 
CREATION-TIME      .         2067/5/21 0_0                 : 
CSIZ               .in       7                             : 
DFD                .g/cm3    -999.25                       : 
DFT                .         BENT.SPERSE.                  : 
DFV                .s        -999.25                       : 
ELZ                .in       -999.25                       : 
FIELD-NAME         .         EGBEMA                        : 
FILE-ID            .         SOH6  .8                      : 
FILE-NUMBER        .         0                             : 
FILE-SET-NAME      .                                       : 
FILE-SET-NUMBER    .         0                             : 
FILE-TYPE          .         PTF                           : 
HIDE               .         Well/Hole_ EGBM-2  Service Name_ NL  Run Number_ 1: 
LCC                .         0                             : 
LMF                .         1                             : 
MST                .degC     -999.25                       : 
NAME-SPACE-NAME    .         LIS                           : 
NAME-SPACE-VERSION .         0                             : 
PRODUC             .         SHELL(PARASOL)                : 
PRODUCER-CODE      .         0                             : 
PRODUCER-NAME      .         Schlumberger                  : 
PRODUCT            .                                       : 
PROGRAMS           .         INC                           : 
R1                 .         N. SPACING = 19.5"<_techsia_br_>: 
R2                 .         <_techsia_br_>                : 
R3                 .         DISTANCE N.-CCL = 8 1/2<_techsia_br_>: 
R4                 .         TIME LAG        =<_techsia_br_>: 
R5                 .         CCL TOO DEEP BY9 1/2          : 
R6                 .         LATEROLOG 3<_techsia_br_>     : 
R7                 .         GUARD LENGTH  5'<_techsia_br_>: 
R8                 .         BEAM WIDTH 12"                : 
RMCS               .ohm.m    -999.25                       : 
RMFS               .ohm.m    -999.25                       : 
RMS                .ohm.m    -999.25                       : 
TCS                .h        -999.25                       : 
TDD                .ft       8087                          : 
TDL                .ft       8085                          : 
TLI                .ft       5000                          : 
VERSION            .         2P01                          : 
WELL-ID            .         10802/01                      : 
WELL-NAME          .         EGBM-002                      : 
WN                 .         EGBM-002                      : 
~Parameter Information Block
#_______________________________________________________________________________
#
#PARAMETER_NAME    .UNIT     VALUE                         : DESCRIPTION
#_______________________________________________________________________________
SET                .         SOH10 _7_1                    : 
ACQUISITION-PRODUCT .         DLIS/U                        : 
CREATION-TIME      .         2026/5/13 10_15               : 
DLIS_FRAME_DIRECTION .         INCREASING                    : 
DLIS_FRAME_NAME    .         1                             : 
DLIS_FRAME_SPACING .ft       0.5                           : 
FIELD-NAME         .         EGBEMA                        : 
FILE-ID            .         SOH10 .7                      : 
FILE-NUMBER        .         6                             : 
FILE-SET-NAME      .         LIS-TO-DLIS-CONVERSION        : 
FILE-SET-NUMBER    .         6309                          : 
FILE-TYPE          .         PTF                           : 
INDEX-TYPE         .         BOREHOLE-DEPTH                : 
NAME-SPACE-NAME    .                                       : 
NAME-SPACE-VERSION .         0                             : 
OriginalDatasetName .         1                             : 
PRODUCER-CODE      .         440                           : 
PRODUCER-NAME      .         Schlumberger                  : 
PRODUCT            .         DLIS/U                        : 
PROGRAMS           .         LIS-TO-DLIS                   : 
TLFamily_CALM      .         Caliper                       : 
TLFamily_DEPT      .         Measured Depth                : 
TLFamily_MLI       .         Resistivity - Micro           : 
TLFamily_MLN       .         Resistivity - Micro           : 
VERSION            .         0.1                           : 
WELL-ID            .         10802/01                      : 
WELL-NAME          .         EGBM-002                      : 
~Curve Information
#_______________________________________________________________________________
#
#LOGNAME           .UNIT     LOG_ID                        : DESCRIPTION
#_______________________________________________________________________________
DEPT               .ft                                     :  {F}
CALM               .in                                     :  {F}
MLI                .ohm.m                                  :  {F}
MLN                .ohm.m                                  :  {F}
~Ascii
# ...
8003       9.33769    1.03251    0.8038399 
8003.5     9.316599   1.01287    0.77855   
8004       9.280249   1.012429   0.7874299 
8004.5     9.270809   0.99208    0.84261   
8005       9.20639    0.95037    0.83234   
8005.5     9.15686    0.9198099  0.8016599 
8006       9.115709   0.9310299  0.79265   
8006.5     9.04175    0.95332    0.79123   
8007       9.002039   0.98989    0.77719   
8007.5     8.9466     0.9669399  0.7552199 
8008       8.91263    0.90939    0.7501199 
8008.5     8.870359   0.88905    0.75739   
8009       8.82921    0.8687099  0.75922   
8009.5     8.823269   0.87256    0.7498    
8010       8.78669    0.9307699  0.73044   
8010.5     8.781359   0.92374    0.7280799 
8011       8.78017    0.8987399  0.7276599 
8011.5     8.81481    0.9026099  0.72723   
8012       8.85314    0.84621    0.7268    
8012.5     8.891479   0.83085    0.72638   
8013       8.927189   0.8254499  0.72595   
8013.5     8.970669   0.82502    0.72552   
8014       8.97064    0.8444899  0.7172899 
8014.5     8.933109   0.86395    0.70688   
8015       8.855709   0.8436199  0.70435   
8015.5     8.774149   0.84319    0.70392   
8016       8.7684     0.84276    0.7191    
8016.5     8.80637    0.8273699  0.7384499 
8017       8.844019   0.8220099  0.74243   
8017.5     8.862059   0.8215799  0.72645   
8018       8.88167    0.83358    0.7216799 
8018.5     8.880909   0.82564    0.72126   
8019       8.87973    0.82029    0.7363399 
8019.5     8.87854    0.81985    0.7535399 
8020       8.83807    0.80433    0.75976   
8020.5     8.836639   0.8141299  0.7438799 
8021       8.835449   0.81856    0.7213399 
8021.5     8.83461    0.8573799  0.70487   
8022       8.98872    0.9098799  0.77473   
8022.5     9.06827    0.83716    0.75115   
8023       9.067829   0.84154    0.70595   
8023.5     9.06665    0.89064    0.6971099 
8024       9.06546    0.87938    0.75063   
8024.5     9.12327    0.82539    0.75817   
8025       9.18141    0.8350099  0.74001   
8025.5     9.278599   0.8345799  0.72741   
8026       9.316839   0.8115799  0.7325699 
8026.5     9.29673    0.8263199  0.7520599 
8027       9.275749   0.8687099  0.73829   
8027.5     9.294279   0.83285    0.73347   
8028       9.293089   0.81741    0.73304   
8028.5     9.291899   0.83691    0.7170199 
8029       9.29071    0.883      0.72173   
8029.5     9.28952    0.8210399  0.7127299 
8030       9.28833    0.8257799  0.69337   
8030.5     9.3078     0.85014    0.7052599 
8031       9.32354    0.8674099  0.71841   
8031.5     9.282179   0.8369     0.72789   
8032       9.23974    0.82898    0.72963   
8032.5     9.19565    0.84341    0.74464   
8033       9.08358    0.8479899  0.76396   
8033.5     9.06782    0.84566    0.75393   
8034       8.94474    0.82924    0.7165899 
8034.5     8.940769   0.82683    0.6943099 
8035       9.039299   0.8263999  0.68734   
8035.5     9.03467    0.8259699  0.7026    
8036       8.99741    0.8255399  0.70636   
8036.5     9.0065     0.82511    0.7239699 
8037       9.02669    0.8096399  0.70972   
8037.5     8.98538    0.79817    0.7050799 
8038       8.940899   0.81653    0.7046599 
8038.5     9.11709    0.87166    0.71981   
8039       9.227409   0.89467    0.70802   
8039.5     9.21048    0.8423899  0.6876199 
8040       9.106459   0.8516999  0.69879   
8040.5     9.10527    0.91992    0.7103499 
8041       9.09441    0.8787299  0.73527   
8041.5     9.023849   0.86053    0.74139   
8042       9.033409   0.8644999  0.75633   
8042.5     9.13471    0.95602    0.7603899 
8043       9.21789    0.9557099  0.7599699 
8043.5     9.1558     0.89851    0.74412   
8044       9.05743    0.8661     0.73926   
8044.5     9.150349   0.8380899  0.75675   
8045       9.18771    0.85751    0.74282   
8045.5     9.12077    0.8816099  0.72242   
8046       9.06979    0.8520299  0.7020299 
8046.5     9.10387    0.84614    0.69744   
8047       9.185549   0.84601    0.7108899 
8047.5     9.24053    0.81888    0.7164299 
8048       9.206009   0.85447    0.71601   
8048.5     9.222309   0.8296     0.7310799 
8049       9.28232    0.8651     0.71943   
8049.5     9.35475    0.81882    0.7060599 
