~Version
 VERS              .         3.0                           : CWLS LOG ASCII STANDARD - VERSION 3.0
 WRAP              .         NO                            : ONE LINE PER DEPTH STEP
 DLM               .         SPACE                         : DELIMITING CHARACTER(SPACE TAB OR COMMA)
~Well Information
#_______________________________________________________________________________
#
#PARAMETER_NAME    .UNIT     VALUE                         : DESCRIPTION
#_______________________________________________________________________________
STRT               .ft       3000                          : First reference value
STOP               .ft       10476                         : Last reference value
STEP               .ft       0.5                           : Step increment
NULL               .         -9999                         : Missing value
COMP               .                                       : Company
WELL               .         EGBM-001                      : Well name
FLD                .         EGBEMA                        : Field
LOC                .                                       : Location
SRVC               .                                       : Service Company
CTRY               .                                       : Country
DATE               .         1960/10/25                    : Service Date
X                  .                                       : X or East-West coordinate
Y                  .                                       : Y or North South coordinate
GDAT               .                                       : Geodetic Datum
HZCS               .                                       : Horizontal Co-ordinate System
APIN               .         10801/01                      : 
BHT                .degC     -999.25                       : 
BLI                .ft       7010                          : 
BS                 .in       12.25                         : 
CREATION-TIME      .         2060/10/25 0_0                : 
DFD                .g/cm3    -999.25                       : 
DFT                .         CLAY BASE                     : 
DFV                .s        -999.25                       : 
ELZ                .         -999.25                       : 
FIELD-NAME         .         EGBEMA                        : 
FILE-ID            .         SOH20 .1                      : 
FILE-NUMBER        .         0                             : 
FILE-SET-NAME      .                                       : 
FILE-SET-NUMBER    .         0                             : 
FILE-TYPE          .         PTF                           : 
HIDE               .         Well/Hole_ EGBM-1  Service Name_ ES  Run Number_ 1: 
LCC                .         0                             : 
LMF                .         1                             : 
MST                .degC     -999.25                       : 
NAME-SPACE-NAME    .         LIS                           : 
NAME-SPACE-VERSION .         0                             : 
PRODUC             .         SHELL(PARASOL)                : 
PRODUCER-CODE      .         0                             : 
PRODUCER-NAME      .         Schlumberger                  : 
PRODUCT            .                                       : 
PROGRAMS           .         INC                           : 
R1                 .         LONG NORMAL GALVONOMETER 6 (1/10 BACK UP) NOT WORKING THEREFORE USED<_techsia_br_>: 
R2                 .         GALVONOMETER 5 (DOTTED) AS 1/10 BACK UP WITH GALVONOMETER 7 CONTINUOUS LINE<_techsia_br_>: 
R3                 .         AS USUAL GALVONOMETER<_techsia_br_>: 
R4                 .         <_techsia_br_>                : 
R5                 .         SHELL LAB MEASUREMENT<_techsia_br_>: 
R6                 .         <_techsia_br_>                : 
R7                 .         MUD      7.89 OHMS AT 75 DEG F<_techsia_br_>: 
R8                 .         FILTRATE 7.?8 OHMS AT 75 DEG F: 
RMCS               .ohm.m    -999.25                       : 
RMFS               .ohm.m    -999.25                       : 
RMS                .ohm.m    -999.25                       : 
TCS                .h        -999.25                       : 
TDD                .         -999.25                       : 
TDL                .         -999.25                       : 
TLI                .ft       1498                          : 
VERSION            .         2P01                          : 
WELL-ID            .         10801/01                      : 
WELL-NAME          .         EGBM-001                      : 
WN                 .         EGBM-001                      : 
~Parameter Information Block
#_______________________________________________________________________________
#
#PARAMETER_NAME    .UNIT     VALUE                         : DESCRIPTION
#_______________________________________________________________________________
SET                .         SOH11 _4_1                    : 
ACQUISITION-PRODUCT .         DLIS/U                        : 
CREATION-TIME      .         2026/5/13 8_57                : 
DLIS_FRAME_DIRECTION .         INCREASING                    : 
DLIS_FRAME_NAME    .         1                             : 
DLIS_FRAME_SPACING .ft       0.5                           : 
FIELD-NAME         .         EGBEMA                        : 
FILE-ID            .         SOH11 .4                      : 
FILE-NUMBER        .         4                             : 
FILE-SET-NAME      .         LIS-TO-DLIS-CONVERSION        : 
FILE-SET-NUMBER    .         14905                         : 
FILE-TYPE          .         PTF                           : 
INDEX-TYPE         .         BOREHOLE-DEPTH                : 
NAME-SPACE-NAME    .                                       : 
NAME-SPACE-VERSION .         0                             : 
OriginalDatasetName .         1                             : 
PRODUCER-CODE      .         440                           : 
PRODUCER-NAME      .         Schlumberger                  : 
PRODUCT            .         DLIS/U                        : 
PROGRAMS           .         LIS-TO-DLIS                   : 
TLFamily_DEPT      .         Measured Depth                : 
TLFamily_LN        .                                       : 
TLFamily_SN        .         Resistivity - Shallow         : 
TLFamily_SP        .         Spontaneous Potential         : 
VERSION            .         0.1                           : 
WELL-ID            .         10801/01                      : 
WELL-NAME          .         EGBM-001                      : 
~Curve Information
#_______________________________________________________________________________
#
#LOGNAME           .UNIT     LOG_ID                        : DESCRIPTION
#_______________________________________________________________________________
DEPT               .ft                                     :  {F}
LN                 .ohm.m                                  :  {F}
SN                 .ohm.m                                  :  {F}
SP                 .mV                                     :  {F}
~Ascii
# ...
4456       30.56331   23.25571   125.095   
4456.5     30.63058   23.05356   124.8853  
4457       30.69786   22.91356   124.587   
4457.5     30.76514   22.84399   124.2888  
4458       30.8324    22.77443   123.9906  
4458.5     30.56546   22.70486   123.6567  
4459       30.28772   22.61667   123.2964  
4459.5     30.00999   22.50012   122.9361  
4460       29.73225   22.38358   122.5758  
4460.5     29.48073   22.26703   122.1992  
4461       29.2323    22.15048   121.8131  
4461.5     28.98386   22.09631   121.427   
4462       28.67256   22.09631   121.0408  
4462.5     28.29274   22.09631   120.8642  
4463       27.78918   22.09631   120.698   
4463.5     26.90256   22.06377   120.5317  
4464       26.01466   21.96577   120.2399  
4464.5     25.01035   21.86777   119.8395  
4465       23.98917   21.64507   119.4391  
4465.5     22.55336   21.26454   119.0388  
4466       21.22855   20.73886   119.1231  
4466.5     20.24712   19.70287   119.2132  
4467       19.86131   18.99655   119.3032  
4467.5     19.5025    19.15053   119.5303  
4468       19.10304   18.76118   119.7847  
4468.5     18.8044    16.87721   120.8137  
4469       18.80859   14.99326   122.3578  
4469.5     18.88744   13.68846   122.5777  
4470       18.94014   12.55616   122.4957  
4470.5     18.86842   12.14926   122.662   
4471       18.8353    12.33442   123.8528  
4471.5     18.84099   12.88694   123.9861  
4472       18.94037   14.07848   122.571   
4472.5     18.97015   15.50782   119.9645  
4473       18.99196   16.59814   117.596   
4473.5     19.32622   17.87914   115.5164  
4474       19.64696   18.76508   115.0699  
4474.5     19.72401   19.34216   118.5305  
4475       19.66054   19.66916   120.1705  
4475.5     20.03333   19.82494   121.3926  
4476       21.0715    19.64531   121.9823  
4476.5     22.0748    19.54674   122.2432  
4477       22.30145   19.54674   122.3633  
4477.5     22.52812   19.6803    122.3527  
4478       22.68689   19.86003   122.0824  
4478.5     22.78938   20.03976   121.9544  
4479       22.89189   20.21524   122.2958  
4479.5     22.9944    20.38776   122.6372  
4480       23.09689   20.56026   122.8546  
4480.5     23.20151   20.70743   123.0276  
4481       23.38092   20.79727   123.2005  
4481.5     23.56035   20.8871    123.3379  
4482       23.73976   20.93442   123.4319  
4482.5     23.59131   20.7469    123.5258  
4483       23.39557   20.55939   123.3325  
4483.5     23.19984   20.32178   122.7561  
4484       22.75098   19.75432   122.4432  
4484.5     22.29782   19.18686   122.4432  
4485       21.908     19.04544   122.4432  
4485.5     21.58507   19.14813   122.3488  
4486       21.26213   19.25081   122.2505  
4486.5     20.98541   19.26344   122.1653  
4487       20.71632   18.85852   122.2554  
4487.5     20.24391   18.00288   122.3455  
4488       19.69206   18.46838   122.4356  
4488.5     19.13219   19.19473   122.364   
4489       18.73026   19.45868   122.2775  
4489.5     18.07466   19.21606   122.191   
4490       16.79221   19.1575    122.0292  
4490.5     15.50975   18.8708    121.8233  
4491       14.1767    17.77977   121.6174  
4491.5     12.64559   16.50627   121.944   
4492       11.59027   14.86551   122.3494  
4492.5     10.67449   13.42355   123.338   
4493       9.733362   11.8475    124.6281  
4493.5     8.813414   10.52308   127.87    
4494       8.321398   9.156786   129.7955  
4494.5     7.900837   7.781616   128.4194  
4495       7.646393   6.52211    128.6898  
4495.5     7.511379   5.479703   130.5214  
4496       7.396543   4.600424   137.2575  
4496.5     7.310082   3.961968   143.3138  
4497       7.229247   3.667853   145.9299  
4497.5     7.157457   3.73527    146.7315  
4498       7.137316   4.051951   146.6934  
4498.5     7.151663   4.687241   146.1526  
4499       7.263204   5.943525   144.9286  
4499.5     7.432334   7.571321   140.0653  
4500       7.807498   9.868258   132.3328  
4500.5     8.325106   12.61919   127.6793  
4501       9.111511   13.38611   125.6611  
4501.5     10.03756   13.65585   123.6818  
4502       11.34662   13.95439   122.0195  
4502.5     13.67464   14.42023   120.7629  
4503       14.89381   15.37468   120.2174  
4503.5     15.48465   15.76968   120.7006  
4504       16.05873   15.72268   119.6192  
4504.5     16.97968   15.74664   118.9174  
4505       17.58734   16.064     118.6631  
4505.5     18.12325   16.27336   118.6115  
4506       18.51268   16.42726   119.2599  
4506.5     18.88637   16.68173   120.3025  
4507       19.48022   17.01431   121.6002  
4507.5     19.7775    17.20583   123.3136  
4508       19.90852   17.239     124.24    
4508.5     20.03957   17.4012    125.0389  
4509       20.08485   17.81111   125.2551  
4509.5     20.08485   18.23471   124.6598  
4510       20.08485   18.64539   122.9545  
4510.5     20.08485   19.15456   120.7935  
4511       20.08485   19.70946   120.2869  
4511.5     20.08485   19.67628   119.9492  
4512       20.18454   19.64311   120.4125  
4512.5     20.39284   19.60994   120.5505  
4513       20.60114   19.57677   119.9148  
4513.5     20.80943   19.58389   119.3071  
4514       21.05797   19.97617   119.1268  
4514.5     21.42531   20.46378   118.891   
4515       21.85573   20.96317   118.5963  
4515.5     22.30544   20.96317   118.3015  
4516       22.77341   20.80525   118.1176  
4516.5     23.24138   20.37407   118.0095  
4517       23.68417   19.94287   117.9014  
4517.5     24.10088   19.58128   117.9885  
4518       24.51756   19.24437   118.0825  
4518.5     24.93427   18.90746   118.1765  
4519       25.22821   18.57053   118.4731  
4519.5     25.35121   18.66048   118.782   
4520       25.47421   19.12263   119.0646  
4520.5     25.59721   19.58479   119.231   
4521       25.72023   20.04697   119.3973  
4521.5     25.69223   20.592     119.5636  
4522       25.63071   21.15094   119.7167  
4522.5     25.5692    21.70987   119.8658  
4523       25.50768   22.09631   120.0149  
4523.5     25.45969   22.09631   120.164   
4524       25.45969   22.09631   119.7567  
4524.5     25.45969   22.09631   119.3243  
4525       25.45969   22.08847   118.8919  
4525.5     25.45969   22.01413   118.4611  
4526       25.45969   21.93979   118.1336  
4526.5     25.45969   21.86545   117.8061  
4527       25.45969   21.71127   117.4785  
4527.5     25.10509   21.36624   117.151   
4528       24.34544   21.02121   116.7869  
4528.5     23.58574   20.67888   116.4054  
4529       22.82578   20.58511   116.0238  
4529.5     22.0658    20.49136   115.6423  
4530       21.40359   20.3976    115.3615  
4530.5     20.74612   20.00867   115.4598  
4531       20.10001   19.61653   115.5581  
4531.5     19.51877   19.26344   115.694   
4532       18.73343   19.26344   115.9102  
4532.5     17.38799   19.041     116.1265  
4533       15.99477   18.6152    116.329   
4533.5     14.36156   18.18942   116.5255  
4534       12.72834   17.76364   116.722   
4534.5     10.2215    17.33786   117.5753  
4535       8.505241   16.45042   118.5928  
4535.5     7.874957   13.84778   120.2585  
4536       7.522156   11.31476   122.4203  
4536.5     7.294265   9.007025   125.5257  
4537       7.041429   7.220844   129.7381  
4537.5     6.646581   5.877016   135.1977  
4538       6.17641    4.933363   140.2625  
4538.5     5.659507   4.456727   143.1732  
4539       5.163184   4.061825   145.3343  
4539.5     4.689719   3.689419   145.9991  
4540       4.309588   3.167434   146.5757  
4540.5     3.944384   2.760249   146.9918  
4541       3.646262   2.609714   147.4036  
4541.5     3.401603   2.566588   147.7053  
4542       3.258128   2.583933   147.6023  
4542.5     3.158247   2.640678   147.4993  
4543       3.131326   2.695148   147.5067  
4543.5     3.149443   2.731083   147.6461  
4544       3.287822   2.767018   147.7856  
4544.5     3.428406   2.802953   147.925   
4545       3.57188    2.930543   148.0472  
4545.5     3.755529   3.062345   148.1412  
4546       3.986161   3.155409   148.2352  
4546.5     4.23598    3.221751   148.3816  
