~Version
 VERS              .         3.0                           : CWLS LOG ASCII STANDARD - VERSION 3.0
 WRAP              .         NO                            : ONE LINE PER DEPTH STEP
 DLM               .         SPACE                         : DELIMITING CHARACTER(SPACE TAB OR COMMA)
~Well Information
#_______________________________________________________________________________
#
#PARAMETER_NAME    .UNIT     VALUE                         : DESCRIPTION
#_______________________________________________________________________________
STRT               .ft       3000                          : First reference value
STOP               .ft       10476                         : Last reference value
STEP               .ft       0.5                           : Step increment
NULL               .         -9999                         : Missing value
COMP               .                                       : Company
WELL               .         EGBM-001                      : Well name
FLD                .         EGBEMA                        : Field
LOC                .                                       : Location
SRVC               .                                       : Service Company
CTRY               .                                       : Country
DATE               .         1960/10/25                    : Service Date
X                  .                                       : X or East-West coordinate
Y                  .                                       : Y or North South coordinate
GDAT               .                                       : Geodetic Datum
HZCS               .                                       : Horizontal Co-ordinate System
APIN               .         10801/01                      : 
BHT                .degC     -999.25                       : 
BLI                .ft       7010                          : 
BS                 .in       12.25                         : 
CREATION-TIME      .         2060/10/25 0_0                : 
DFD                .g/cm3    -999.25                       : 
DFT                .         CLAY BASE                     : 
DFV                .s        -999.25                       : 
ELZ                .         -999.25                       : 
FIELD-NAME         .         EGBEMA                        : 
FILE-ID            .         SOH20 .1                      : 
FILE-NUMBER        .         0                             : 
FILE-SET-NAME      .                                       : 
FILE-SET-NUMBER    .         0                             : 
FILE-TYPE          .         PTF                           : 
HIDE               .         Well/Hole_ EGBM-1  Service Name_ ES  Run Number_ 1: 
LCC                .         0                             : 
LMF                .         1                             : 
MST                .degC     -999.25                       : 
NAME-SPACE-NAME    .         LIS                           : 
NAME-SPACE-VERSION .         0                             : 
PRODUC             .         SHELL(PARASOL)                : 
PRODUCER-CODE      .         0                             : 
PRODUCER-NAME      .         Schlumberger                  : 
PRODUCT            .                                       : 
PROGRAMS           .         INC                           : 
R1                 .         LONG NORMAL GALVONOMETER 6 (1/10 BACK UP) NOT WORKING THEREFORE USED<_techsia_br_>: 
R2                 .         GALVONOMETER 5 (DOTTED) AS 1/10 BACK UP WITH GALVONOMETER 7 CONTINUOUS LINE<_techsia_br_>: 
R3                 .         AS USUAL GALVONOMETER<_techsia_br_>: 
R4                 .         <_techsia_br_>                : 
R5                 .         SHELL LAB MEASUREMENT<_techsia_br_>: 
R6                 .         <_techsia_br_>                : 
R7                 .         MUD      7.89 OHMS AT 75 DEG F<_techsia_br_>: 
R8                 .         FILTRATE 7.?8 OHMS AT 75 DEG F: 
RMCS               .ohm.m    -999.25                       : 
RMFS               .ohm.m    -999.25                       : 
RMS                .ohm.m    -999.25                       : 
TCS                .h        -999.25                       : 
TDD                .         -999.25                       : 
TDL                .         -999.25                       : 
TLI                .ft       1498                          : 
VERSION            .         2P01                          : 
WELL-ID            .         10801/01                      : 
WELL-NAME          .         EGBM-001                      : 
WN                 .         EGBM-001                      : 
~Parameter Information Block
#_______________________________________________________________________________
#
#PARAMETER_NAME    .UNIT     VALUE                         : DESCRIPTION
#_______________________________________________________________________________
SET                .         SOH11 _4_1                    : 
ACQUISITION-PRODUCT .         DLIS/U                        : 
CREATION-TIME      .         2026/5/13 8_57                : 
DLIS_FRAME_DIRECTION .         INCREASING                    : 
DLIS_FRAME_NAME    .         1                             : 
DLIS_FRAME_SPACING .ft       0.5                           : 
FIELD-NAME         .         EGBEMA                        : 
FILE-ID            .         SOH11 .4                      : 
FILE-NUMBER        .         4                             : 
FILE-SET-NAME      .         LIS-TO-DLIS-CONVERSION        : 
FILE-SET-NUMBER    .         14905                         : 
FILE-TYPE          .         PTF                           : 
INDEX-TYPE         .         BOREHOLE-DEPTH                : 
NAME-SPACE-NAME    .                                       : 
NAME-SPACE-VERSION .         0                             : 
OriginalDatasetName .         1                             : 
PRODUCER-CODE      .         440                           : 
PRODUCER-NAME      .         Schlumberger                  : 
PRODUCT            .         DLIS/U                        : 
PROGRAMS           .         LIS-TO-DLIS                   : 
TLFamily_DEPT      .         Measured Depth                : 
TLFamily_LN        .                                       : 
TLFamily_SN        .         Resistivity - Shallow         : 
TLFamily_SP        .         Spontaneous Potential         : 
VERSION            .         0.1                           : 
WELL-ID            .         10801/01                      : 
WELL-NAME          .         EGBM-001                      : 
~Curve Information
#_______________________________________________________________________________
#
#LOGNAME           .UNIT     LOG_ID                        : DESCRIPTION
#_______________________________________________________________________________
DEPT               .ft                                     :  {F}
LN                 .ohm.m                                  :  {F}
SN                 .ohm.m                                  :  {F}
SP                 .mV                                     :  {F}
~Ascii
# ...
5457       2.219404   2.227939   127.1955  
5457.5     2.142527   2.063538   127.1955  
5458       2.084732   1.926236   127.1955  
5458.5     2.060812   1.865891   127.1955  
5459       2.036892   1.805547   127.1955  
5459.5     1.996609   1.724374   127.1955  
5460       1.956245   1.631546   127.1955  
5460.5     1.96026    1.558789   127.1955  
5461       1.969617   1.492531   127.2907  
5461.5     1.978973   1.427888   127.4254  
5462       1.930966   1.439495   127.6233  
5462.5     1.874323   1.451251   128.2155  
5463       1.830745   1.463722   129.1605  
5463.5     1.809216   1.465767   129.7451  
5464       1.787686   1.396147   129.616   
5464.5     1.748457   1.392775   128.6587  
5465       1.703142   1.488238   127.9285  
5465.5     1.649078   1.56325    127.4404  
5466       1.568352   1.622533   127.3377  
5466.5     1.507067   1.672495   127.2351  
5467       1.56086    1.697444   127.1565  
5467.5     1.615538   1.722392   127.0931  
5468       1.690889   1.749619   127.0297  
5468.5     1.766241   1.777511   126.9663  
5469       1.816817   1.789077   126.957   
5469.5     1.832193   1.786681   127.2647  
5470       1.847569   1.779707   127.2598  
5470.5     1.862945   1.750972   126.6403  
5471       1.853319   1.725142   126.734   
5471.5     1.834606   1.727734   126.8277  
5472       1.815894   1.734365   126.9122  
5472.5     1.810467   1.740995   126.9122  
5473       1.810467   1.745042   126.9122  
5473.5     1.843157   1.750659   126.9122  
5474       1.896975   1.767236   126.9122  
5474.5     1.937797   1.763191   126.9122  
5475       1.965875   1.781297   126.9122  
5475.5     1.993954   1.824408   126.9122  
5476       2.054626   1.867518   126.9122  
5476.5     2.150268   1.909853   126.9098  
5477       2.250083   1.948148   126.83    
5477.5     2.381645   1.991148   126.7502  
5478       2.513206   2.032267   126.6704  
5478.5     2.719169   2.070402   126.5347  
5479       2.949801   2.108539   126.3388  
5479.5     3.229131   2.146675   126.1429  
5480       3.51321    2.258602   125.8244  
5480.5     3.797289   2.684305   125.4204  
5481       4.096013   3.061389   124.474   
5481.5     4.718192   5.558045   122.9526  
5482       5.408517   10.09076   120.5149  
5482.5     6.15298    15.90915   111.5916  
5483       7.072977   18.98714   101.8182  
5483.5     9.950325   22.87003   97.4015   
5484       13.57152   27.30154   94.87938  
5484.5     23.16589   31.75993   93.15524  
5485       39.99374   36.29605   91.52386  
5485.5     54.7345    40.83218   89.98424  
5486       65.78494   45.50459   88.63751  
5486.5     73.40472   50.22032   87.44838  
5487       81.84666   56.31969   86.9693   
5487.5     99.2094    63.1438    86.49022  
5488       107.8207   69.72557   86.5376   
5488.5     121.7813   75.5894    86.71448  
5489       137.1931   80.41698   86.98383  
5489.5     154.0472   85.24454   87.25633  
5490       166.425    90.0721    88.33414  
5490.5     181.7674   93.40712   89.41194  
5491       191.6386   97.32585   90.48976  
5491.5     199.6759   101.2446   91.68372  
5492       200.7997   105.0592   92.91785  
5492.5     200.71     108.4719   92.94548  
5493       200.6203   110.0828   93.40924  
5493.5     200.5306   111.3146   94.56433  
5494       200.4409   110.0235   95.5388   
5494.5     200.3512   108.2372   96.61652  
5495       195.4468   105.2517   98.39639  
5495.5     173.6648   101.1781   100.4079  
5496       146.2434   95.5883    101.6413  
5496.5     122.5903   87.36172   102.6555  
5497       92.08939   78.34621   103.7778  
5497.5     55.84886   68.95386   104.9899  
5498       35.23605   56.87866   106.507   
5498.5     28.54575   44.49065   108.4088  
5499       25.91559   33.53387   110.3354  
5499.5     23.28545   22.86342   112.3564  
5500       20.34673   19.60434   114.4106  
5500.5     17.96252   13.14267   116.7456  
5501       19.03526   10.49785   119.7438  
5501.5     18.74278   9.462725   122.4341  
5502       18.54416   8.658768   123.4142  
5502.5     18.3512    8.335424   123.7281  
5503       18.13126   8.056063   123.9675  
5503.5     17.89215   7.963677   124.1751  
5504       17.63353   7.916269   124.3546  
5504.5     17.31049   7.95217    124.5342  
5505       17.03464   7.988107   124.7138  
5505.5     16.79945   7.956034   124.8934  
5506       16.7498    7.869368   125.1363  
5506.5     16.73445   7.641897   125.395   
5507       16.95148   7.414427   125.6537  
5507.5     17.23857   7.320234   125.7173  
5508       17.63206   7.570733   125.5976  
5508.5     18.06253   7.960665   125.4779  
5509       18.62202   8.568275   125.3581  
5509.5     19.3044    9.483309   125.2384  
5510       19.24924   10.61095   124.4248  
5510.5     21.12848   13.25625   123.419   
5511       23.60768   18.62071   120.6845  
5511.5     26.51305   21.69276   116.7241  
5512       29.4184    36.95096   111.385   
5512.5     35.69824   50.70821   107.271   
5513       55.13005   64.07697   105.2309  
5513.5     76.73654   78.24301   104.5124  
5514       119.6749   90.97462   103.9215  
5514.5     173.584    102.5458   103.4042  
5515       199.4376   113.6443   102.887   
5515.5     199.4598   123.1426   102.0499  
5516       199.482    132.1236   100.8124  
5516.5     199.5042   140.0885   100.5855  
5517       199.5264   147.0686   100.3586  
5517.5     199.5486   154.0487   99.68338  
5518       199.5708   160.4732   98.606    
5518.5     199.593    166.6674   95.73387  
5519       199.6151   170.7379   93.79115  
5519.5     199.6374   174.8085   94.0042   
5520       199.6595   176.6225   96.00163  
5520.5     199.6817   178.3304   97.92786  
5521       199.7039   179.8296   99.33044  
5521.5     199.7261   181.3287   99.91846  
5522       199.7483   182.8754   99.14334  
5522.5     199.7705   184.5948   98.1908   
5523       199.7927   186.2114   97.47217  
5523.5     199.8149   187.828    97.45042  
5524       199.8371   188.6428   97.45042  
5524.5     199.8593   189.2986   97.45042  
5525       199.8814   189.9545   97.35458  
5525.5     199.9036   189.7175   97.02306  
5526       199.9258   187.9547   96.75883  
5526.5     199.948    184.6692   96.71506  
5527       199.9702   181.2565   97.14609  
5527.5     199.9924   177.8437   97.52963  
5528       200.0146   173.5339   97.7991   
5528.5     200.0368   168.9539   98.017    
5529       200.059    164.374    98.017    
5529.5     200.0811   159.7941   98.17451  
5530       200.1034   153.5474   98.34335  
5530.5     200.1255   145.261    98.48703  
5531       200.1477   134.7926   98.63071  
5531.5     200.1699   125.3441   98.77438  
5532       200.1921   116.4864   98.86685  
5532.5     200.2143   108.6956   98.86685  
5533       200.2365   99.08751   98.8279   
5533.5     200.2587   88.63908   98.67393  
5534       200.2809   80.16211   98.82097  
5534.5     175.9592   71.85451   99.39568  
5535       141.36     65.09467   100.0338  
5535.5     109.1043   58.33484   100.7523  
5536       87.46664   51.90366   101.1364  
5536.5     68.02055   45.51163   101.5652  
5537       49.7253    38.12093   102.5234  
5537.5     33.18402   31.79073   103.8595  
5538       24.52225   25.89377   104.6278  
5538.5     20.92485   19.87531   105.3943  
5539       18.23433   16.96922   106.9325  
5539.5     16.04628   11.98246   110.3009  
5540       14.51395   8.936901   113.7661  
5540.5     13.55505   7.383801   117.6454  
5541       12.81053   6.616047   120.7228  
5541.5     12.1819    5.824874   122.6269  
5542       11.82983   5.517091   123.8569  
5542.5     11.56884   5.242949   124.7221  
5543       11.33916   5.192007   125.1141  
5543.5     11.17271   5.644591   125.2125  
5544       11.02478   6.436146   124.6191  
5544.5     10.92188   7.670967   122.6591  
5545       10.84115   9.35359    117.8243  
5545.5     10.79265   11.0386    108.907   
5546       10.90679   12.31015   100.7156  
5546.5     11.33341   13.77967   97.01018  
5547       12.06308   15.26046   94.65814  
5547.5     12.52015   16.29942   92.94072  
