~Version
 VERS              .         3.0                           : CWLS LOG ASCII STANDARD - VERSION 3.0
 WRAP              .         NO                            : ONE LINE PER DEPTH STEP
 DLM               .         SPACE                         : DELIMITING CHARACTER(SPACE TAB OR COMMA)
~Well Information
#_______________________________________________________________________________
#
#PARAMETER_NAME    .UNIT     VALUE                         : DESCRIPTION
#_______________________________________________________________________________
STRT               .ft       3000                          : First reference value
STOP               .ft       10476                         : Last reference value
STEP               .ft       0.5                           : Step increment
NULL               .         -9999                         : Missing value
COMP               .                                       : Company
WELL               .         EGBM-001                      : Well name
FLD                .         EGBEMA                        : Field
LOC                .                                       : Location
SRVC               .                                       : Service Company
CTRY               .                                       : Country
DATE               .         1960/10/25                    : Service Date
X                  .                                       : X or East-West coordinate
Y                  .                                       : Y or North South coordinate
GDAT               .                                       : Geodetic Datum
HZCS               .                                       : Horizontal Co-ordinate System
APIN               .         10801/01                      : 
BHT                .degC     -999.25                       : 
BLI                .ft       7010                          : 
BS                 .in       12.25                         : 
CREATION-TIME      .         2060/10/25 0_0                : 
DFD                .g/cm3    -999.25                       : 
DFT                .         CLAY BASE                     : 
DFV                .s        -999.25                       : 
ELZ                .         -999.25                       : 
FIELD-NAME         .         EGBEMA                        : 
FILE-ID            .         SOH20 .1                      : 
FILE-NUMBER        .         0                             : 
FILE-SET-NAME      .                                       : 
FILE-SET-NUMBER    .         0                             : 
FILE-TYPE          .         PTF                           : 
HIDE               .         Well/Hole_ EGBM-1  Service Name_ ES  Run Number_ 1: 
LCC                .         0                             : 
LMF                .         1                             : 
MST                .degC     -999.25                       : 
NAME-SPACE-NAME    .         LIS                           : 
NAME-SPACE-VERSION .         0                             : 
PRODUC             .         SHELL(PARASOL)                : 
PRODUCER-CODE      .         0                             : 
PRODUCER-NAME      .         Schlumberger                  : 
PRODUCT            .                                       : 
PROGRAMS           .         INC                           : 
R1                 .         LONG NORMAL GALVONOMETER 6 (1/10 BACK UP) NOT WORKING THEREFORE USED<_techsia_br_>: 
R2                 .         GALVONOMETER 5 (DOTTED) AS 1/10 BACK UP WITH GALVONOMETER 7 CONTINUOUS LINE<_techsia_br_>: 
R3                 .         AS USUAL GALVONOMETER<_techsia_br_>: 
R4                 .         <_techsia_br_>                : 
R5                 .         SHELL LAB MEASUREMENT<_techsia_br_>: 
R6                 .         <_techsia_br_>                : 
R7                 .         MUD      7.89 OHMS AT 75 DEG F<_techsia_br_>: 
R8                 .         FILTRATE 7.?8 OHMS AT 75 DEG F: 
RMCS               .ohm.m    -999.25                       : 
RMFS               .ohm.m    -999.25                       : 
RMS                .ohm.m    -999.25                       : 
TCS                .h        -999.25                       : 
TDD                .         -999.25                       : 
TDL                .         -999.25                       : 
TLI                .ft       1498                          : 
VERSION            .         2P01                          : 
WELL-ID            .         10801/01                      : 
WELL-NAME          .         EGBM-001                      : 
WN                 .         EGBM-001                      : 
~Parameter Information Block
#_______________________________________________________________________________
#
#PARAMETER_NAME    .UNIT     VALUE                         : DESCRIPTION
#_______________________________________________________________________________
SET                .         SOH11 _4_1                    : 
ACQUISITION-PRODUCT .         DLIS/U                        : 
CREATION-TIME      .         2026/5/13 8_57                : 
DLIS_FRAME_DIRECTION .         INCREASING                    : 
DLIS_FRAME_NAME    .         1                             : 
DLIS_FRAME_SPACING .ft       0.5                           : 
FIELD-NAME         .         EGBEMA                        : 
FILE-ID            .         SOH11 .4                      : 
FILE-NUMBER        .         4                             : 
FILE-SET-NAME      .         LIS-TO-DLIS-CONVERSION        : 
FILE-SET-NUMBER    .         14905                         : 
FILE-TYPE          .         PTF                           : 
INDEX-TYPE         .         BOREHOLE-DEPTH                : 
NAME-SPACE-NAME    .                                       : 
NAME-SPACE-VERSION .         0                             : 
OriginalDatasetName .         1                             : 
PRODUCER-CODE      .         440                           : 
PRODUCER-NAME      .         Schlumberger                  : 
PRODUCT            .         DLIS/U                        : 
PROGRAMS           .         LIS-TO-DLIS                   : 
TLFamily_DEPT      .         Measured Depth                : 
TLFamily_LN        .                                       : 
TLFamily_SN        .         Resistivity - Shallow         : 
TLFamily_SP        .         Spontaneous Potential         : 
VERSION            .         0.1                           : 
WELL-ID            .         10801/01                      : 
WELL-NAME          .         EGBM-001                      : 
~Curve Information
#_______________________________________________________________________________
#
#LOGNAME           .UNIT     LOG_ID                        : DESCRIPTION
#_______________________________________________________________________________
DEPT               .ft                                     :  {F}
LN                 .ohm.m                                  :  {F}
SN                 .ohm.m                                  :  {F}
SP                 .mV                                     :  {F}
~Ascii
# ...
8369       0.7355021  0.9407339  67.28839  
8369.5     0.7355021  0.9436003  67.49562  
8370       0.7355021  0.948161   67.82452  
8370.5     0.7355021  0.9677085  68.15041  
8371       0.7355021  0.9963272  68.45415  
8371.5     0.7355021  1.021893   68.50764  
8372       0.7355021  1.03845    68.56114  
8372.5     0.7355021  1.042493   68.43784  
8373       0.7376477  1.033268   68.24751  
8373.5     0.7615285  1.003185   68.1001   
8374       0.7854095  0.977312   67.74519  
8374.5     0.7920792  0.9714652  67.58055  
8375       0.7920792  0.9768964  67.44211  
8375.5     0.7920792  0.9876404  67.36572  
8376       0.7920792  0.9915015  67.32394  
8376.5     0.7920792  0.9908501  67.32394  
8377       0.7738638  0.980093   67.35808  
8377.5     0.7637907  0.9700749  67.4294   
8378       0.7637907  0.9608561  67.5995   
8378.5     0.7637907  0.9511889  67.86682  
8379       0.7637907  0.9412658  68.11903  
8379.5     0.7637907  0.9272759  68.34821  
8380       0.7563487  0.9167153  68.49997  
8380.5     0.7450421  0.9134037  68.58911  
8381       0.7355021  0.909922   68.51147  
8381.5     0.7355021  0.9062155  68.47614  
8382       0.7355021  0.9000696  68.57333  
8382.5     0.7365124  0.8951842  68.70024  
8383       0.7444706  0.8951842  68.62401  
8383.5     0.7524287  0.8990662  68.48135  
8384       0.7603867  0.9098102  68.3387   
8384.5     0.7637907  0.9233541  68.19603  
8385       0.7637907  0.9272869  68.0065   
8385.5     0.7637907  0.9241009  67.806    
8386       0.7637907  0.9209149  67.74648  
8386.5     0.7637907  0.9180928  67.74648  
8387       0.7532842  0.9247158  67.83145  
8387.5     0.7406567  0.9309307  67.97411  
8388       0.7355021  0.9363027  68.07561  
8388.5     0.7355021  0.9412873  68.15201  
8389       0.7355021  0.9448731  68.22446  
8389.5     0.7355021  0.9484588  68.29579  
8390       0.7355021  0.9518414  68.37119  
8390.5     0.7355021  0.9518414  68.44757  
8391       0.741227   0.94821    68.4507   
8391.5     0.7498227  0.9309943  68.48189  
8392       0.7584184  0.9156708  68.56421  
8392.5     0.7602888  0.9064616  68.53656  
8393       0.7509505  0.8924438  68.45424  
8393.5     0.7416122  0.8707803  68.10947  
8394       0.7317877  0.8473233  67.74078  
8394.5     0.7210431  0.838527   67.35204  
8395       0.7102985  0.838527   67.32394  
8395.5     0.6954402  0.8438302  67.33086  
8396       0.678925   0.8506185  67.41318  
8396.5     0.66241    0.8589331  67.49805  
8397       0.6534406  0.8712249  67.58717  
8397.5     0.6632071  0.8806727  67.63826  
8398       0.6729736  0.8864056  67.6794   
8398.5     0.6835893  0.8966751  67.72052  
8399       0.6955297  0.9122195  67.77281  
8399.5     0.7072136  0.916129   67.84413  
8400       0.7072136  0.9090812  67.88731  
8400.5     0.7072136  0.8951842  67.88731  
8401       0.7021587  0.8951842  68.01175  
8401.5     0.6923921  0.8928977  68.16454  
8402       0.6826257  0.8842899  68.16901  
8402.5     0.678925   0.8781869  68.10445  
8403       0.678925   0.8790116  67.93999  
8403.5     0.678925   0.8868307  67.80177  
8404       0.6876754  0.8832459  67.67593  
8404.5     0.697904   0.8708261  67.63516  
8405       0.7080531  0.8553109  67.70206  
8405.5     0.7173975  0.8453878  67.79781  
8406       0.7267418  0.838527   67.95058  
8406.5     0.7349857  0.838527   68.15979  
8407       0.7267236  0.8460664  68.4272   
8407.5     0.7184613  0.8587228  68.61331  
8408       0.710199   0.8706992  68.69295  
8408.5     0.7129272  0.881453   68.57414  
8409       0.7218733  0.8948903  68.45534  
8409.5     0.7308195  0.9163781  68.25786  
8410       0.7408905  0.9214894  68.05717  
8410.5     0.752197   0.91713    68.02817  
8411       0.7635037  0.9038992  68.02817  
8411.5     0.7637907  0.8983016  67.759    
8412       0.7561488  0.8948482  67.45912  
8412.5     0.7445387  0.8891153  67.30634  
8413       0.7329284  0.8842676  67.21068  
8413.5     0.7213182  0.8893257  67.35333  
8414       0.709708   0.8943839  67.49599  
8414.5     0.7171369  0.9063345  67.63866  
8415       0.7297753  0.9183158  67.78131  
8415.5     0.7420321  0.9218971  67.92397  
8416       0.7539725  0.9235128  68.02817  
8416.5     0.7637907  0.9235128  68.02817  
8417       0.7637907  0.9167781  68.02817  
8417.5     0.7637907  0.9043669  68.02817  
8418       0.7551301  0.8871766  68.0784   
8418.5     0.7443935  0.8810769  68.1378   
8419       0.7336555  0.8776358  68.20531  
8419.5     0.7229108  0.8741947  68.28178  
8420       0.7121662  0.8725213  68.34967  
8420.5     0.713645   0.8725213  68.4126   
8421       0.7255756  0.8725213  68.39796  
8421.5     0.7375078  0.8725213  68.2643   
8422       0.7494482  0.8737541  68.13063  
8422.5     0.7613887  0.8766234  67.99696  
8423       0.7637907  0.884706   67.88731  
8423.5     0.7637907  0.8990313  67.88731  
8424       0.7637907  0.9309101  67.88731  
8424.5     0.7637907  0.9724898  67.98933  
8425       0.7637907  1.013626   68.11517  
8425.5     0.7638242  1.035146   68.20982  
8426       0.7724199  1.044035   68.28116  
8426.5     0.7810156  1.039444   68.30986  
8427       0.7896113  1.015368   68.30986  
8427.5     0.7920792  0.9901854  68.35834  
8428       0.7920792  0.9740212  68.57231  
8428.5     0.7920792  0.9713327  68.70787  
8429       0.7920792  0.9680099  68.61055  
8429.5     0.7920792  0.9565442  68.35693  
8430       0.7920792  0.9450532  68.14525  
8430.5     0.7920792  0.9333247  68.07841  
8431       0.7818905  0.9291785  67.99278  
8431.5     0.771662   0.9332315  67.85013  
8432       0.7637907  0.9455101  67.74648  
8432.5     0.7637907  0.948637   67.74648  
8433       0.7637907  0.9420216  67.83899  
8433.5     0.7608029  0.9310271  68.00343  
8434       0.7518567  0.9187354  68.29547  
8434.5     0.7429106  0.917847   68.61011  
8435       0.7337428  0.9272008  68.78271  
8435.5     0.723507   0.9463156  68.86504  
8436       0.7132711  0.9510946  68.87323  
8436.5     0.7072136  0.9558736  68.87323  
8437       0.7072136  0.9596868  68.87323  
8437.5     0.7072136  0.9629982  68.87323  
8438       0.7137862  0.9699577  68.74812  
8438.5     0.7240149  0.97088    68.59523  
8439       0.7342435  0.9609569  68.4507   
8439.5     0.7355021  0.9445457  68.4507   
8440       0.7355021  0.924677   68.4507   
8440.5     0.7355021  0.9194671  68.39613  
8441       0.7355021  0.9240296  68.3293   
8441.5     0.7355021  0.9339527  68.19313  
8442       0.7417352  0.9394519  68.02849  
8442.5     0.7519639  0.9445145  67.93919  
8443       0.7621925  0.9538792  67.88731  
8443.5     0.7751166  0.965345   67.88731  
8444       0.7885399  0.9748178  68.06145  
8444.5     0.7920792  0.9834172  68.30841  
8445       0.7910918  0.987898   68.52258  
8445.5     0.7847726  0.9907672  68.74399  
8446       0.7784534  0.9869329  69.338    
8446.5     0.7721341  0.9807935  69.43661  
8447       0.7658148  0.98017    69.43661  
8447.5     0.7723734  0.9823691  69.43661  
8448       0.7850009  0.9940976  69.2702   
8448.5     0.7976333  1.001133   69.02324  
8449       0.8102717  0.9894704  68.78529  
8449.5     0.8203678  0.9724869  68.5477   
8450       0.8203678  0.963879   68.4507   
8450.5     0.8203678  1.002649   68.4507   
8451       0.8203678  1.043122   68.4507   
8451.5     0.8241733  1.079007   68.4507   
8452       0.831582   1.112683   68.31386  
8452.5     0.8389904  1.116746   68.04645  
8453       0.8463991  1.097926   67.90375  
8453.5     0.8398687  1.080359   67.96548  
8454       0.8272301  1.075609   68.11897  
8454.5     0.8160999  1.087337   68.42487  
8455       0.8067615  1.091573   68.68001  
8455.5     0.7974232  1.093484   68.87323  
8456       0.7880849  1.091872   68.87323  
8456.5     0.7787466  1.066087   68.87323  
8457       0.7694082  1.04882    68.80521  
8457.5     0.7676821  1.04089    68.73239  
8458       0.7774485  1.03802    68.73239  
8458.5     0.7872151  1.029656   68.7094   
8459       0.787586   1.017378   68.6425   
8459.5     0.7786343  1.014164   68.57335  
