~Version
 VERS              .         3.0                           : CWLS LOG ASCII STANDARD - VERSION 3.0
 WRAP              .         NO                            : ONE LINE PER DEPTH STEP
 DLM               .         SPACE                         : DELIMITING CHARACTER(SPACE TAB OR COMMA)
~Well Information
#_______________________________________________________________________________
#
#PARAMETER_NAME    .UNIT     VALUE                         : DESCRIPTION
#_______________________________________________________________________________
STRT               .ft       3000                          : First reference value
STOP               .ft       10476                         : Last reference value
STEP               .ft       0.5                           : Step increment
NULL               .         -9999                         : Missing value
COMP               .                                       : Company
WELL               .         EGBM-001                      : Well name
FLD                .         EGBEMA                        : Field
LOC                .                                       : Location
SRVC               .                                       : Service Company
CTRY               .                                       : Country
DATE               .         1960/10/25                    : Service Date
X                  .                                       : X or East-West coordinate
Y                  .                                       : Y or North South coordinate
GDAT               .                                       : Geodetic Datum
HZCS               .                                       : Horizontal Co-ordinate System
APIN               .         10801/01                      : 
BHT                .degC     -999.25                       : 
BLI                .ft       7010                          : 
BS                 .in       12.25                         : 
CREATION-TIME      .         2060/10/25 0_0                : 
DFD                .g/cm3    -999.25                       : 
DFT                .         CLAY BASE                     : 
DFV                .s        -999.25                       : 
ELZ                .         -999.25                       : 
FIELD-NAME         .         EGBEMA                        : 
FILE-ID            .         SOH20 .1                      : 
FILE-NUMBER        .         0                             : 
FILE-SET-NAME      .                                       : 
FILE-SET-NUMBER    .         0                             : 
FILE-TYPE          .         PTF                           : 
HIDE               .         Well/Hole_ EGBM-1  Service Name_ ES  Run Number_ 1: 
LCC                .         0                             : 
LMF                .         1                             : 
MST                .degC     -999.25                       : 
NAME-SPACE-NAME    .         LIS                           : 
NAME-SPACE-VERSION .         0                             : 
PRODUC             .         SHELL(PARASOL)                : 
PRODUCER-CODE      .         0                             : 
PRODUCER-NAME      .         Schlumberger                  : 
PRODUCT            .                                       : 
PROGRAMS           .         INC                           : 
R1                 .         LONG NORMAL GALVONOMETER 6 (1/10 BACK UP) NOT WORKING THEREFORE USED<_techsia_br_>: 
R2                 .         GALVONOMETER 5 (DOTTED) AS 1/10 BACK UP WITH GALVONOMETER 7 CONTINUOUS LINE<_techsia_br_>: 
R3                 .         AS USUAL GALVONOMETER<_techsia_br_>: 
R4                 .         <_techsia_br_>                : 
R5                 .         SHELL LAB MEASUREMENT<_techsia_br_>: 
R6                 .         <_techsia_br_>                : 
R7                 .         MUD      7.89 OHMS AT 75 DEG F<_techsia_br_>: 
R8                 .         FILTRATE 7.?8 OHMS AT 75 DEG F: 
RMCS               .ohm.m    -999.25                       : 
RMFS               .ohm.m    -999.25                       : 
RMS                .ohm.m    -999.25                       : 
TCS                .h        -999.25                       : 
TDD                .         -999.25                       : 
TDL                .         -999.25                       : 
TLI                .ft       1498                          : 
VERSION            .         2P01                          : 
WELL-ID            .         10801/01                      : 
WELL-NAME          .         EGBM-001                      : 
WN                 .         EGBM-001                      : 
~Parameter Information Block
#_______________________________________________________________________________
#
#PARAMETER_NAME    .UNIT     VALUE                         : DESCRIPTION
#_______________________________________________________________________________
SET                .         SOH11 _4_1                    : 
ACQUISITION-PRODUCT .         DLIS/U                        : 
CREATION-TIME      .         2026/5/13 8_57                : 
DLIS_FRAME_DIRECTION .         INCREASING                    : 
DLIS_FRAME_NAME    .         1                             : 
DLIS_FRAME_SPACING .ft       0.5                           : 
FIELD-NAME         .         EGBEMA                        : 
FILE-ID            .         SOH11 .4                      : 
FILE-NUMBER        .         4                             : 
FILE-SET-NAME      .         LIS-TO-DLIS-CONVERSION        : 
FILE-SET-NUMBER    .         14905                         : 
FILE-TYPE          .         PTF                           : 
INDEX-TYPE         .         BOREHOLE-DEPTH                : 
NAME-SPACE-NAME    .                                       : 
NAME-SPACE-VERSION .         0                             : 
OriginalDatasetName .         1                             : 
PRODUCER-CODE      .         440                           : 
PRODUCER-NAME      .         Schlumberger                  : 
PRODUCT            .         DLIS/U                        : 
PROGRAMS           .         LIS-TO-DLIS                   : 
TLFamily_DEPT      .         Measured Depth                : 
TLFamily_LN        .                                       : 
TLFamily_SN        .         Resistivity - Shallow         : 
TLFamily_SP        .         Spontaneous Potential         : 
VERSION            .         0.1                           : 
WELL-ID            .         10801/01                      : 
WELL-NAME          .         EGBM-001                      : 
~Curve Information
#_______________________________________________________________________________
#
#LOGNAME           .UNIT     LOG_ID                        : DESCRIPTION
#_______________________________________________________________________________
DEPT               .ft                                     :  {F}
LN                 .ohm.m                                  :  {F}
SN                 .ohm.m                                  :  {F}
SP                 .mV                                     :  {F}
~Ascii
# ...
6458       9.697441   12.15751   97.1268   
6458.5     9.611435   11.95379   96.91786  
6459       9.510366   11.89743   97.22423  
6459.5     9.367025   11.92819   97.46478  
6460       9.252977   11.89191   97.1604   
6460.5     9.209965   11.83328   96.44553  
6461       9.103872   11.80251   95.81204  
6461.5     8.996397   11.85309   95.49295  
6462       8.88892    11.87104   95.49295  
6462.5     8.704304   11.84378   95.49295  
6463       8.33869    11.74771   95.49295  
6463.5     7.90957    11.57849   95.42174  
6464       7.622991   11.32766   95.22121  
6464.5     7.401307   10.94047   96.70169  
6465       7.219379   10.27821   99.15268  
6465.5     7.141455   9.4224     102.6927  
6466       7.073552   8.541145   107.5722  
6466.5     6.981707   7.985817   114.4323  
6467       6.856251   8.153173   120.2293  
6467.5     6.625562   8.879208   119.0614  
6468       6.377929   9.508289   116.1684  
6468.5     6.149581   9.970053   110.899   
6469       6.101345   9.883114   107.3401  
6469.5     6.197294   9.495802   106.3592  
6470       6.296528   8.711084   108.9905  
6470.5     6.403869   7.732166   115.0694  
6471       6.520698   7.132075   123.0676  
6471.5     6.628232   7.403911   131.2437  
6472       6.745955   8.706457   135.2057  
6472.5     6.880309   10.16269   129.211   
6473       7.037028   11.45854   115.1243  
6473.5     7.252023   12.16008   104.7125  
6474       7.592338   12.39928   101.1315  
6474.5     8.024677   12.56817   98.49849  
6475       8.491209   12.59135   96.66548  
6475.5     8.84412    12.47238   95.34534  
6476       8.951653   12.37452   95.02779  
6476.5     9.044668   12.35898   94.82358  
6477       9.072708   12.58401   94.49823  
6477.5     9.100746   12.82532   93.42657  
6478       9.117407   13.12386   92.35457  
6478.5     9.074404   13.44677   91.28226  
6479       9.030817   13.76459   90.67552  
6479.5     8.984732   13.99042   90.48116  
6480       8.967361   14.0877    90.6241   
6480.5     9.003183   14.03514   91.10812  
6481       9.088051   13.93835   92.02725  
6481.5     9.179913   13.93009   92.57826  
6482       9.16647    13.86734   92.88448  
6482.5     9.153028   13.66361   92.95773  
6483       9.087793   13.38527   92.95773  
6483.5     9.020615   13.14297   92.5809   
6484       8.992775   12.91993   92.10452  
6484.5     9.04192    12.73332   91.58194  
6485       9.129314   12.5965    90.99704  
6485.5     9.15082    12.56553   90.41216  
6486       9.067797   12.47409   89.905    
6486.5     8.989202   12.39778   89.46512  
6487       9.066011   12.51382   89.02524  
6487.5     9.129009   12.673     88.58537  
6488       9.148554   12.90632   88.14549  
6488.5     9.118317   13.16503   87.61774  
6489       9.075314   13.43008   86.96513  
6489.5     9.156496   13.57486   86.31253  
6490       9.263987   13.5985    85.76945  
6490.5     9.399717   13.58584   85.39653  
6491       9.568609   13.5785    85.02362  
6491.5     9.70388    13.82388   84.70937  
6492       9.818554   14.01242   84.49496  
6492.5     9.888685   14.18472   84.28055  
6493       9.934772   14.81524   84.06615  
6493.5     9.911819   15.45947   83.81828  
6494       9.860834   16.22491   83.52583  
6494.5     9.807381   16.84108   83.23338  
6495       9.835419   17.24069   83.09859  
6495.5     9.863459   17.45403   83.09859  
6496       9.891928   17.34952   83.09859  
6496.5     9.922651   17.06827   83.32056  
6497       9.917591   16.66463   83.7494   
6497.5     9.805462   16.25359   84.17827  
6498       9.608438   15.80131   84.63214  
6498.5     9.42692    15.36729   85.16812  
6499       9.252258   14.97897   85.70412  
6499.5     9.112391   14.57344   86.28874  
6500       8.996618   13.95274   87.43225  
6500.5     8.971886   13.32362   88.63835  
6501       8.959238   12.69199   90.35405  
6501.5     8.964111   12.1275    92.18317  
6502       8.978447   11.93771   94.04137  
6502.5     8.973324   11.9427    94.89711  
6503       8.958988   12.08624   95.21126  
6503.5     8.912752   12.32392   94.74074  
6504       8.958839   12.60244   93.31099  
6504.5     8.983051   12.88948   91.91969  
6505       8.983051   13.03811   90.541    
6505.5     8.969721   13.20955   90.12103  
6506       8.933891   13.42481   89.82233  
6506.5     8.898306   13.62942   89.6436   
6507       8.898306   13.81095   89.48097  
6507.5     8.898306   13.86966   89.32777  
6508       8.889883   13.77137   90.14352  
6508.5     8.855932   13.49362   91.21527  
6509       8.821981   13.2015    92.75066  
6509.5     8.836651   12.91446   94.49199  
6510       8.867357   12.72903   96.41122  
6510.5     8.945482   12.58947   98.31807  
6511       9.011299   12.43613   99.0836   
6511.5     9.011299   12.1057    99.71831  
6512       9.018471   12.00633   99.71831  
6512.5     9.049194   11.94777   99.40677  
6513       9.080847   11.9087    98.46851  
6513.5     9.113924   11.95905   97.48639  
6514       9.099693   12.34763   96.35786  
6514.5     9.06386    12.95438   95.22934  
6515       9.028027   13.49301   94.25478  
6515.5     9.004135   13.74603   93.33589  
6516       8.990702   13.98285   92.41702  
6516.5     9.017769   14.18997   91.51297  
6517       9.098381   14.33352   90.86037  
6517.5     9.177444   14.45439   90.20775  
6518       9.253334   14.53274   89.56335  
6518.5     9.324751   14.60016   89.15094  
6519       9.353418   14.64786   88.73851  
6519.5     9.372606   14.61915   88.32608  
6520       9.324833   14.59689   88.16901  
6520.5     9.27706    14.6042    88.16901  
6521       9.179665   14.63      88.16901  
6521.5     9.066494   14.66914   88.04999  
6522       8.964224   14.53432   87.91164  
6522.5     8.892553   14.37185   87.77328  
6523       8.820881   14.10587   87.63495  
6523.5     8.74921    13.83988   87.66821  
6524       8.687281   13.66033   87.74763  
6524.5     8.645933   13.4939    87.82706  
6525       8.604588   13.32748   87.90648  
6525.5     8.56324    13.19231   87.9859   
6526       8.550476   13.12258   88.06531  
6526.5     8.540703   13.0976    88.14473  
6527       8.530788   13.0976    88.31789  
6527.5     8.511242   13.07614   88.53229  
6528       8.520308   12.98999   88.7467   
6528.5     8.551016   13.02106   88.96111  
6529       8.60639    13.1378    89.24469  
6529.5     8.668461   13.33523   89.55098  
6530       8.727097   13.5311    89.85727  
6530.5     8.624432   13.68166   90.14967  
6531       8.552797   13.78103   90.26883  
6531.5     8.536259   13.81741   90.38797  
6532       8.599199   13.83057   90.50266  
6532.5     8.698433   13.78269   90.61551  
6533       8.683039   13.60465   90.7459   
6533.5     8.648783   13.43656   90.9408   
6534       8.590147   13.33863   90.16179  
6534.5     8.669817   13.38488   88.31981  
6535       8.718582   13.45666   86.42325  
6535.5     8.746622   13.44814   85.63379  
6536       8.77466    13.37032   85.88744  
6536.5     8.785311   13.26239   86.19374  
6537       8.785311   13.20536   86.50003  
6537.5     8.785311   13.13419   86.84795  
6538       8.785311   12.81113   87.43285  
6538.5     8.758471   12.5502    88.01773  
6539       8.67852    12.45422   88.71454  
6539.5     8.463512   12.43697   89.73021  
6540       8.155979   12.58185   90.74588  
6540.5     7.706444   12.72985   92.04541  
6541       7.353935   12.70721   93.4328   
6541.5     7.048265   12.30057   95.39632  
6542       6.873604   11.54135   97.87016  
6542.5     6.71264    10.26126   101.691   
6543       6.63675    9.246042   109.9534  
6543.5     6.560861   9.160652   117.173   
6544       6.602324   10.1415    122.2535  
6544.5     6.656065   11.26192   121.9023  
6545       6.839266   12.32566   112.9783  
6545.5     7.054279   12.80693   106.7589  
6546       7.537752   12.87129   101.6627  
6546.5     8.131044   12.8532    97.70248  
6547       8.631527   12.82005   95.55788  
6547.5     8.84646    12.68573   93.79234  
6548       8.935381   12.67327   92.18388  
6548.5     8.984243   12.89994   91.06235  
