~Version
 VERS              .         3.0                           : CWLS LOG ASCII STANDARD - VERSION 3.0
 WRAP              .         NO                            : ONE LINE PER DEPTH STEP
 DLM               .         SPACE                         : DELIMITING CHARACTER(SPACE TAB OR COMMA)
~Well Information
#_______________________________________________________________________________
#
#PARAMETER_NAME    .UNIT     VALUE                         : DESCRIPTION
#_______________________________________________________________________________
STRT               .ft       3000                          : First reference value
STOP               .ft       10476                         : Last reference value
STEP               .ft       0.5                           : Step increment
NULL               .         -9999                         : Missing value
COMP               .                                       : Company
WELL               .         EGBM-001                      : Well name
FLD                .         EGBEMA                        : Field
LOC                .                                       : Location
SRVC               .                                       : Service Company
CTRY               .                                       : Country
DATE               .         1960/10/25                    : Service Date
X                  .                                       : X or East-West coordinate
Y                  .                                       : Y or North South coordinate
GDAT               .                                       : Geodetic Datum
HZCS               .                                       : Horizontal Co-ordinate System
APIN               .         10801/01                      : 
BHT                .degC     -999.25                       : 
BLI                .ft       7010                          : 
BS                 .in       12.25                         : 
CREATION-TIME      .         2060/10/25 0_0                : 
DFD                .g/cm3    -999.25                       : 
DFT                .         CLAY BASE                     : 
DFV                .s        -999.25                       : 
ELZ                .         -999.25                       : 
FIELD-NAME         .         EGBEMA                        : 
FILE-ID            .         SOH20 .1                      : 
FILE-NUMBER        .         0                             : 
FILE-SET-NAME      .                                       : 
FILE-SET-NUMBER    .         0                             : 
FILE-TYPE          .         PTF                           : 
HIDE               .         Well/Hole_ EGBM-1  Service Name_ ES  Run Number_ 1: 
LCC                .         0                             : 
LMF                .         1                             : 
MST                .degC     -999.25                       : 
NAME-SPACE-NAME    .         LIS                           : 
NAME-SPACE-VERSION .         0                             : 
PRODUC             .         SHELL(PARASOL)                : 
PRODUCER-CODE      .         0                             : 
PRODUCER-NAME      .         Schlumberger                  : 
PRODUCT            .                                       : 
PROGRAMS           .         INC                           : 
R1                 .         LONG NORMAL GALVONOMETER 6 (1/10 BACK UP) NOT WORKING THEREFORE USED<_techsia_br_>: 
R2                 .         GALVONOMETER 5 (DOTTED) AS 1/10 BACK UP WITH GALVONOMETER 7 CONTINUOUS LINE<_techsia_br_>: 
R3                 .         AS USUAL GALVONOMETER<_techsia_br_>: 
R4                 .         <_techsia_br_>                : 
R5                 .         SHELL LAB MEASUREMENT<_techsia_br_>: 
R6                 .         <_techsia_br_>                : 
R7                 .         MUD      7.89 OHMS AT 75 DEG F<_techsia_br_>: 
R8                 .         FILTRATE 7.?8 OHMS AT 75 DEG F: 
RMCS               .ohm.m    -999.25                       : 
RMFS               .ohm.m    -999.25                       : 
RMS                .ohm.m    -999.25                       : 
TCS                .h        -999.25                       : 
TDD                .         -999.25                       : 
TDL                .         -999.25                       : 
TLI                .ft       1498                          : 
VERSION            .         2P01                          : 
WELL-ID            .         10801/01                      : 
WELL-NAME          .         EGBM-001                      : 
WN                 .         EGBM-001                      : 
~Parameter Information Block
#_______________________________________________________________________________
#
#PARAMETER_NAME    .UNIT     VALUE                         : DESCRIPTION
#_______________________________________________________________________________
SET                .         SOH11 _4_1                    : 
ACQUISITION-PRODUCT .         DLIS/U                        : 
CREATION-TIME      .         2026/5/13 8_57                : 
DLIS_FRAME_DIRECTION .         INCREASING                    : 
DLIS_FRAME_NAME    .         1                             : 
DLIS_FRAME_SPACING .ft       0.5                           : 
FIELD-NAME         .         EGBEMA                        : 
FILE-ID            .         SOH11 .4                      : 
FILE-NUMBER        .         4                             : 
FILE-SET-NAME      .         LIS-TO-DLIS-CONVERSION        : 
FILE-SET-NUMBER    .         14905                         : 
FILE-TYPE          .         PTF                           : 
INDEX-TYPE         .         BOREHOLE-DEPTH                : 
NAME-SPACE-NAME    .                                       : 
NAME-SPACE-VERSION .         0                             : 
OriginalDatasetName .         1                             : 
PRODUCER-CODE      .         440                           : 
PRODUCER-NAME      .         Schlumberger                  : 
PRODUCT            .         DLIS/U                        : 
PROGRAMS           .         LIS-TO-DLIS                   : 
TLFamily_DEPT      .         Measured Depth                : 
TLFamily_LN        .                                       : 
TLFamily_SN        .         Resistivity - Shallow         : 
TLFamily_SP        .         Spontaneous Potential         : 
VERSION            .         0.1                           : 
WELL-ID            .         10801/01                      : 
WELL-NAME          .         EGBM-001                      : 
~Curve Information
#_______________________________________________________________________________
#
#LOGNAME           .UNIT     LOG_ID                        : DESCRIPTION
#_______________________________________________________________________________
DEPT               .ft                                     :  {F}
LN                 .ohm.m                                  :  {F}
SN                 .ohm.m                                  :  {F}
SP                 .mV                                     :  {F}
~Ascii
# ...
4001       6.997607   9.018791   115.3354  
4001.5     7.544478   9.801613   109.6366  
4002       8.174358   10.43601   108.0121  
4002.5     8.78215    10.96226   107.1262  
4003       9.47344    11.32456   107.097   
4003.5     10.12078   11.63424   107.4579  
4004       10.77914   11.84954   107.644   
4004.5     11.48101   12.1496    107.7794  
4005       12.3197    12.49817   107.5993  
4005.5     13.10227   12.91698   107.2662  
4006       13.68351   13.49827   105.8607  
4006.5     14.07594   14.29263   105.1613  
4007       14.40561   14.97604   106.6053  
4007.5     14.72653   16.02838   107.8503  
4008       15.1366    16.64905   108.2943  
4008.5     15.6769    16.73634   108.1472  
4009       16.45074   16.32362   108.8692  
4009.5     17.29968   15.97093   109.9056  
4010       17.40532   16.02644   110.4551  
4010.5     17.30952   16.55775   110.3023  
4011       17.04956   16.82347   109.639   
4011.5     16.48448   16.83084   109.2956  
4012       15.54103   16.54051   109.476   
4012.5     14.71826   16.27359   110.2862  
4013       13.79261   15.96453   111.4603  
4013.5     13.06827   15.32238   113.2925  
4014       12.3017    14.09288   114.9429  
4014.5     11.18335   12.52413   116.3353  
4015       10.5205    10.86522   118.3106  
4015.5     10.24591   9.599968   121.473   
4016       10.03008   8.80035    123.926   
4016.5     9.814556   8.34144    123.2161  
4017       9.649536   8.327307   122.6174  
4017.5     9.484518   8.439867   125.0431  
4018       9.180403   8.65514    126.8676  
4018.5     8.803829   9.245111   122.4961  
4019       8.39012    10.091     120.5963  
4019.5     8.03981    11.2249    120.5114  
4020       7.729664   12.22916   117.4969  
4020.5     7.492259   12.26772   115.497   
4021       7.431215   11.79464   114.9556  
4021.5     7.37919    10.97812   115.1448  
4022       7.332945   9.725248   116.1005  
4022.5     7.18036    8.324539   117.8109  
4023       6.97586    7.128415   119.8909  
4023.5     6.724036   6.496755   122.3224  
4024       6.432897   6.370749   124.9697  
4024.5     6.10918    6.438002   124.2623  
4025       5.818139   6.472768   119.9046  
4025.5     5.540668   6.331782   118.5009  
4026       5.363317   6.000631   119.7884  
4026.5     5.199708   5.732411   122.3106  
4027       5.040229   5.606817   126.2927  
4027.5     4.951364   5.396174   123.9242  
4028       4.862497   4.961334   123.3043  
4028.5     4.773631   4.500331   126.8712  
4029       4.684765   4.232506   131.9808  
4029.5     4.595226   4.186455   131.0739  
4030       4.505303   4.416451   130.5596  
4030.5     4.41538    4.672934   130.8159  
4031       4.324224   4.864217   128.2024  
4031.5     4.231742   4.925858   128.1481  
4032       4.139259   4.807993   129.1418  
4032.5     4.065575   4.610691   130.7027  
4033       3.999354   4.259699   133.427   
4033.5     3.94858    3.703495   134.5662  
4034       3.897805   3.345932   134.5662  
4034.5     3.839897   3.125395   135.1296  
4035       3.779951   2.992934   135.9206  
4035.5     3.749355   2.917801   136.864   
4036       3.760715   2.854484   137.206   
4036.5     3.772073   2.844871   137.548   
4037       3.882637   2.871779   137.7725  
4037.5     4.01529    2.950709   137.9079  
4038       4.158607   3.083208   138.0643  
4038.5     4.316875   3.46836    138.2448  
4039       4.487975   4.204633   137.6864  
4039.5     4.687173   5.42083    136.1631  
4040       5.00079    6.490094   132.8592  
4040.5     5.38927    7.544032   121.3958  
4041       5.904416   9.218985   111.614   
4041.5     6.513021   10.27108   107.6736  
4042       7.210011   10.87842   107.3577  
4042.5     8.288113   11.33511   107.7792  
4043       9.013769   11.5112    108.0867  
4043.5     9.565512   11.53417   107.8462  
4044       9.941772   11.57453   107.5432  
4044.5     10.12338   11.6739    108.4891  
4045       10.21277   11.64413   107.6313  
4045.5     10.21277   11.60108   107.1031  
4046       10.16006   11.49168   107.4745  
4046.5     10.02133   11.37771   107.9744  
4047       9.782755   11.19264   108.5046  
4047.5     9.458981   10.97465   109.046   
4048       8.939121   10.73792   109.651   
4048.5     8.549438   10.51855   110.7976  
4049       8.281179   10.20712   111.9443  
4049.5     8.086987   9.580795   113.5596  
4050       7.954187   8.788172   116.9032  
4050.5     7.866907   7.806091   121.9015  
4051       7.798756   6.835287   126.871   
4051.5     7.747303   6.240162   129.6432  
4052       7.759999   5.906955   131.8031  
4052.5     7.772696   5.772229   133.2899  
4053       7.947863   5.987539   133.6139  
4053.5     8.120602   6.360507   132.6889  
4054       8.282476   7.104266   130.2832  
4054.5     8.441202   8.327921   126.4415  
4055       8.592278   9.81665    121.8525  
4055.5     8.885704   11.75508   118.2905  
4056       9.182472   14.16665   115.6483  
4056.5     9.950678   15.92542   110.3841  
4057       10.76465   16.8123    110.5518  
4057.5     11.50473   17.7581    111.7751  
4058       11.96356   18.72569   111.6085  
4058.5     12.08174   19.04802   111.4419  
4059       12.00326   18.81277   111.2753  
4059.5     11.79408   18.20956   111.6363  
4060       11.4412    17.4113    112.152   
4060.5     10.50628   16.4068    112.6695  
4061       9.937918   15.60433   113.3193  
4061.5     9.560421   14.54167   113.9691  
4062       9.324625   13.07922   114.7867  
4062.5     9.124229   11.26352   116.061   
4063       8.896351   8.289007   119.7431  
4063.5     8.559349   7.356388   124.1022  
4064       8.153215   6.547441   128.7444  
4064.5     7.699988   6.373523   130.2013  
4065       7.066164   6.549731   129.6763  
4065.5     6.944348   6.66465    129.6078  
4066       6.886872   6.568969   126.1389  
4066.5     6.923998   6.287846   126.8032  
4067       7.042892   6.093253   129.8983  
4067.5     7.182524   6.168626   130.5172  
4068       7.322155   6.36954    131.0121  
4068.5     7.502067   6.47962    131.3453  
4069       7.69092    6.529293   131.2403  
4069.5     7.937685   6.560265   131.0398  
4070       8.209978   6.588974   130.8732  
4070.5     8.49774    6.747066   131.0771  
4071       8.770523   6.941027   130.0201  
4071.5     8.968323   7.414668   127.1196  
4072       9.251513   7.825121   121.1263  
4072.5     9.594318   8.133818   120.1547  
4073       9.994104   8.268362   123.9668  
4073.5     10.5223    8.456924   128.1352  
4074       11.16969   8.837858   128.5918  
4074.5     12.26504   9.491774   127.6217  
4075       12.75527   10.53748   125.2497  
4075.5     12.8743    11.96535   118.3647  
4076       12.97753   13.48052   112.1407  
4076.5     13.21684   14.14641   110.5468  
4077       13.76446   15.82318   109.2477  
4077.5     14.74186   16.58696   107.906   
4078       15.60507   16.50125   107.5391  
4078.5     16.51569   17.04372   107.5391  
4079       17.61511   17.66124   107.4291  
4079.5     18.60345   17.91588   106.4134  
4080       19.01563   17.90099   106.654   
4080.5     19.44183   17.97826   106.8032  
4081       18.85623   18.27249   106.9385  
4081.5     18.2357    19.09892   106.555   
4082       18.26666   19.39171   106.0042  
4082.5     18.3936    19.08075   105.4134  
4083       18.71454   19.09215   105.7244  
4083.5     19.14619   19.53206   106.3431  
4084       19.57379   19.7771    106.7031  
4084.5     19.48746   19.98042   106.9163  
4085       19.40112   20.11565   106.6456  
4085.5     19.3148    20.17897   106.4221  
4086       19.34448   20.2263    106.6387  
4086.5     19.4189    20.2263    106.8852  
4087       19.49332   20.2263    107.14    
4087.5     19.56773   20.2072    106.9899  
4088       19.64998   20.18568   106.4012  
4088.5     19.73299   20.16177   105.6276  
4089       19.81599   20.13101   104.7861  
4089.5     19.68112   20.06303   103.8839  
4090       19.32144   19.91232   104.3166  
4090.5     18.95767   19.48434   104.8979  
4091       18.56537   18.95332   105.731   
4091.5     17.77289   19.14333   106.262   
