~Version
 VERS              .         3.0                           : CWLS LOG ASCII STANDARD - VERSION 3.0
 WRAP              .         NO                            : ONE LINE PER DEPTH STEP
 DLM               .         SPACE                         : DELIMITING CHARACTER(SPACE TAB OR COMMA)
~Well Information
#_______________________________________________________________________________
#
#PARAMETER_NAME    .UNIT     VALUE                         : DESCRIPTION
#_______________________________________________________________________________
STRT               .ft       3000                          : First reference value
STOP               .ft       10476                         : Last reference value
STEP               .ft       0.5                           : Step increment
NULL               .         -9999                         : Missing value
COMP               .                                       : Company
WELL               .         EGBM-001                      : Well name
FLD                .         EGBEMA                        : Field
LOC                .                                       : Location
SRVC               .                                       : Service Company
CTRY               .                                       : Country
DATE               .         1960/10/25                    : Service Date
X                  .                                       : X or East-West coordinate
Y                  .                                       : Y or North South coordinate
GDAT               .                                       : Geodetic Datum
HZCS               .                                       : Horizontal Co-ordinate System
APIN               .         10801/01                      : 
BHT                .degC     -999.25                       : 
BLI                .ft       7010                          : 
BS                 .in       12.25                         : 
CREATION-TIME      .         2060/10/25 0_0                : 
DFD                .g/cm3    -999.25                       : 
DFT                .         CLAY BASE                     : 
DFV                .s        -999.25                       : 
ELZ                .         -999.25                       : 
FIELD-NAME         .         EGBEMA                        : 
FILE-ID            .         SOH20 .1                      : 
FILE-NUMBER        .         0                             : 
FILE-SET-NAME      .                                       : 
FILE-SET-NUMBER    .         0                             : 
FILE-TYPE          .         PTF                           : 
HIDE               .         Well/Hole_ EGBM-1  Service Name_ ES  Run Number_ 1: 
LCC                .         0                             : 
LMF                .         1                             : 
MST                .degC     -999.25                       : 
NAME-SPACE-NAME    .         LIS                           : 
NAME-SPACE-VERSION .         0                             : 
PRODUC             .         SHELL(PARASOL)                : 
PRODUCER-CODE      .         0                             : 
PRODUCER-NAME      .         Schlumberger                  : 
PRODUCT            .                                       : 
PROGRAMS           .         INC                           : 
R1                 .         LONG NORMAL GALVONOMETER 6 (1/10 BACK UP) NOT WORKING THEREFORE USED<_techsia_br_>: 
R2                 .         GALVONOMETER 5 (DOTTED) AS 1/10 BACK UP WITH GALVONOMETER 7 CONTINUOUS LINE<_techsia_br_>: 
R3                 .         AS USUAL GALVONOMETER<_techsia_br_>: 
R4                 .         <_techsia_br_>                : 
R5                 .         SHELL LAB MEASUREMENT<_techsia_br_>: 
R6                 .         <_techsia_br_>                : 
R7                 .         MUD      7.89 OHMS AT 75 DEG F<_techsia_br_>: 
R8                 .         FILTRATE 7.?8 OHMS AT 75 DEG F: 
RMCS               .ohm.m    -999.25                       : 
RMFS               .ohm.m    -999.25                       : 
RMS                .ohm.m    -999.25                       : 
TCS                .h        -999.25                       : 
TDD                .         -999.25                       : 
TDL                .         -999.25                       : 
TLI                .ft       1498                          : 
VERSION            .         2P01                          : 
WELL-ID            .         10801/01                      : 
WELL-NAME          .         EGBM-001                      : 
WN                 .         EGBM-001                      : 
~Parameter Information Block
#_______________________________________________________________________________
#
#PARAMETER_NAME    .UNIT     VALUE                         : DESCRIPTION
#_______________________________________________________________________________
SET                .         SOH11 _4_1                    : 
ACQUISITION-PRODUCT .         DLIS/U                        : 
CREATION-TIME      .         2026/5/13 8_57                : 
DLIS_FRAME_DIRECTION .         INCREASING                    : 
DLIS_FRAME_NAME    .         1                             : 
DLIS_FRAME_SPACING .ft       0.5                           : 
FIELD-NAME         .         EGBEMA                        : 
FILE-ID            .         SOH11 .4                      : 
FILE-NUMBER        .         4                             : 
FILE-SET-NAME      .         LIS-TO-DLIS-CONVERSION        : 
FILE-SET-NUMBER    .         14905                         : 
FILE-TYPE          .         PTF                           : 
INDEX-TYPE         .         BOREHOLE-DEPTH                : 
NAME-SPACE-NAME    .                                       : 
NAME-SPACE-VERSION .         0                             : 
OriginalDatasetName .         1                             : 
PRODUCER-CODE      .         440                           : 
PRODUCER-NAME      .         Schlumberger                  : 
PRODUCT            .         DLIS/U                        : 
PROGRAMS           .         LIS-TO-DLIS                   : 
TLFamily_DEPT      .         Measured Depth                : 
TLFamily_LN        .                                       : 
TLFamily_SN        .         Resistivity - Shallow         : 
TLFamily_SP        .         Spontaneous Potential         : 
VERSION            .         0.1                           : 
WELL-ID            .         10801/01                      : 
WELL-NAME          .         EGBM-001                      : 
~Curve Information
#_______________________________________________________________________________
#
#LOGNAME           .UNIT     LOG_ID                        : DESCRIPTION
#_______________________________________________________________________________
DEPT               .ft                                     :  {F}
LN                 .ohm.m                                  :  {F}
SN                 .ohm.m                                  :  {F}
SP                 .mV                                     :  {F}
~Ascii
# ...
5912       18.79863   17.23862   98.65649  
5912.5     19.15732   17.35614   98.58356  
5913       19.30969   17.40512   98.58356  
5913.5     19.13354   17.44823   98.58356  
5914       19.01836   17.48451   98.58356  
5914.5     18.90703   17.49249   98.58356  
5915       18.7957    17.45329   98.58356  
5915.5     18.68874   17.26401   98.58356  
5916       18.61125   17.06285   98.58356  
5916.5     18.53378   16.82509   98.58356  
5917       18.4563    16.7683    98.69441  
5917.5     18.39372   16.74869   98.83809  
5918       18.33392   16.61607   98.79189  
5918.5     18.2653    16.5249    98.69815  
5919       18.18704   16.49409   98.60443  
5919.5     18.10878   16.53751   98.58356  
5920       18.07637   16.62834   98.58356  
5920.5     18.07637   16.74954   98.25136  
5921       18.07637   16.86293   97.44331  
5921.5     17.98123   16.96239   96.84895  
5922       17.90306   17.02266   96.7355   
5922.5     17.88872   17.04219   96.62206  
5923       17.87337   16.98546   96.01828  
5923.5     17.85542   16.92874   95.29988  
5924       17.81989   16.77661   95.18413  
5924.5     17.80389   16.65947   95.18413  
5925       17.8308    16.60974   95.02739  
5925.5     17.8577    16.73581   94.69577  
5926       17.85143   16.91962   94.36415  
5926.5     17.73555   17.25259   94.07184  
5927       17.57887   17.54684   94.44664  
5927.5     17.42839   17.80855   94.82143  
5928       17.44106   18.02406   95.18993  
5928.5     17.45372   18.08063   95.36954  
5929       17.57559   18.05838   95.54916  
5929.5     17.70021   17.92015   95.72878  
5930       17.83025   17.66869   95.90839  
5930.5     17.9662    17.39946   96.19604  
5931       18.10214   17.12245   96.73483  
5931.5     18.15747   16.9747    97.27364  
5932       18.10976   16.87189   97.58206  
5932.5     17.91246   16.82878   97.778    
5933       17.67487   17.03477   97.97394  
5933.5     17.42886   17.37637   97.62897  
5934       17.24358   17.66206   97.15007  
5934.5     17.08627   17.79083   96.91061  
5935       17.08627   17.81479   96.67117  
5935.5     17.08627   17.67836   96.29649  
5936       17.08627   17.49348   95.86525  
5936.5     17.06941   17.32149   95.7507   
5937       17.0132    17.19218   95.7507   
5937.5     16.90556   17.11929   95.8036   
5938       16.79791   17.13881   95.94728  
5938.5     16.70915   17.13881   96.03398  
5939       16.62546   17.01375   96.03398  
5939.5     16.56639   16.82069   96.06311  
5940       16.54108   16.69078   96.24272  
5940.5     16.50233   16.67522   96.41423  
5941       16.40546   16.81281   96.58     
5941.5     16.30858   17.00555   96.74576  
5942       16.15964   17.19412   96.80806  
5942.5     15.96974   17.34746   96.35428  
5943       15.7988    17.43726   95.9005   
5943.5     15.66724   17.42078   95.65445  
5944       15.53568   17.2081    95.51077  
5944.5     15.49598   16.83784   95.46742  
5945       15.46012   16.45316   95.79321  
5945.5     15.43392   16.38171   97.08632  
5946       15.39426   16.50482   98.68361  
5946.5     15.2393    16.73761   98.87994  
5947       15.08435   16.90988   98.13013  
5947.5     14.9294    17.06384   97.38031  
5948       14.43549   17.2858    96.74733  
5948.5     13.9141    17.47939   96.34331  
5949       12.91851   17.50632   96.03398  
5949.5     11.36852   17.32103   96.03398  
5950       9.347321   16.79178   96.88332  
5950.5     7.709691   16.22479   99.46497  
5951       6.370873   14.58875   102.1492  
5951.5     5.982442   12.33338   105.5592  
5952       5.724361   10.23219   109.1193  
5952.5     5.57761    7.289916   113.1896  
5953       5.448028   6.099568   118.7459  
5953.5     5.405004   5.785585   124.6831  
5954       5.373413   5.489857   128.1133  
5954.5     5.42405    5.274432   129.5172  
5955       5.474688   5.058976   130.9211  
5955.5     5.617116   4.843445   132.0292  
5956       5.647591   4.814078   132.6031  
5956.5     5.550616   4.809052   132.9562  
5957       5.364543   4.809052   132.9562  
5957.5     5.098951   4.714527   132.9562  
5958       4.782294   4.55444    133.038   
5958.5     4.607552   4.323563   133.2036  
5959       4.434224   4.051735   133.4993  
5959.5     4.370928   3.720299   133.8159  
5960       4.307631   3.35703    133.9594  
5960.5     4.319642   3.204903   134.0018  
5961       4.353831   3.373757   133.1945  
5961.5     4.401644   3.954082   132.3852  
5962       4.449456   4.997723   131.0602  
5962.5     4.624737   6.152416   129.0131  
5963       4.851847   8.307919   121.9604  
5963.5     5.183587   12.16109   111.3096  
5964       5.711658   13.86089   105.3941  
5964.5     6.562388   14.58557   101.8475  
5965       8.205637   15.2803    99.37941  
5965.5     9.687532   15.68908   98.23105  
5966       10.64772   15.83422   97.19769  
5966.5     11.39657   15.81944   96.62379  
5967       12.00328   15.75477   96.11543  
5967.5     12.48191   15.73937   95.82834  
5968       12.82549   15.68561   95.6479   
5968.5     13.07947   15.53747   95.77452  
5969       13.23311   15.40293   95.89095  
5969.5     13.38676   15.3269    95.58344  
5970       13.46829   15.25087   95.33238  
5970.5     13.50183   15.2       95.33238  
5971       13.47493   15.19397   95.73457  
5971.5     13.44804   15.31968   96.39668  
5972       13.47732   15.49379   97.34317  
5972.5     13.52258   15.69547   98.1035   
5973       13.60867   15.93487   98.60037  
5973.5     13.72467   16.08643   98.15419  
5974       13.92545   16.23004   97.38541  
5974.5     14.14086   16.30255   96.22987  
5975       14.39193   16.37111   95.89816  
5975.5     14.56989   16.43915   95.57246  
5976       14.71815   16.49902   94.3981   
5976.5     14.78988   16.5589    93.86501  
5977       14.83051   16.54448   93.46138  
5977.5     14.83051   16.49765   93.03821  
5978       14.85457   16.45082   92.78642  
5978.5     14.88264   16.44684   92.78642  
5979       14.91071   16.46342   93.40498  
5979.5     14.95768   16.46393   94.04286  
5980       15.00832   16.46863   94.68073  
5980.5     14.99925   16.50455   95.33331  
5981       14.95144   16.56326   96.00603  
5981.5     14.90363   16.64023   96.46393  
5982       14.85274   16.71028   96.46555  
5982.5     14.75495   16.77762   96.79678  
5983       14.65112   16.89206   97.02969  
5983.5     14.54354   17.03381   97.02969  
5984       14.44227   17.13174   96.96532  
5984.5     14.35953   17.18401   96.63408  
5985       14.31468   17.15349   96.5255   
5985.5     14.30123   16.95398   96.6521   
5986       14.28098   16.63092   96.81915  
5986.5     14.2523    16.39282   97.10625  
5987       14.14757   16.19885   97.49417  
5987.5     13.9593    16.00824   98.1398   
5988       13.70936   15.91595   98.91815  
5988.5     13.35707   15.84159   99.36295  
5989       12.94546   15.85008   99.49748  
5989.5     12.52956   15.90883   99.41167  
5990       12.11696   15.81335   99.02022  
5990.5     11.69765   15.38328   99.65492  
5991       11.26751   14.57302   100.4631  
5991.5     10.98849   13.64276   101.674   
5992       10.74457   12.61795   103.1086  
5992.5     10.44123   11.61095   105.6911  
5993       10.09651   10.6665    108.2946  
5993.5     9.55884    10.37884   110.9868  
5994       9.079882   10.42696   113.7439  
5994.5     8.642952   10.6499    116.024   
5995       8.295437   10.69025   112.1488  
5995.5     8.001465   10.12114   110.6862  
5996       7.753098   9.25345    111.5242  
5996.5     7.599763   8.112259   115.8316  
5997       7.547645   7.548984   121.0869  
5997.5     7.518307   7.313794   123.8847  
5998       7.48897    7.220065   125.5081  
5998.5     7.380832   7.47056    124.2898  
5999       7.259782   7.994868   122.7723  
5999.5     7.134326   8.652748   121.2818  
6000       7.105195   9.004173   115.3864  
6000.5     7.091393   9.149311   110.2268  
6001       7.118289   9.126642   109.2973  
6001.5     7.145185   8.950369   109.9434  
6002       7.208884   8.768461   110.603   
6002.5     7.248487   8.589151   111.2196  
