~Version
 VERS              .         3.0                           : CWLS LOG ASCII STANDARD - VERSION 3.0
 WRAP              .         NO                            : ONE LINE PER DEPTH STEP
 DLM               .         SPACE                         : DELIMITING CHARACTER(SPACE TAB OR COMMA)
~Well Information
#_______________________________________________________________________________
#
#PARAMETER_NAME    .UNIT     VALUE                         : DESCRIPTION
#_______________________________________________________________________________
STRT               .ft       3000                          : First reference value
STOP               .ft       10476                         : Last reference value
STEP               .ft       0.5                           : Step increment
NULL               .         -9999                         : Missing value
COMP               .                                       : Company
WELL               .         EGBM-001                      : Well name
FLD                .         EGBEMA                        : Field
LOC                .                                       : Location
SRVC               .                                       : Service Company
CTRY               .                                       : Country
DATE               .         1960/10/25                    : Service Date
X                  .                                       : X or East-West coordinate
Y                  .                                       : Y or North South coordinate
GDAT               .                                       : Geodetic Datum
HZCS               .                                       : Horizontal Co-ordinate System
APIN               .         10801/01                      : 
BHT                .degC     -999.25                       : 
BLI                .ft       7010                          : 
BS                 .in       12.25                         : 
CREATION-TIME      .         2060/10/25 0_0                : 
DFD                .g/cm3    -999.25                       : 
DFT                .         CLAY BASE                     : 
DFV                .s        -999.25                       : 
ELZ                .         -999.25                       : 
FIELD-NAME         .         EGBEMA                        : 
FILE-ID            .         SOH20 .1                      : 
FILE-NUMBER        .         0                             : 
FILE-SET-NAME      .                                       : 
FILE-SET-NUMBER    .         0                             : 
FILE-TYPE          .         PTF                           : 
HIDE               .         Well/Hole_ EGBM-1  Service Name_ ES  Run Number_ 1: 
LCC                .         0                             : 
LMF                .         1                             : 
MST                .degC     -999.25                       : 
NAME-SPACE-NAME    .         LIS                           : 
NAME-SPACE-VERSION .         0                             : 
PRODUC             .         SHELL(PARASOL)                : 
PRODUCER-CODE      .         0                             : 
PRODUCER-NAME      .         Schlumberger                  : 
PRODUCT            .                                       : 
PROGRAMS           .         INC                           : 
R1                 .         LONG NORMAL GALVONOMETER 6 (1/10 BACK UP) NOT WORKING THEREFORE USED<_techsia_br_>: 
R2                 .         GALVONOMETER 5 (DOTTED) AS 1/10 BACK UP WITH GALVONOMETER 7 CONTINUOUS LINE<_techsia_br_>: 
R3                 .         AS USUAL GALVONOMETER<_techsia_br_>: 
R4                 .         <_techsia_br_>                : 
R5                 .         SHELL LAB MEASUREMENT<_techsia_br_>: 
R6                 .         <_techsia_br_>                : 
R7                 .         MUD      7.89 OHMS AT 75 DEG F<_techsia_br_>: 
R8                 .         FILTRATE 7.?8 OHMS AT 75 DEG F: 
RMCS               .ohm.m    -999.25                       : 
RMFS               .ohm.m    -999.25                       : 
RMS                .ohm.m    -999.25                       : 
TCS                .h        -999.25                       : 
TDD                .         -999.25                       : 
TDL                .         -999.25                       : 
TLI                .ft       1498                          : 
VERSION            .         2P01                          : 
WELL-ID            .         10801/01                      : 
WELL-NAME          .         EGBM-001                      : 
WN                 .         EGBM-001                      : 
~Parameter Information Block
#_______________________________________________________________________________
#
#PARAMETER_NAME    .UNIT     VALUE                         : DESCRIPTION
#_______________________________________________________________________________
SET                .         SOH11 _4_1                    : 
ACQUISITION-PRODUCT .         DLIS/U                        : 
CREATION-TIME      .         2026/5/13 8_57                : 
DLIS_FRAME_DIRECTION .         INCREASING                    : 
DLIS_FRAME_NAME    .         1                             : 
DLIS_FRAME_SPACING .ft       0.5                           : 
FIELD-NAME         .         EGBEMA                        : 
FILE-ID            .         SOH11 .4                      : 
FILE-NUMBER        .         4                             : 
FILE-SET-NAME      .         LIS-TO-DLIS-CONVERSION        : 
FILE-SET-NUMBER    .         14905                         : 
FILE-TYPE          .         PTF                           : 
INDEX-TYPE         .         BOREHOLE-DEPTH                : 
NAME-SPACE-NAME    .                                       : 
NAME-SPACE-VERSION .         0                             : 
OriginalDatasetName .         1                             : 
PRODUCER-CODE      .         440                           : 
PRODUCER-NAME      .         Schlumberger                  : 
PRODUCT            .         DLIS/U                        : 
PROGRAMS           .         LIS-TO-DLIS                   : 
TLFamily_DEPT      .         Measured Depth                : 
TLFamily_LN        .                                       : 
TLFamily_SN        .         Resistivity - Shallow         : 
TLFamily_SP        .         Spontaneous Potential         : 
VERSION            .         0.1                           : 
WELL-ID            .         10801/01                      : 
WELL-NAME          .         EGBM-001                      : 
~Curve Information
#_______________________________________________________________________________
#
#LOGNAME           .UNIT     LOG_ID                        : DESCRIPTION
#_______________________________________________________________________________
DEPT               .ft                                     :  {F}
LN                 .ohm.m                                  :  {F}
SN                 .ohm.m                                  :  {F}
SP                 .mV                                     :  {F}
~Ascii
# ...
8915       0.7920792  1.172075   25.77919  
8915.5     0.7920792  1.137128   25.75177  
8916       0.7831292  1.114551   25.56497  
8916.5     0.7626719  1.118854   25.56497  
8917       0.7422147  1.127015   25.66611  
8917.5     0.7355021  1.120163   25.88394  
8918       0.7355021  1.116147   25.97333  
8918.5     0.7355021  1.116147   25.87035  
8919       0.7355021  1.116147   25.72742  
8919.5     0.7355021  1.116147   25.57574  
8920       0.7355021  1.094651   25.42143  
8920.5     0.7355021  1.075794   25.12866  
8921       0.7355021  1.057604   24.95377  
8921.5     0.7355021  1.048159   24.87131  
8922       0.7355021  1.048159   25.02919  
8922.5     0.7355021  1.051957   25.23026  
8923       0.7355021  1.050912   25.28249  
8923.5     0.7355021  1.043948   25.26685  
8924       0.7355021  1.034014   25.16925  
8924.5     0.7355021  1.020941   25.21761  
8925       0.7260727  1.002832   25.25226  
8925.5     0.715844   1.004205   25.17564  
8926       0.7072136  1.008498   24.96394  
8926.5     0.7072136  1.005001   24.80121  
8927       0.7072136  0.9928268  25.0529   
8927.5     0.7027969  0.9689319  25.03996  
8928       0.6914904  0.9527537  24.65012  
8928.5     0.6801838  0.9689015  24.31537  
8929       0.678925   1.004934   24.2187   
8929.5     0.6772083  1.026075   23.97964  
8930       0.6674418  1.038987   23.37819  
8930.5     0.6576753  1.054234   23.20305  
8931       0.6539687  1.070369   23.39796  
8931.5     0.6658993  1.079823   23.85013  
8932       0.6778299  1.076056   24.32892  
8932.5     0.678925   1.056998   24.7459   
8933       0.678925   1.029286   24.98418  
8933.5     0.678925   0.9992437  25.22244  
8934       0.678925   0.9807767  25.3716   
8934.5     0.678925   0.967907   25.53337  
8935       0.678925   0.9571009  25.6841   
8935.5     0.678925   0.9535152  25.48891  
8936       0.678925   0.9472517  25.38173  
8936.5     0.678925   0.9386438  25.31868  
8937       0.6783656  0.9300359  25.18463  
8937.5     0.6604624  0.9253091  24.9548   
8938       0.6425591  0.9297776  24.85875  
8938.5     0.6246558  0.9420916  24.85875  
8939       0.622348   0.9557841  24.85875  
8939.5     0.622348   0.9694766  24.85875  
8940       0.6234268  0.9799434  24.93071  
8940.5     0.6336554  0.9871891  25.12563  
8941       0.6438841  0.991493   25.33864  
8941.5     0.6506366  0.9881964  25.46996  
8942       0.6506366  0.9820371  25.54655  
8942.5     0.6506366  0.9688063  25.62317  
8943       0.6476035  0.9536761  25.69977  
8943.5     0.6378371  0.9371376  25.75792  
8944       0.6280706  0.9179847  25.81438  
8944.5     0.6186438  0.9037764  25.84746  
8945       0.6096976  0.897161   25.84746  
8945.5     0.6007515  0.8876415  25.73169  
8946       0.5940595  0.8768843  25.56657  
8946.5     0.5940595  0.8661271  25.17892  
8947       0.5940595  0.8594003  24.96373  
8947.5     0.5989839  0.8560926  24.89671  
8948       0.6069376  0.8599809  24.82295  
8948.5     0.6148914  0.8653629  24.7404   
8949       0.622348   0.8703091  24.84654  
8949.5     0.622348   0.8750881  25.00887  
8950       0.622348   0.8827263  25.07198  
8950.5     0.622348   0.8955965  25.13507  
8951       0.622348   0.907325   25.31712  
8951.5     0.6169375  0.9247905  25.50473  
8952       0.604997   0.9456623  25.68352  
8952.5     0.5959586  0.9643769  25.82323  
8953       0.6185718  0.9787139  25.95728  
8953.5     0.6411849  0.9956373  25.8244   
8954       0.6506366  1.01674    25.55788  
8954.5     0.6506366  1.03968    25.22766  
8955       0.6506366  1.050527   24.9435   
8955.5     0.6506366  1.054439   24.70226  
8956       0.6506366  1.058352   24.60466  
8956.5     0.6506366  1.062262   24.76639  
8957       0.6694156  1.063293   25.03188  
8957.5     0.6898729  1.056121   25.27925  
8958       0.7072136  1.049646   25.55119  
8958.5     0.7072136  1.043501   25.85762  
8959       0.7072136  1.036497   25.98869  
8959.5     0.7072136  1.031161   25.98869  
8960       0.7072136  1.031161   25.98869  
8960.5     0.7072136  1.035631   26.1329   
8961       0.7072136  1.042247   26.27118  
8961.5     0.7072136  1.04841    26.27118  
8962       0.7174976  1.053458   26.17213  
8962.5     0.733405   1.050385   26.01892  
8963       0.7493124  1.049005   25.37375  
8963.5     0.7637907  1.052077   25.18335  
8964       0.7637907  1.055371   25.30249  
8964.5     0.7637907  1.058957   25.42163  
8965       0.7637907  1.064069   25.54095  
8965.5     0.7637907  1.069446   25.79852  
8966       0.7637907  1.076156   26.01547  
8966.5     0.7681953  1.083324   26.09209  
8967       0.7950418  1.09083    26.26555  
8967.5     0.8210837  1.098903   26.53365  
8968       0.8337221  1.108105   26.69492  
8968.5     0.8463607  1.120397   26.69492  
8969       0.8486563  1.131123   26.62701  
8969.5     0.8486563  1.139722   26.55548  
8970       0.8477122  1.148326   26.4733   
8970.5     0.829809   1.156934   26.30708  
8971       0.8119057  1.164377   25.914    
8971.5     0.7940024  1.170524   25.56317  
8972       0.8095022  1.174884   25.48656  
8972.5     0.829022   1.178192   25.42372  
8973       0.848542   1.184537   25.45163  
8973.5     0.8486563  1.188198   25.5231   
8974       0.8486563  1.180379   25.58963  
8974.5     0.8486563  1.17847    25.6492   
8975       0.8645438  1.17847    25.73387  
8975.5     0.8871393  1.1752     26.37764  
8976       0.9052334  1.16963    26.60561  
8976.5     0.9052334  1.160842   26.67711  
8977       0.9052334  1.156538   26.7486   
8977.5     0.9052334  1.167712   26.8201   
8978       0.9052334  1.183249   27.00255  
8978.5     0.9029013  1.202365   27.16338  
8979       0.8909609  1.22148    27.25858  
8979.5     0.8790205  1.269508   27.1244   
8980       0.8769449  1.322657   26.81059  
8980.5     0.8769449  1.352042   26.52312  
8981       0.8769449  1.369788   26.27118  
8981.5     0.8769449  1.391679   26.27118  
8982       0.8795314  1.452662   26.27118  
8982.5     0.891462   1.505291   26.27118  
8983       0.9033926  1.446992   26.0571   
8983.5     0.9052334  1.389097   26.25478  
8984       0.9052334  1.361648   26.62802  
8984.5     0.8942487  1.377922   27.00127  
8985       0.8816103  1.392471   26.93503  
8985.5     0.8689717  1.389492   26.61058  
8986       0.8563333  1.383011   26.24393  
8986.5     0.8486563  1.352368   25.70726  
8987       0.8486563  1.28528    25.70621  
8987.5     0.8454999  1.189465   25.88055  
8988       0.8250426  1.115138   25.98869  
8988.5     0.8045853  1.057511   25.96962  
8989       0.7871712  1.043985   25.86234  
8989.5     0.7745438  1.031905   25.67957  
8990       0.7629286  1.019655   25.49692  
8990.5     0.7571212  1.009732   25.33182  
8991       0.7513138  1.00174    25.28249  
8991.5     0.7455064  0.9981546  25.35092  
8992       0.7396989  0.9937042  25.52969  
8992.5     0.7383389  0.9935192  25.63672  
8993       0.7485676  0.9972622  25.75398  
8993.5     0.7587962  1.001005   25.96858  
8994       0.7533224  1.011616   26.18317  
8994.5     0.7328651  1.018789   26.35017  
8995       0.7124078  1.012954   26.46985  
8995.5     0.7156494  1.004346   26.57323  
8996       0.726956   0.9992907  26.66261  
8996.5     0.7305077  0.9971671  26.69492  
8997       0.7100505  0.9981575  26.69492  
8997.5     0.6895932  1.00123    26.69492  
8998       0.6853483  1.007581   26.60124  
8998.5     0.6987716  1.017504   26.43439  
8999       0.7118996  1.02807    26.20142  
8999.5     0.7245271  1.040352   25.90863  
9000       0.7378449  1.048159   25.65897  
9000.5     0.7098718  1.036827   25.70621  
9001       0.7072136  1.036827   25.70319  
9001.5     0.7072136  1.028281   25.58405  
9002       0.7152297  1.016341   25.96585  
9002.5     0.7265364  1.005428   26.38577  
9003       0.7355021  0.99761    26.75046  
9003.5     0.7355021  0.9904019  26.99118  
9004       0.7394055  0.9844135  27.08058  
9004.5     0.7501501  0.9804988  27.11864  
9005       0.7608947  0.9831998  27.11864  
9005.5     0.7550758  0.9842453  27.11864  
