~Version
 VERS              .         3.0                           : CWLS LOG ASCII STANDARD - VERSION 3.0
 WRAP              .         NO                            : ONE LINE PER DEPTH STEP
 DLM               .         SPACE                         : DELIMITING CHARACTER(SPACE TAB OR COMMA)
~Well Information
#_______________________________________________________________________________
#
#PARAMETER_NAME    .UNIT     VALUE                         : DESCRIPTION
#_______________________________________________________________________________
STRT               .ft       3000                          : First reference value
STOP               .ft       10476                         : Last reference value
STEP               .ft       0.5                           : Step increment
NULL               .         -9999                         : Missing value
COMP               .                                       : Company
WELL               .         EGBM-001                      : Well name
FLD                .         EGBEMA                        : Field
LOC                .                                       : Location
SRVC               .                                       : Service Company
CTRY               .                                       : Country
DATE               .         1960/10/25                    : Service Date
X                  .                                       : X or East-West coordinate
Y                  .                                       : Y or North South coordinate
GDAT               .                                       : Geodetic Datum
HZCS               .                                       : Horizontal Co-ordinate System
APIN               .         10801/01                      : 
BHT                .degC     -999.25                       : 
BLI                .ft       7010                          : 
BS                 .in       12.25                         : 
CREATION-TIME      .         2060/10/25 0_0                : 
DFD                .g/cm3    -999.25                       : 
DFT                .         CLAY BASE                     : 
DFV                .s        -999.25                       : 
ELZ                .         -999.25                       : 
FIELD-NAME         .         EGBEMA                        : 
FILE-ID            .         SOH20 .1                      : 
FILE-NUMBER        .         0                             : 
FILE-SET-NAME      .                                       : 
FILE-SET-NUMBER    .         0                             : 
FILE-TYPE          .         PTF                           : 
HIDE               .         Well/Hole_ EGBM-1  Service Name_ ES  Run Number_ 1: 
LCC                .         0                             : 
LMF                .         1                             : 
MST                .degC     -999.25                       : 
NAME-SPACE-NAME    .         LIS                           : 
NAME-SPACE-VERSION .         0                             : 
PRODUC             .         SHELL(PARASOL)                : 
PRODUCER-CODE      .         0                             : 
PRODUCER-NAME      .         Schlumberger                  : 
PRODUCT            .                                       : 
PROGRAMS           .         INC                           : 
R1                 .         LONG NORMAL GALVONOMETER 6 (1/10 BACK UP) NOT WORKING THEREFORE USED<_techsia_br_>: 
R2                 .         GALVONOMETER 5 (DOTTED) AS 1/10 BACK UP WITH GALVONOMETER 7 CONTINUOUS LINE<_techsia_br_>: 
R3                 .         AS USUAL GALVONOMETER<_techsia_br_>: 
R4                 .         <_techsia_br_>                : 
R5                 .         SHELL LAB MEASUREMENT<_techsia_br_>: 
R6                 .         <_techsia_br_>                : 
R7                 .         MUD      7.89 OHMS AT 75 DEG F<_techsia_br_>: 
R8                 .         FILTRATE 7.?8 OHMS AT 75 DEG F: 
RMCS               .ohm.m    -999.25                       : 
RMFS               .ohm.m    -999.25                       : 
RMS                .ohm.m    -999.25                       : 
TCS                .h        -999.25                       : 
TDD                .         -999.25                       : 
TDL                .         -999.25                       : 
TLI                .ft       1498                          : 
VERSION            .         2P01                          : 
WELL-ID            .         10801/01                      : 
WELL-NAME          .         EGBM-001                      : 
WN                 .         EGBM-001                      : 
~Parameter Information Block
#_______________________________________________________________________________
#
#PARAMETER_NAME    .UNIT     VALUE                         : DESCRIPTION
#_______________________________________________________________________________
SET                .         SOH11 _4_1                    : 
ACQUISITION-PRODUCT .         DLIS/U                        : 
CREATION-TIME      .         2026/5/13 8_57                : 
DLIS_FRAME_DIRECTION .         INCREASING                    : 
DLIS_FRAME_NAME    .         1                             : 
DLIS_FRAME_SPACING .ft       0.5                           : 
FIELD-NAME         .         EGBEMA                        : 
FILE-ID            .         SOH11 .4                      : 
FILE-NUMBER        .         4                             : 
FILE-SET-NAME      .         LIS-TO-DLIS-CONVERSION        : 
FILE-SET-NUMBER    .         14905                         : 
FILE-TYPE          .         PTF                           : 
INDEX-TYPE         .         BOREHOLE-DEPTH                : 
NAME-SPACE-NAME    .                                       : 
NAME-SPACE-VERSION .         0                             : 
OriginalDatasetName .         1                             : 
PRODUCER-CODE      .         440                           : 
PRODUCER-NAME      .         Schlumberger                  : 
PRODUCT            .         DLIS/U                        : 
PROGRAMS           .         LIS-TO-DLIS                   : 
TLFamily_DEPT      .         Measured Depth                : 
TLFamily_LN        .                                       : 
TLFamily_SN        .         Resistivity - Shallow         : 
TLFamily_SP        .         Spontaneous Potential         : 
VERSION            .         0.1                           : 
WELL-ID            .         10801/01                      : 
WELL-NAME          .         EGBM-001                      : 
~Curve Information
#_______________________________________________________________________________
#
#LOGNAME           .UNIT     LOG_ID                        : DESCRIPTION
#_______________________________________________________________________________
DEPT               .ft                                     :  {F}
LN                 .ohm.m                                  :  {F}
SN                 .ohm.m                                  :  {F}
SP                 .mV                                     :  {F}
~Ascii
# ...
5002       1.926345   2.424279   132.3464  
5002.5     1.919255   2.420679   132.1499  
5003       1.886103   2.406953   131.9533  
5003.5     1.840679   2.281226   131.8538  
5004       1.783222   2.016346   131.9675  
5004.5     1.725765   1.806231   132.0813  
5005       1.668308   1.639256   132.5663  
5005.5     1.628845   1.520978   133.1354  
5006       1.603488   1.472401   133.4415  
5006.5     1.590305   1.471591   133.1871  
5007       1.602272   1.471591   132.9638  
5007.5     1.61424    1.471591   133.072   
5008       1.622995   1.472932   133.1801  
5008.5     1.631613   1.48157    133.1525  
5009       1.640231   1.516982   132.9645  
5009.5     1.664779   1.557498   132.7764  
5010       1.697106   1.58843    132.4935  
5010.5     1.730863   1.615931   132.0882  
5011       1.796429   1.64343    131.7757  
5011.5     1.861996   1.671318   131.6485  
5012       1.927215   1.699278   131.5508  
5012.5     1.974063   1.755639   131.7172  
5013       2.020911   1.867178   131.4545  
5013.5     2.06776    2.170816   130.528   
5014       2.1752     2.513803   129.943   
5014.5     2.282939   3.04033    129.047   
5015       2.522758   3.958502   126.4886  
5015.5     2.778637   5.31326    120.7579  
5016       3.141587   7.166839   116.4414  
5016.5     3.536192   8.117247   107.3609  
5017       3.936309   8.407463   99.46686  
5017.5     4.48681    8.235437   97.80045  
5018       5.767054   8.199434   96.71967  
5018.5     6.364305   8.18182    96.59091  
5019       6.759491   8.169918   97.33897  
5019.5     6.832188   8.143991   97.87419  
5020       6.845085   8.118063   97.16504  
5020.5     6.746991   8.13372    95.78911  
5021       6.61099    8.344563   96.04959  
5021.5     6.530968   8.54705    96.84999  
5022       6.546374   8.673092   97.68163  
5022.5     6.618203   8.521427   97.41823  
5023       6.690031   8.444754   96.32487  
5023.5     6.765278   8.56105    94.64333  
5024       6.842224   8.693939   92.96178  
5024.5     6.839322   8.838655   90.43004  
5025       6.794363   9.014147   88.01962  
5025.5     6.706248   9.189636   86.25056  
5026       6.591306   9.517521   85.52161  
5026.5     6.480451   9.780722   84.95462  
5027       6.408648   9.853098   85.13474  
5027.5     6.430309   9.566631   85.22726  
5028       6.463133   9.257973   85.22726  
5028.5     6.522993   8.76976    85.47969  
5029       6.582854   8.409513   86.47766  
5029.5     6.608151   8.23498    88.5524   
5030       6.618923   8.16678    90.69376  
5030.5     6.628895   8.343565   88.59659  
5031       6.626602   8.673458   86.79417  
5031.5     6.52454    9.019201   85.20985  
5032       6.422477   9.346716   83.70538  
5032.5     6.295702   9.639023   79.85866  
5033       6.146516   9.924566   78.60919  
5033.5     6.075068   10.03919   77.84267  
5034       6.037004   10.06258   78.20293  
5034.5     6.049682   10.07921   78.77914  
5035       6.0621     9.967068   79.49252  
5035.5     5.986062   9.785561   79.0293   
5036       5.910025   9.605543   78.73882  
5036.5     5.790563   9.40345    78.90515  
5037       5.657748   9.160463   80.04921  
5037.5     5.521665   8.870897   81.94174  
5038       5.385581   8.438641   83.62465  
5038.5     5.253322   7.899246   85.06622  
5039       5.12406    7.351992   86.72104  
5039.5     4.994799   6.632573   88.59415  
5040       4.855036   5.957066   92.37767  
5040.5     4.71449    5.356695   99.07504  
5041       4.573945   4.952046   107.9028  
5041.5     4.463181   4.893416   110.3708  
5042       4.355463   4.904789   109.7812  
5042.5     4.251057   4.905983   106.1546  
5043       4.15528    4.821986   104.8042  
5043.5     4.059503   4.713975   106.1548  
5044       4.061895   4.706688   107.3484  
5044.5     4.073862   4.732105   107.0157  
5045       4.071995   4.766759   106.3497  
5045.5     4.058527   4.810722   105.1964  
5046       4.023875   4.857689   104.4006  
5046.5     3.962308   4.904655   104.0679  
5047       3.900741   4.957743   104.5668  
5047.5     3.826098   5.028409   103.0025  
5048       3.745295   4.975986   102.1115  
5048.5     3.711048   4.713228   102.7319  
5049       3.649417   4.304558   105.2872  
5049.5     3.529853   3.681537   108.6121  
5050       3.386187   3.506787   114.2818  
5050.5     3.242521   3.449982   115.2316  
5051       3.090378   3.508039   110.8627  
5051.5     2.934804   3.463367   112.31    
5052       2.799844   3.297803   115.3982  
5052.5     2.704067   3.153436   116.0706  
5053       2.60829    3.017665   116.6828  
5053.5     2.500828   2.890286   119.3252  
5054       2.39311    2.774286   121.8685  
5054.5     2.290395   2.658286   123.815   
5055       2.197028   2.499225   124.6598  
5055.5     2.103661   2.385831   125.2775  
5056       2.010293   2.272437   126.6452  
5056.5     1.93792    2.159952   127.5248  
5057       1.896479   2.054371   127.9881  
5057.5     1.855038   1.95385    128.4515  
5058       1.813598   1.88268    128.9149  
5058.5     1.786465   1.811509   129.2445  
5059       1.75953    1.7352     129.5534  
5059.5     1.732595   1.671328   129.8623  
5060       1.688252   1.629789   130.1712  
5060.5     1.64037    1.623616   130.48    
5061       1.592488   1.617246   130.7354  
5061.5     1.547536   1.610422   130.8898  
5062       1.510069   1.603599   131.0443  
5062.5     1.472603   1.581385   131.1987  
5063       1.443029   1.555459   131.25    
5063.5     1.436296   1.528566   131.25    
5064       1.429563   1.497138   131.25    
5064.5     1.422829   1.483383   131.25    
5065       1.41643    1.476182   131.25    
5065.5     1.41643    1.478958   131.4369  
5066       1.41643    1.499292   131.6686  
5066.5     1.408875   1.521432   131.9002  
5067       1.390924   1.555986   132.1176  
5067.5     1.372973   1.572524   132.2378  
5068       1.369278   1.525697   132.3579  
5068.5     1.405194   1.480773   132.0566  
5069       1.441111   1.489683   131.6241  
5069.5     1.444758   1.503189   131.2136  
5070       1.444758   1.540922   130.9432  
5070.5     1.444758   1.605138   130.6887  
5071       1.444758   1.653409   130.8945  
5071.5     1.444758   1.628493   131.1004  
5072       1.469667   1.601495   131.1866  
5072.5     1.501995   1.575377   130.955   
5073       1.531198   1.549454   130.7233  
5073.5     1.541457   1.546812   130.4916  
5074       1.551716   1.570375   130.3664  
5074.5     1.561975   1.593939   130.3136  
5075       1.572235   1.618363   130.2609  
5075.5     1.582495   1.647179   130.2082  
5076       1.580725   1.675993   130.1554  
5076.5     1.571555   1.68871    130.1252  
5077       1.562385   1.678012   130.1806  
5077.5     1.553215   1.634321   130.2361  
5078       1.544045   1.577802   130.2915  
5078.5     1.534876   1.518571   130.347   
5079       1.540908   1.474701   130.3832  
5079.5     1.566254   1.461449   130.2103  
5080       1.591599   1.449922   130.0373  
5080.5     1.616946   1.455999   129.8643  
5081       1.642292   1.483802   129.9735  
5081.5     1.681054   1.535357   130.1537  
5082       1.720235   1.621838   130.3339  
5082.5     1.759416   1.736991   130.337   
5083       1.798596   1.867992   130.243   
5083.5     1.837777   2.008407   130.149   
5084       1.88218    2.173902   129.7764  
5084.5     1.949506   2.341041   129.2359  
5085       2.016832   2.453553   128.9179  
5085.5     2.084158   2.382017   128.8041  
5086       2.151484   2.272755   128.696   
5086.5     2.21881    2.18054    128.804   
5087       2.286136   2.141613   128.9121  
5087.5     2.378328   2.172575   128.7625  
5088       2.474106   2.312015   128.222   
5088.5     2.601869   2.590112   127.2612  
5089       2.760633   2.982067   125.2956  
5089.5     2.919109   3.544797   118.3819  
5090       3.048419   3.87344    106.8805  
5090.5     3.087818   4.747192   101.0381  
5091       3.087818   5.076485   100.4295  
5091.5     2.971939   5.405777   101.06    
5092       2.864958   5.666723   102.789   
5092.5     2.773014   5.856822   105.3666  
