~Version
 VERS              .         3.0                           : CWLS LOG ASCII STANDARD - VERSION 3.0
 WRAP              .         NO                            : ONE LINE PER DEPTH STEP
 DLM               .         SPACE                         : DELIMITING CHARACTER(SPACE TAB OR COMMA)
~Well Information
#_______________________________________________________________________________
#
#PARAMETER_NAME    .UNIT     VALUE                         : DESCRIPTION
#_______________________________________________________________________________
STRT               .ft       3000                          : First reference value
STOP               .ft       10476                         : Last reference value
STEP               .ft       0.5                           : Step increment
NULL               .         -9999                         : Missing value
COMP               .                                       : Company
WELL               .         EGBM-001                      : Well name
FLD                .         EGBEMA                        : Field
LOC                .                                       : Location
SRVC               .                                       : Service Company
CTRY               .                                       : Country
DATE               .         1960/10/25                    : Service Date
X                  .                                       : X or East-West coordinate
Y                  .                                       : Y or North South coordinate
GDAT               .                                       : Geodetic Datum
HZCS               .                                       : Horizontal Co-ordinate System
APIN               .         10801/01                      : 
BHT                .degC     -999.25                       : 
BLI                .ft       7010                          : 
BS                 .in       12.25                         : 
CREATION-TIME      .         2060/10/25 0_0                : 
DFD                .g/cm3    -999.25                       : 
DFT                .         CLAY BASE                     : 
DFV                .s        -999.25                       : 
ELZ                .         -999.25                       : 
FIELD-NAME         .         EGBEMA                        : 
FILE-ID            .         SOH20 .1                      : 
FILE-NUMBER        .         0                             : 
FILE-SET-NAME      .                                       : 
FILE-SET-NUMBER    .         0                             : 
FILE-TYPE          .         PTF                           : 
HIDE               .         Well/Hole_ EGBM-1  Service Name_ ES  Run Number_ 1: 
LCC                .         0                             : 
LMF                .         1                             : 
MST                .degC     -999.25                       : 
NAME-SPACE-NAME    .         LIS                           : 
NAME-SPACE-VERSION .         0                             : 
PRODUC             .         SHELL(PARASOL)                : 
PRODUCER-CODE      .         0                             : 
PRODUCER-NAME      .         Schlumberger                  : 
PRODUCT            .                                       : 
PROGRAMS           .         INC                           : 
R1                 .         LONG NORMAL GALVONOMETER 6 (1/10 BACK UP) NOT WORKING THEREFORE USED<_techsia_br_>: 
R2                 .         GALVONOMETER 5 (DOTTED) AS 1/10 BACK UP WITH GALVONOMETER 7 CONTINUOUS LINE<_techsia_br_>: 
R3                 .         AS USUAL GALVONOMETER<_techsia_br_>: 
R4                 .         <_techsia_br_>                : 
R5                 .         SHELL LAB MEASUREMENT<_techsia_br_>: 
R6                 .         <_techsia_br_>                : 
R7                 .         MUD      7.89 OHMS AT 75 DEG F<_techsia_br_>: 
R8                 .         FILTRATE 7.?8 OHMS AT 75 DEG F: 
RMCS               .ohm.m    -999.25                       : 
RMFS               .ohm.m    -999.25                       : 
RMS                .ohm.m    -999.25                       : 
TCS                .h        -999.25                       : 
TDD                .         -999.25                       : 
TDL                .         -999.25                       : 
TLI                .ft       1498                          : 
VERSION            .         2P01                          : 
WELL-ID            .         10801/01                      : 
WELL-NAME          .         EGBM-001                      : 
WN                 .         EGBM-001                      : 
~Parameter Information Block
#_______________________________________________________________________________
#
#PARAMETER_NAME    .UNIT     VALUE                         : DESCRIPTION
#_______________________________________________________________________________
SET                .         SOH11 _4_1                    : 
ACQUISITION-PRODUCT .         DLIS/U                        : 
CREATION-TIME      .         2026/5/13 8_57                : 
DLIS_FRAME_DIRECTION .         INCREASING                    : 
DLIS_FRAME_NAME    .         1                             : 
DLIS_FRAME_SPACING .ft       0.5                           : 
FIELD-NAME         .         EGBEMA                        : 
FILE-ID            .         SOH11 .4                      : 
FILE-NUMBER        .         4                             : 
FILE-SET-NAME      .         LIS-TO-DLIS-CONVERSION        : 
FILE-SET-NUMBER    .         14905                         : 
FILE-TYPE          .         PTF                           : 
INDEX-TYPE         .         BOREHOLE-DEPTH                : 
NAME-SPACE-NAME    .                                       : 
NAME-SPACE-VERSION .         0                             : 
OriginalDatasetName .         1                             : 
PRODUCER-CODE      .         440                           : 
PRODUCER-NAME      .         Schlumberger                  : 
PRODUCT            .         DLIS/U                        : 
PROGRAMS           .         LIS-TO-DLIS                   : 
TLFamily_DEPT      .         Measured Depth                : 
TLFamily_LN        .                                       : 
TLFamily_SN        .         Resistivity - Shallow         : 
TLFamily_SP        .         Spontaneous Potential         : 
VERSION            .         0.1                           : 
WELL-ID            .         10801/01                      : 
WELL-NAME          .         EGBM-001                      : 
~Curve Information
#_______________________________________________________________________________
#
#LOGNAME           .UNIT     LOG_ID                        : DESCRIPTION
#_______________________________________________________________________________
DEPT               .ft                                     :  {F}
LN                 .ohm.m                                  :  {F}
SN                 .ohm.m                                  :  {F}
SP                 .mV                                     :  {F}
~Ascii
# ...
6913       7.692581   9.430717   126.6632  
6913.5     7.562944   9.859571   127.8341  
6914       7.412172   10.22482   127.5993  
6914.5     7.184937   10.39928   124.7719  
6915       6.995932   10.14281   123.089   
6915.5     6.890889   9.601973   125.6368  
6916       6.902059   9.088835   129.8182  
6916.5     6.999915   8.74712    134.602   
6917       7.097835   8.549696   138.2297  
6917.5     7.146893   8.520014   140.1136  
6918       7.146893   8.784876   141.3847  
6918.5     7.147224   9.184137   141.6585  
6919       7.203898   9.660826   137.5843  
6919.5     7.260573   10.13277   132.6171  
6920       7.336535   10.45583   130.5586  
6920.5     7.430758   10.86815   130.3852  
6921       7.485875   11.32256   129.2781  
6921.5     7.485875   11.61576   127.3607  
6922       7.487863   11.71625   126.2571  
6922.5     7.498628   11.59305   126.5688  
6923       7.509394   11.06997   126.9777  
6923.5     7.520161   10.45823   126.3994  
6924       7.530931   10.08917   127.4419  
6924.5     7.541699   9.912886   128.0126  
6925       7.600051   9.84536    125.9831  
6925.5     7.661575   9.768482   124.9797  
6926       7.724972   9.58824    124.5746  
6926.5     7.79675    9.351557   125.0093  
6927       7.868528   9.085623   125.4225  
6927.5     7.914721   8.870714   125.8089  
6928       7.926684   8.757067   126.1954  
6928.5     7.931254   8.684584   126.5818  
6929       7.831879   8.684584   126.9683  
6929.5     7.732503   8.826027   127.3547  
6930       7.633127   8.941963   127.5321  
6930.5     7.508177   9.058969   127.4217  
6931       7.369772   9.191652   126.9275  
6931.5     7.331075   9.430855   126.203   
6932       7.327226   9.634523   126.2304  
6932.5     7.42293    9.530598   127.394   
6933       7.518634   9.461559   130.1108  
6933.5     7.663814   9.582506   132.5105  
6934       7.834889   9.890331   132.5115  
6934.5     8.050266   10.4255    129.3727  
6935       8.240152   11.15166   126.6377  
6935.5     8.401604   11.81881   120.1808  
6936       8.573725   12.22966   113.6927  
6936.5     8.763781   12.34839   111.6639  
6937       8.957472   12.42369   109.7391  
6937.5     9.172848   12.45681   108.7246  
6938       9.372469   12.48993   107.7958  
6938.5     9.481783   12.52306   107.4211  
6939       9.55356    12.55341   107.0463  
6939.5     9.633907   12.58276   106.6716  
6940       9.735226   12.6121    106.4194  
6940.5     9.832535   12.63183   106.4194  
6941       9.866539   12.64977   106.4194  
6941.5     9.900543   12.66771   106.4194  
6942       9.915255   12.71573   106.4517  
6942.5     9.915255   12.77723   106.5138  
6943       9.915255   12.83874   106.5759  
6943.5     9.915255   12.93651   106.638   
6944       9.927923   13.03699   106.7002  
6944.5     9.953259   13.17879   106.9674  
6945       9.978594   13.22935   107.2509  
6945.5     10.00393   13.32438   107.5343  
6946       10.02923   13.46913   107.4667  
6946.5     10.05384   13.6845    107.3632  
6947       10.07845   13.78192   107.256   
6947.5     10.10306   13.77114   107.1281  
6948       10.12767   13.69563   107.0003  
6948.5     10.17532   13.5782    107.39    
6949       10.25134   13.5204    107.8247  
6949.5     10.31074   13.49364   107.8459  
6950       10.31074   13.50988   107.8459  
6950.5     10.31074   13.44336   107.8459  
6951       10.27996   13.31263   107.8459  
6951.5     10.24407   13.20726   107.8459  
6952       10.21931   13.19291   107.8459  
6952.5     10.20586   13.15649   107.5626  
6953       10.17263   13.06931   107.2005  
6953.5     10.10929   13.06931   106.99    
6954       10.04595   13.05858   106.99    
6954.5     9.982615   13.01551   106.99    
6955       9.919275   12.87328   107.1273  
6955.5     9.873241   12.73855   107.3342  
6956       9.828381   12.69279   107.5412  
6956.5     9.78352    12.67741   107.6463  
6957       9.667948   12.55704   107.7408  
6957.5     9.533365   12.39793   107.8353  
6958       9.398781   12.23882   108.4552  
6958.5     9.1625     12.03991   109.1415  
6959       8.859589   11.82457   110.0806  
6959.5     8.518431   11.60924   111.4091  
6960       8.131134   11.12087   112.8169  
6960.5     7.715919   10.25938   116.6801  
6961       7.500137   9.215855   124.9371  
6961.5     7.338612   8.191362   133.4433  
6962       7.22893    7.293468   140.8341  
6962.5     7.142814   6.910744   146.4184  
6963       7.056697   6.784252   150.6212  
6963.5     6.984602   6.740602   152.9359  
6964       6.932917   7.002279   152.6415  
6964.5     6.881231   7.466024   148.2966  
6965       6.832565   7.963315   139.481   
6965.5     6.804482   8.186981   133.0472  
6966       6.776397   8.099207   129.9401  
6966.5     6.753789   7.832095   130.9685  
6967       6.775323   7.557013   134.8476  
6967.5     6.796858   7.392515   138.9295  
6968       6.818393   7.416936   142.254   
6968.5     6.839928   7.897243   142.6534  
6969       6.861463   8.370579   135.877   
6969.5     6.96178    8.834324   127.2549  
6970       7.074574   9.155046   120.2118  
6970.5     7.190144   9.292906   115.5025  
6971       7.328548   9.284847   112.4057  
6971.5     7.473223   9.238695   109.7972  
6972       7.634724   9.165489   108.2708  
6972.5     7.708639   9.165489   107.017   
6973       7.736326   9.218925   105.7631  
6973.5     7.705553   9.276344   104.8731  
6974       7.686869   9.175346   104.5625  
6974.5     7.698199   9.119829   104.2519  
6975       7.70953    9.092922   104.1369  
6975.5     7.690491   9.096563   104.1369  
6976       7.663569   9.125923   104.1369  
6976.5     7.567307   9.155281   104.2965  
6977       7.440658   9.218151   104.754   
6977.5     7.34557    9.298878   105.2116  
6978       7.288136   9.320417   106.9806  
6978.5     7.288136   9.244276   109.388   
6979       7.288136   9.118721   112.866   
6979.5     7.287785   9.108912   115.3158  
6980       7.216006   9.204441   116.0783  
6980.5     7.119881   9.309198   114.9428  
6981       7.018561   9.329643   113.5106  
6981.5     6.964612   9.190376   113.9012  
6982       6.949152   9.048759   115.3289  
6982.5     6.949152   8.642115   120.3151  
6983       6.949152   8.357908   127.7139  
6983.5     6.956267   8.216202   134.2688  
6984       6.974212   8.422419   139.9161  
6984.5     6.992156   8.791431   135.4616  
6985       7.041258   9.125662   128.1479  
6985.5     7.184814   9.336428   122.722   
6986       7.32837    9.403702   118.8898  
6986.5     7.469834   9.421242   117.8317  
6987       7.609148   9.383972   117.9855  
6987.5     7.718149   9.457205   119.3658  
6988       7.742076   9.543322   117.6058  
6988.5     7.766002   9.629436   116.358   
6989       7.789927   9.700212   117.021   
6989.5     7.719014   9.805746   119.106   
6990       7.611347   9.981899   118.4371  
6990.5     7.50368    10.03849   118.3437  
6991       7.396012   9.890192   120.428   
6991.5     7.388258   9.400877   123.1348  
6992       7.429124   8.877079   127.7721  
6992.5     7.510796   8.505199   133.5962  
6993       7.592467   8.343042   143.1553  
6993.5     7.674139   8.749687   149.2558  
6994       7.834169   9.590769   149.565   
6994.5     8.061468   10.49006   143.5093  
6995       8.307796   11.42025   132.9481  
6995.5     8.642759   12.25064   124.8355  
6996       8.977724   12.79343   118.5665  
6996.5     9.302887   13.0266    115.8916  
6997       9.625832   13.18772   113.2166  
6997.5     9.956997   13.23679   110.5417  
6998       10.24191   13.26312   109.2498  
6998.5     10.40343   13.21516   108.0274  
6999       10.54877   13.38261   107.4251  
6999.5     10.61766   13.46635   106.9309  
7000       10.68655   13.48428   106.4368  
7000.5     10.75545   13.5503    105.4411  
7001       10.82199   13.66871   104.4272  
7001.5     10.88826   13.78712   104.7551  
7002       10.95453   13.80359   105.0557  
7002.5     11.11039   13.78401   105.2731  
7003       11.36161   13.84111   104.506   
7003.5     11.47699   14.04626   104.0316  
