~Version
 VERS              .         3.0                           : CWLS LOG ASCII STANDARD - VERSION 3.0
 WRAP              .         NO                            : ONE LINE PER DEPTH STEP
 DLM               .         SPACE                         : DELIMITING CHARACTER(SPACE TAB OR COMMA)
~Well Information
#_______________________________________________________________________________
#
#PARAMETER_NAME    .UNIT     VALUE                         : DESCRIPTION
#_______________________________________________________________________________
STRT               .ft       3000                          : First reference value
STOP               .ft       10476                         : Last reference value
STEP               .ft       0.5                           : Step increment
NULL               .         -9999                         : Missing value
COMP               .                                       : Company
WELL               .         EGBM-001                      : Well name
FLD                .         EGBEMA                        : Field
LOC                .                                       : Location
SRVC               .                                       : Service Company
CTRY               .                                       : Country
DATE               .         1960/10/25                    : Service Date
X                  .                                       : X or East-West coordinate
Y                  .                                       : Y or North South coordinate
GDAT               .                                       : Geodetic Datum
HZCS               .                                       : Horizontal Co-ordinate System
APIN               .         10801/01                      : 
BHT                .degC     -999.25                       : 
BLI                .ft       7010                          : 
BS                 .in       12.25                         : 
CREATION-TIME      .         2060/10/25 0_0                : 
DFD                .g/cm3    -999.25                       : 
DFT                .         CLAY BASE                     : 
DFV                .s        -999.25                       : 
ELZ                .         -999.25                       : 
FIELD-NAME         .         EGBEMA                        : 
FILE-ID            .         SOH20 .1                      : 
FILE-NUMBER        .         0                             : 
FILE-SET-NAME      .                                       : 
FILE-SET-NUMBER    .         0                             : 
FILE-TYPE          .         PTF                           : 
HIDE               .         Well/Hole_ EGBM-1  Service Name_ ES  Run Number_ 1: 
LCC                .         0                             : 
LMF                .         1                             : 
MST                .degC     -999.25                       : 
NAME-SPACE-NAME    .         LIS                           : 
NAME-SPACE-VERSION .         0                             : 
PRODUC             .         SHELL(PARASOL)                : 
PRODUCER-CODE      .         0                             : 
PRODUCER-NAME      .         Schlumberger                  : 
PRODUCT            .                                       : 
PROGRAMS           .         INC                           : 
R1                 .         LONG NORMAL GALVONOMETER 6 (1/10 BACK UP) NOT WORKING THEREFORE USED<_techsia_br_>: 
R2                 .         GALVONOMETER 5 (DOTTED) AS 1/10 BACK UP WITH GALVONOMETER 7 CONTINUOUS LINE<_techsia_br_>: 
R3                 .         AS USUAL GALVONOMETER<_techsia_br_>: 
R4                 .         <_techsia_br_>                : 
R5                 .         SHELL LAB MEASUREMENT<_techsia_br_>: 
R6                 .         <_techsia_br_>                : 
R7                 .         MUD      7.89 OHMS AT 75 DEG F<_techsia_br_>: 
R8                 .         FILTRATE 7.?8 OHMS AT 75 DEG F: 
RMCS               .ohm.m    -999.25                       : 
RMFS               .ohm.m    -999.25                       : 
RMS                .ohm.m    -999.25                       : 
TCS                .h        -999.25                       : 
TDD                .         -999.25                       : 
TDL                .         -999.25                       : 
TLI                .ft       1498                          : 
VERSION            .         2P01                          : 
WELL-ID            .         10801/01                      : 
WELL-NAME          .         EGBM-001                      : 
WN                 .         EGBM-001                      : 
~Parameter Information Block
#_______________________________________________________________________________
#
#PARAMETER_NAME    .UNIT     VALUE                         : DESCRIPTION
#_______________________________________________________________________________
SET                .         SOH11 _4_1                    : 
ACQUISITION-PRODUCT .         DLIS/U                        : 
CREATION-TIME      .         2026/5/13 8_57                : 
DLIS_FRAME_DIRECTION .         INCREASING                    : 
DLIS_FRAME_NAME    .         1                             : 
DLIS_FRAME_SPACING .ft       0.5                           : 
FIELD-NAME         .         EGBEMA                        : 
FILE-ID            .         SOH11 .4                      : 
FILE-NUMBER        .         4                             : 
FILE-SET-NAME      .         LIS-TO-DLIS-CONVERSION        : 
FILE-SET-NUMBER    .         14905                         : 
FILE-TYPE          .         PTF                           : 
INDEX-TYPE         .         BOREHOLE-DEPTH                : 
NAME-SPACE-NAME    .                                       : 
NAME-SPACE-VERSION .         0                             : 
OriginalDatasetName .         1                             : 
PRODUCER-CODE      .         440                           : 
PRODUCER-NAME      .         Schlumberger                  : 
PRODUCT            .         DLIS/U                        : 
PROGRAMS           .         LIS-TO-DLIS                   : 
TLFamily_DEPT      .         Measured Depth                : 
TLFamily_LN        .                                       : 
TLFamily_SN        .         Resistivity - Shallow         : 
TLFamily_SP        .         Spontaneous Potential         : 
VERSION            .         0.1                           : 
WELL-ID            .         10801/01                      : 
WELL-NAME          .         EGBM-001                      : 
~Curve Information
#_______________________________________________________________________________
#
#LOGNAME           .UNIT     LOG_ID                        : DESCRIPTION
#_______________________________________________________________________________
DEPT               .ft                                     :  {F}
LN                 .ohm.m                                  :  {F}
SN                 .ohm.m                                  :  {F}
SP                 .mV                                     :  {F}
~Ascii
# ...
7459       5.318246   9.26153    22.21294  
7459.5     5.318246   9.713144   16.22421  
7460       5.309387   9.653683   15.11832  
7460.5     5.255711   8.805986   16.73474  
7461       5.130717   7.609838   22.17276  
7461.5     4.951866   6.434011   31.06644  
7462       4.753572   5.674441   40.56664  
7462.5     4.528077   5.468018   49.97911  
7463       4.251311   5.693567   51.73213  
7463.5     3.922246   6.095692   50.40485  
7464       3.608706   6.662986   45.88622  
7464.5     3.428629   7.157964   44.93715  
7465       3.38889    7.507817   43.81143  
7465.5     3.4426     7.66433    41.26625  
7466       3.53447    7.621887   40.35872  
7466.5     3.642301   7.456037   41.5303   
7467       3.809329   7.277463   44.61186  
7467.5     3.998844   7.178176   48.01309  
7468       4.300728   7.124389   52.18858  
7468.5     4.558365   7.290328   52.49379  
7469       4.685692   7.855209   49.59088  
7469.5     4.660076   8.760477   42.99788  
7470       4.50918    9.481188   36.39304  
7470.5     4.251225   9.520275   30.8768   
7471       4.038853   8.858042   29.84866  
7471.5     3.882587   7.753881   32.99611  
7472       3.760181   6.744312   38.22284  
7472.5     3.661035   5.517036   44.74126  
7473       3.581647   4.588885   51.39661  
7473.5     3.506071   4.162485   57.31163  
7474       3.460042   4.094083   61.71498  
7474.5     3.420606   4.287616   63.00923  
7475       3.40867    4.719693   62.67734  
7475.5     3.396734   5.310894   61.28552  
7476       3.394625   5.967463   59.06175  
7476.5     3.394625   6.405032   54.33139  
7477       3.411798   6.359306   49.40082  
7477.5     3.449697   5.905302   48.58118  
7478       3.487148   5.376636   53.19676  
7478.5     3.522955   4.885741   59.68138  
7479       3.56524    4.684544   61.14851  
7479.5     3.611269   4.682765   61.46994  
7480       3.660098   4.753562   61.63611  
7480.5     3.713545   4.979777   61.23454  
7481       3.812692   5.475536   59.96492  
7481.5     3.919221   6.317018   55.92287  
7482       4.040692   7.524747   46.97256  
7482.5     4.171983   8.743391   37.28168  
7483       4.303273   9.732224   28.11157  
7483.5     4.438973   9.91118    25.07829  
7484       4.572845   9.434502   24.82347  
7484.5     4.702334   9.052181   27.00708  
7485       4.84562    8.754522   30.90323  
7485.5     4.911839   8.423838   31.25191  
7486       4.950495   8.220819   28.82123  
7486.5     4.950495   8.253769   29.06882  
7487       4.950495   8.574093   30.2661   
7487.5     4.950495   9.125139   27.49069  
7488       4.922207   10.01035   21.90321  
7488.5     4.834955   10.6997    17.59042  
7489       4.647029   10.70912   16.12474  
7489.5     4.433357   10.36059   16.9039   
7490       4.36439    9.664995   19.63989  
7490.5     4.321795   8.817753   25.19981  
7491       4.302261   7.911671   31.3624   
7491.5     4.312415   7.126597   36.81694  
7492       4.326735   7.026965   38.85695  
7492.5     4.31524    7.543674   40.72816  
7493       4.300921   8.238499   38.61986  
7493.5     4.314062   9.184137   31.00403  
7494       4.331084   10.24613   24.45532  
7494.5     4.366891   10.76424   18.52673  
7495       4.433747   10.45485   15.17896  
7495.5     4.529052   9.885088   16.48503  
7496       4.582761   8.805262   18.44852  
7496.5     4.598317   7.919925   22.57047  
7497       4.57147    7.876693   28.0024   
7497.5     4.554455   8.277243   28.63083  
7498       4.554455   9.051937   23.7086   
7498.5     4.582517   9.854153   16.80092  
7499       4.636227   10.13102   13.56374  
7499.5     4.740576   10.00103   11.66001  
7500       4.876806   9.666269   11.44924  
7500.5     4.963438   9.332657   11.55638  
7501       5.000985   9.066236   11.17414  
7501.5     4.973293   9.023153   11.54915  
7502       4.895214   9.178822   11.938    
7502.5     4.780706   9.418196   11.57934  
7503       4.656184   9.518414   10.92023  
7503.5     4.590086   9.289745   10.7379   
7504       4.539222   8.859322   12.76328  
7504.5     4.506173   8.203056   17.46378  
7505       4.357117   7.681256   21.0197   
7505.5     4.113191   7.53541    26.10616  
7506       3.83978    7.647758   30.85304  
7506.5     3.573312   7.776771   28.14859  
7507       3.336201   7.557434   26.83011  
7507.5     3.144957   6.891022   29.04913  
7508       3.013522   6.145376   32.63007  
7508.5     2.901779   5.37939    39.26204  
7509       2.805855   4.786206   42.11461  
7509.5     2.741745   4.300357   47.27631  
7510       2.725221   3.777185   53.52307  
7510.5     2.7157     3.512425   59.04123  
7511       2.7157     3.360056   61.724    
7511.5     2.709519   3.328876   62.84923  
7512       2.689986   3.265965   63.08183  
7512.5     2.653496   3.261439   63.21568  
7513       2.598025   3.199092   63.35254  
7513.5     2.519893   3.015717   63.50552  
7514       2.395982   2.808382   63.6851   
7514.5     2.270706   2.669107   63.92314  
7515       2.145383   2.555828   64.16118  
7515.5     2.042479   2.445323   64.34314  
7516       1.959446   2.339104   64.52756  
7516.5     1.90217    2.243817   64.72234  
7517       1.852381   2.118064   64.6412   
7517.5     1.814466   2.073654   64.5341   
7518       1.780186   2.110799   64.41946  
7518.5     1.766762   2.19923    64.29727  
7519       1.754926   2.300577   64.21487  
7519.5     1.780203   2.412305   64.12895  
7520       1.80548    2.432732   64.03969  
7520.5     1.79815    2.432384   63.96236  
7521       1.782807   2.426237   63.90028  
7521.5     1.738037   2.418157   63.98268  
7522       1.694836   2.409554   64.07072  
7522.5     1.673347   2.404442   64.16805  
7523       1.634717   2.40463    64.06419  
7523.5     1.603827   2.411926   64.33305  
7524       1.585924   2.424828   64.52432  
7524.5     1.584158   2.392848   64.59802  
7525       1.584158   2.334977   64.59802  
7525.5     1.626771   2.301524   64.56895  
7526       1.672549   2.258863   64.35477  
7526.5     1.715528   2.222885   64.14058  
7527       1.762765   2.238585   63.92628  
7527.5     1.845387   2.248143   63.81749  
7528       1.920811   2.252203   63.71141  
7528.5     1.982995   2.258118   63.55843  
7529       2.002861   2.276937   63.52963  
7529.5     1.983335   2.295268   63.67241  
7530       1.963808   2.306019   63.80775  
7530.5     1.932545   2.339974   63.93379  
7531       1.882971   2.408278   64.03384  
7531.5     1.844022   2.472643   64.03384  
7532       1.810102   2.473554   64.06157  
7532.5     1.776753   2.407743   64.13806  
7533       1.746068   2.241573   64.2939   
7533.5     1.715382   2.09677    64.52339  
7534       1.692116   1.924273   64.71849  
7534.5     1.679478   1.828299   64.88736  
7535       1.664898   1.836258   64.96385  
7535.5     1.641026   1.905252   64.94048  
7536       1.617155   1.951145   64.61906  
7536.5     1.604236   1.946877   64.15329  
7537       1.594007   1.902506   63.86195  
7537.5     1.584538   1.846048   63.63245  
7538       1.594767   1.810539   63.7077   
7538.5     1.604995   1.787372   64.00395  
7539       1.609377   1.776245   64.29356  
7539.5     1.59807    1.786736   64.21118  
7540       1.586763   1.83194    64.1749   
7540.5     1.573829   1.91257    64.1749   
7541       1.560405   1.991735   64.24045  
7541.5     1.555869   1.9996     64.30737  
7542       1.555869   1.981994   64.42584  
7542.5     1.552733   1.953296   64.55188  
7543       1.541993   1.942357   64.71117  
7543.5     1.531252   1.936237   64.8837   
7544       1.527581   1.932652   64.95064  
7544.5     1.527581   1.901757   65.01756  
7545       1.527581   1.853843   64.9536   
7545.5     1.51979    1.848855   64.8822   
7546       1.509561   1.882307   64.74144  
7546.5     1.499332   1.924098   64.59859  
7547       1.499292   1.961306   64.52692  
7547.5     1.499292   1.962111   64.45552  
7548       1.50785    1.945562   64.38412  
7548.5     1.519156   1.927444   64.30792  
7549       1.52436    1.90839    64.12939  
7549.5     1.511721   1.895488   64.11044  
