~Version
 VERS              .         3.0                           : CWLS LOG ASCII STANDARD - VERSION 3.0
 WRAP              .         NO                            : ONE LINE PER DEPTH STEP
 DLM               .         SPACE                         : DELIMITING CHARACTER(SPACE TAB OR COMMA)
~Well Information
#_______________________________________________________________________________
#
#PARAMETER_NAME    .UNIT     VALUE                         : DESCRIPTION
#_______________________________________________________________________________
STRT               .ft       3000                          : First reference value
STOP               .ft       10476                         : Last reference value
STEP               .ft       0.5                           : Step increment
NULL               .         -9999                         : Missing value
COMP               .                                       : Company
WELL               .         EGBM-001                      : Well name
FLD                .         EGBEMA                        : Field
LOC                .                                       : Location
SRVC               .                                       : Service Company
CTRY               .                                       : Country
DATE               .         1960/10/25                    : Service Date
X                  .                                       : X or East-West coordinate
Y                  .                                       : Y or North South coordinate
GDAT               .                                       : Geodetic Datum
HZCS               .                                       : Horizontal Co-ordinate System
APIN               .         10801/01                      : 
BHT                .degC     -999.25                       : 
BLI                .ft       7010                          : 
BS                 .in       12.25                         : 
CREATION-TIME      .         2060/10/25 0_0                : 
DFD                .g/cm3    -999.25                       : 
DFT                .         CLAY BASE                     : 
DFV                .s        -999.25                       : 
ELZ                .         -999.25                       : 
FIELD-NAME         .         EGBEMA                        : 
FILE-ID            .         SOH20 .1                      : 
FILE-NUMBER        .         0                             : 
FILE-SET-NAME      .                                       : 
FILE-SET-NUMBER    .         0                             : 
FILE-TYPE          .         PTF                           : 
HIDE               .         Well/Hole_ EGBM-1  Service Name_ ES  Run Number_ 1: 
LCC                .         0                             : 
LMF                .         1                             : 
MST                .degC     -999.25                       : 
NAME-SPACE-NAME    .         LIS                           : 
NAME-SPACE-VERSION .         0                             : 
PRODUC             .         SHELL(PARASOL)                : 
PRODUCER-CODE      .         0                             : 
PRODUCER-NAME      .         Schlumberger                  : 
PRODUCT            .                                       : 
PROGRAMS           .         INC                           : 
R1                 .         LONG NORMAL GALVONOMETER 6 (1/10 BACK UP) NOT WORKING THEREFORE USED<_techsia_br_>: 
R2                 .         GALVONOMETER 5 (DOTTED) AS 1/10 BACK UP WITH GALVONOMETER 7 CONTINUOUS LINE<_techsia_br_>: 
R3                 .         AS USUAL GALVONOMETER<_techsia_br_>: 
R4                 .         <_techsia_br_>                : 
R5                 .         SHELL LAB MEASUREMENT<_techsia_br_>: 
R6                 .         <_techsia_br_>                : 
R7                 .         MUD      7.89 OHMS AT 75 DEG F<_techsia_br_>: 
R8                 .         FILTRATE 7.?8 OHMS AT 75 DEG F: 
RMCS               .ohm.m    -999.25                       : 
RMFS               .ohm.m    -999.25                       : 
RMS                .ohm.m    -999.25                       : 
TCS                .h        -999.25                       : 
TDD                .         -999.25                       : 
TDL                .         -999.25                       : 
TLI                .ft       1498                          : 
VERSION            .         2P01                          : 
WELL-ID            .         10801/01                      : 
WELL-NAME          .         EGBM-001                      : 
WN                 .         EGBM-001                      : 
~Parameter Information Block
#_______________________________________________________________________________
#
#PARAMETER_NAME    .UNIT     VALUE                         : DESCRIPTION
#_______________________________________________________________________________
SET                .         SOH11 _4_1                    : 
ACQUISITION-PRODUCT .         DLIS/U                        : 
CREATION-TIME      .         2026/5/13 8_57                : 
DLIS_FRAME_DIRECTION .         INCREASING                    : 
DLIS_FRAME_NAME    .         1                             : 
DLIS_FRAME_SPACING .ft       0.5                           : 
FIELD-NAME         .         EGBEMA                        : 
FILE-ID            .         SOH11 .4                      : 
FILE-NUMBER        .         4                             : 
FILE-SET-NAME      .         LIS-TO-DLIS-CONVERSION        : 
FILE-SET-NUMBER    .         14905                         : 
FILE-TYPE          .         PTF                           : 
INDEX-TYPE         .         BOREHOLE-DEPTH                : 
NAME-SPACE-NAME    .                                       : 
NAME-SPACE-VERSION .         0                             : 
OriginalDatasetName .         1                             : 
PRODUCER-CODE      .         440                           : 
PRODUCER-NAME      .         Schlumberger                  : 
PRODUCT            .         DLIS/U                        : 
PROGRAMS           .         LIS-TO-DLIS                   : 
TLFamily_DEPT      .         Measured Depth                : 
TLFamily_LN        .                                       : 
TLFamily_SN        .         Resistivity - Shallow         : 
TLFamily_SP        .         Spontaneous Potential         : 
VERSION            .         0.1                           : 
WELL-ID            .         10801/01                      : 
WELL-NAME          .         EGBM-001                      : 
~Curve Information
#_______________________________________________________________________________
#
#LOGNAME           .UNIT     LOG_ID                        : DESCRIPTION
#_______________________________________________________________________________
DEPT               .ft                                     :  {F}
LN                 .ohm.m                                  :  {F}
SN                 .ohm.m                                  :  {F}
SP                 .mV                                     :  {F}
~Ascii
# ...
3455       9.31356    7.452291   114.1058  
3455.5     9.533377   7.248137   114.7183  
3456       9.753195   7.214255   114.9719  
3456.5     9.984026   7.420363   115.2141  
3457       10.23746   7.626471   114.9727  
3457.5     10.49089   7.8931     114.4276  
3458       10.74433   8.252232   113.8178  
3458.5     10.99776   8.611362   113.147   
3459       11.24697   8.970491   112.4311  
3459.5     11.49551   9.313219   111.689   
3460       11.74405   9.636456   110.8961  
3460.5     12.12263   9.959692   109.6333  
3461       12.66125   10.57419   107.6687  
3461.5     13.19988   11.2477    104.7891  
3462       14.40244   12.37416   102.7068  
3462.5     15.74852   13.46653   102.0601  
3463       17.89886   14.39481   102.4944  
3463.5     20.3609    15.16792   103.6683  
3464       23.31201   15.91947   105.0325  
3464.5     25.55452   16.68198   106.4343  
3465       27.2117    17.2852    107.8513  
3465.5     27.7256    17.81764   109.2683  
3466       28.00565   18.2672    110.5906  
3466.5     28.00565   18.6198    111.7536  
3467       27.30815   18.9724    112.887   
3467.5     26.53316   19.44389   113.5928  
3468       26.10231   20.00786   114.06    
3468.5     25.61711   20.54764   114.1631  
3469       24.85698   20.67691   114.1631  
3469.5     24.09685   20.37729   114.4361  
3470       22.7673    19.84143   114.9452  
3470.5     20.85252   19.23079   114.2184  
3471       18.36674   18.61511   113.4916  
3471.5     15.71921   17.97073   112.7648  
3472       13.41285   17.18703   113.2227  
3472.5     12.60508   15.03583   113.7357  
3473       11.79731   12.14718   114.2531  
3473.5     11.01567   9.749598   114.7721  
3474       10.69888   8.816032   115.2911  
3474.5     10.38209   7.863268   116.2673  
3475       10.0653    7.10882    117.7191  
3475.5     9.748505   6.591672   119.5877  
3476       9.209232   6.194649   121.0711  
3476.5     8.51432    5.91451    122.3793  
3477       7.819406   5.634371   123.6452  
3477.5     7.124492   5.422401   124.2811  
3478       6.582793   5.21961    124.9171  
3478.5     6.183902   4.792253   125.553   
3479       5.78501    4.25014    125.8569  
3479.5     5.38612    3.733056   126.1294  
3480       5.213799   3.629429   126.4336  
3480.5     5.04808    3.584632   126.7451  
3481       4.882363   3.541533   127.0745  
3481.5     4.756828   3.496785   127.6715  
3482       4.663174   3.446076   128.1075  
3482.5     4.569519   3.395368   128.5518  
3483       4.460051   3.595751   129.0363  
3483.5     4.336955   3.799867   128.0826  
3484       4.21386    4.379708   126.5751  
3484.5     4.090764   5.349481   124.1769  
3485       3.967669   6.220481   116.4874  
3485.5     4.36575    6.975877   111.3436  
3486       4.796557   7.066557   109.4677  
3486.5     5.227364   6.734032   109.8635  
3487       5.678446   6.224627   112.152   
3487.5     6.140079   6.137995   115.2913  
3488       6.027357   6.264767   117.9169  
3488.5     5.78799    6.579248   117.9274  
3489       5.548621   7.098022   111.5667  
3489.5     5.290532   7.313526   108.6657  
3490       4.982818   7.255053   108.498   
3490.5     4.675103   6.778598   109.9308  
3491       4.367389   6.076306   113.2536  
3491.5     4.131499   5.606087   116.804   
3492       3.944159   5.10196    116.6433  
3492.5     3.756819   4.442817   115.3255  
3493       3.639867   3.609761   117.7565  
3493.5     3.574588   3.006496   124.0343  
3494       3.509309   2.697504   128.9473  
3494.5     3.44403    2.524083   129.9504  
3495       3.430338   2.592022   130.0716  
3495.5     3.577208   2.827132   130.1688  
3496       3.724076   3.066501   129.8574  
3496.5     3.870945   3.305902   129.6489  
3497       4.017815   3.433375   129.8104  
3497.5     4.164683   3.494943   129.9719  
3498       4.146374   3.691464   130.1334  
3498.5     3.9379     3.923794   130.0226  
3499       3.729425   4.158903   129.7803  
3499.5     3.520951   4.115752   129.5336  
3500       3.296689   3.916834   129.2771  
3500.5     3.048148   3.467577   129.0533  
3501       2.799606   3.013624   129.1987  
3501.5     2.551065   2.58259    129.3932  
3502       2.609909   2.522774   129.9747  
3502.5     2.675187   2.497424   130.4721  
3503       2.740466   2.581407   130.4721  
3503.5     2.805745   2.716107   130.0377  
3504       2.875242   3.243359   129.0468  
3504.5     2.94705    5.320225   127.267   
3505       3.018859   6.657632   125.0932  
3505.5     3.090667   7.015558   123.5644  
3506       3.329163   7.015558   122.9572  
3506.5     3.63689    6.962799   122.7894  
3507       3.944618   6.900166   122.8242  
3507.5     4.605773   6.782611   122.928   
3508       5.286027   6.567448   123.0318  
3508.5     5.657708   6.280196   123.3648  
3509       5.657708   5.948688   123.7002  
3509.5     5.657708   5.622446   124.0357  
3510       5.452099   5.308967   124.6811  
3510.5     5.203522   4.895735   125.5531  
3511       4.954946   4.464778   126.1597  
3511.5     4.706384   4.206143   126.5958  
3512       4.457842   4.14187    126.6827  
3512.5     4.209301   4.298557   126.5737  
3513       3.96076    4.599098   126.4664  
3513.5     4.162058   4.85553    126.4664  
3514       4.364016   5.097652   126.4664  
3514.5     4.565973   5.362876   126.4094  
3515       4.767931   5.505493   126.3222  
3515.5     4.631574   5.538646   126.235   
3516       4.408718   5.353844   126.2172  
3516.5     4.185863   5.123687   126.3163  
3517       3.963007   4.908236   126.4154  
3517.5     3.835164   4.485229   126.6648  
3518       3.708447   4.055689   127.0736  
3518.5     3.58173    3.754445   127.2258  
3519       3.455013   3.63689    126.9693  
3519.5     3.488589   3.703694   126.6963  
3520       3.668102   4.007263   126.3329  
3520.5     3.847615   4.407451   125.9695  
3521       4.027129   4.609616   125.7021  
3521.5     4.206642   4.76949    125.4598  
3522       4.414727   4.892625   125.2045  
3522.5     4.630138   4.941807   124.9321  
3523       4.84555    4.737817   124.5437  
3523.5     5.060962   4.42176    123.9206  
3524       5.276373   4.194701   122.9327  
3524.5     5.655562   4.697231   120.724   
3525       6.172608   5.846517   117.3104  
3525.5     6.689653   6.924476   113.2578  
3526       7.223064   7.52774    112.6827  
3526.5     7.802994   7.830081   114.1361  
3527       8.382923   8.021265   115.0191  
3527.5     8.962852   8.138781   115.8798  
3528       9.60899    8.547646   115.8798  
3528.5     10.2672    8.978708   115.6669  
3529       10.92542   9.605669   114.4557  
3529.5     11.58364   10.2407    111.7989  
3530       12.27819   10.98148   109.2554  
3530.5     13.24389   11.84353   106.5708  
3531       14.2096    12.68874   102.4512  
3531.5     15.1753    13.47892   97.81717  
3532       16.27716   14.20984   93.17363  
3532.5     17.68198   15.09609   89.51576  
3533       19.08681   16.03819   86.82861  
3533.5     20.62546   16.98357   84.01883  
3534       22.49248   18.06076   85.65463  
3534.5     24.68079   19.23116   91.08386  
3535       27.51295   20.70547   99.22746  
3535.5     30.09805   23.04456   105.9238  
3536       32.52034   24.27156   108.2439  
3536.5     34.13612   24.27156   110.4062  
3537       35.00757   24.12262   112.5911  
3537.5     35.31842   24.25523   114.6037  
3538       32.77312   24.49445   115.6085  
3538.5     29.68114   24.59129   116.4672  
3539       27.14171   24.32207   116.6229  
3539.5     25.485     23.58012   116.4292  
3540       25.1768    22.65184   115.2398  
3540.5     25.1768    18.54781   115.689   
3541       25.30782   16.54166   117.2168  
3541.5     25.71812   15.94656   118.4658  
3542       26.12843   15.92401   118.6875  
3542.5     26.99953   16.71568   116.2886  
3543       28.23044   18.22408   113.4139  
3543.5     29.46135   19.54411   110.2212  
3544       33.32347   20.3933    107.2987  
3544.5     38.1873    21.13756   105.7098  
3545       43.26103   22.40053   104.7035  
3545.5     45.91481   23.92363   104.6379  
