~Version
 VERS              .         3.0                           : CWLS LOG ASCII STANDARD - VERSION 3.0
 WRAP              .         NO                            : ONE LINE PER DEPTH STEP
 DLM               .         SPACE                         : DELIMITING CHARACTER(SPACE TAB OR COMMA)
~Well Information
#_______________________________________________________________________________
#
#PARAMETER_NAME    .UNIT     VALUE                         : DESCRIPTION
#_______________________________________________________________________________
STRT               .ft       3000                          : First reference value
STOP               .ft       10476                         : Last reference value
STEP               .ft       0.5                           : Step increment
NULL               .         -9999                         : Missing value
COMP               .                                       : Company
WELL               .         EGBM-001                      : Well name
FLD                .         EGBEMA                        : Field
LOC                .                                       : Location
SRVC               .                                       : Service Company
CTRY               .                                       : Country
DATE               .         1960/10/25                    : Service Date
X                  .                                       : X or East-West coordinate
Y                  .                                       : Y or North South coordinate
GDAT               .                                       : Geodetic Datum
HZCS               .                                       : Horizontal Co-ordinate System
APIN               .         10801/01                      : 
BHT                .degC     -999.25                       : 
BLI                .ft       7010                          : 
BS                 .in       12.25                         : 
CREATION-TIME      .         2060/10/25 0_0                : 
DFD                .g/cm3    -999.25                       : 
DFT                .         CLAY BASE                     : 
DFV                .s        -999.25                       : 
ELZ                .         -999.25                       : 
FIELD-NAME         .         EGBEMA                        : 
FILE-ID            .         SOH20 .1                      : 
FILE-NUMBER        .         0                             : 
FILE-SET-NAME      .                                       : 
FILE-SET-NUMBER    .         0                             : 
FILE-TYPE          .         PTF                           : 
HIDE               .         Well/Hole_ EGBM-1  Service Name_ ES  Run Number_ 1: 
LCC                .         0                             : 
LMF                .         1                             : 
MST                .degC     -999.25                       : 
NAME-SPACE-NAME    .         LIS                           : 
NAME-SPACE-VERSION .         0                             : 
PRODUC             .         SHELL(PARASOL)                : 
PRODUCER-CODE      .         0                             : 
PRODUCER-NAME      .         Schlumberger                  : 
PRODUCT            .                                       : 
PROGRAMS           .         INC                           : 
R1                 .         LONG NORMAL GALVONOMETER 6 (1/10 BACK UP) NOT WORKING THEREFORE USED<_techsia_br_>: 
R2                 .         GALVONOMETER 5 (DOTTED) AS 1/10 BACK UP WITH GALVONOMETER 7 CONTINUOUS LINE<_techsia_br_>: 
R3                 .         AS USUAL GALVONOMETER<_techsia_br_>: 
R4                 .         <_techsia_br_>                : 
R5                 .         SHELL LAB MEASUREMENT<_techsia_br_>: 
R6                 .         <_techsia_br_>                : 
R7                 .         MUD      7.89 OHMS AT 75 DEG F<_techsia_br_>: 
R8                 .         FILTRATE 7.?8 OHMS AT 75 DEG F: 
RMCS               .ohm.m    -999.25                       : 
RMFS               .ohm.m    -999.25                       : 
RMS                .ohm.m    -999.25                       : 
TCS                .h        -999.25                       : 
TDD                .         -999.25                       : 
TDL                .         -999.25                       : 
TLI                .ft       1498                          : 
VERSION            .         2P01                          : 
WELL-ID            .         10801/01                      : 
WELL-NAME          .         EGBM-001                      : 
WN                 .         EGBM-001                      : 
~Parameter Information Block
#_______________________________________________________________________________
#
#PARAMETER_NAME    .UNIT     VALUE                         : DESCRIPTION
#_______________________________________________________________________________
SET                .         SOH11 _4_1                    : 
ACQUISITION-PRODUCT .         DLIS/U                        : 
CREATION-TIME      .         2026/5/13 8_57                : 
DLIS_FRAME_DIRECTION .         INCREASING                    : 
DLIS_FRAME_NAME    .         1                             : 
DLIS_FRAME_SPACING .ft       0.5                           : 
FIELD-NAME         .         EGBEMA                        : 
FILE-ID            .         SOH11 .4                      : 
FILE-NUMBER        .         4                             : 
FILE-SET-NAME      .         LIS-TO-DLIS-CONVERSION        : 
FILE-SET-NUMBER    .         14905                         : 
FILE-TYPE          .         PTF                           : 
INDEX-TYPE         .         BOREHOLE-DEPTH                : 
NAME-SPACE-NAME    .                                       : 
NAME-SPACE-VERSION .         0                             : 
OriginalDatasetName .         1                             : 
PRODUCER-CODE      .         440                           : 
PRODUCER-NAME      .         Schlumberger                  : 
PRODUCT            .         DLIS/U                        : 
PROGRAMS           .         LIS-TO-DLIS                   : 
TLFamily_DEPT      .         Measured Depth                : 
TLFamily_LN        .                                       : 
TLFamily_SN        .         Resistivity - Shallow         : 
TLFamily_SP        .         Spontaneous Potential         : 
VERSION            .         0.1                           : 
WELL-ID            .         10801/01                      : 
WELL-NAME          .         EGBM-001                      : 
~Curve Information
#_______________________________________________________________________________
#
#LOGNAME           .UNIT     LOG_ID                        : DESCRIPTION
#_______________________________________________________________________________
DEPT               .ft                                     :  {F}
LN                 .ohm.m                                  :  {F}
SN                 .ohm.m                                  :  {F}
SP                 .mV                                     :  {F}
~Ascii
# ...
10371      1.046676   1.592939   55.03546  
10371.5    1.065076   1.58504    55.26147  
10372      1.100898   1.571426   55.77046  
10372.5    1.135195   1.568349   56.43053  
10373      1.160472   1.570219   56.75056  
10373.5    1.185749   1.590652   56.84045  
10374      1.211006   1.644547   56.87943  
10374.5    1.23626    1.636382   56.87943  
10375      1.244696   1.619143   56.87943  
10375.5    1.244696   1.586783   56.60863  
10376      1.244696   1.530231   56.3709   
10376.5    1.244696   1.466897   56.37946  
10377      1.244696   1.46859    56.32825  
10377.5    1.21757    1.532188   55.99663  
10378      1.188271   1.602252   55.77589  
10378.5    1.158687   1.632571   55.61028  
10379      1.119646   1.578361   55.37392  
10379.5    1.076552   1.508726   55.11125  
10380      1.030523   1.395011   55.26779  
10380.5    1.006213   1.308461   55.46098  
10381      0.9900991  1.266902   55.44417  
10381.5    0.9900991  1.261595   55.24841  
10382      0.9847862  1.270214   55.56917  
10382.5    0.9728556  1.253972   55.9373   
10383      0.9626497  1.171294   55.95702  
10383.5    0.9739562  1.074236   55.97974  
10384      0.9852629  1.012773   56.24937  
10384.5    0.9832716  1.013581   56.54826  
10385      0.971341   1.026846   56.85599  
10385.5    0.9576951  1.056885   57.21115  
10386      0.9372379  1.09575    57.5038   
10386.5    0.9167806  1.17458    57.6696   
10387      0.913741   1.313129   57.8062   
10387.5    0.933274   1.436107   57.83525  
10388      0.9528069  1.512861   57.75235  
10388.5    0.9618105  1.516524   57.53218  
10389      0.9618105  1.481241   57.24878  
10389.5    0.9618105  1.412807   56.88925  
10390      0.9680821  1.317884   57.35542  
10390.5    0.977842   1.226288   57.72971  
10391      0.9876019  1.124657   57.77089  
10391.5    0.9816854  1.014188   57.57825  
10392      0.9703788  0.9631521  57.51088  
10392.5    0.9563339  0.9459327  57.44403  
10393      0.9337207  0.9361702  57.38734  
10393.5    0.9111075  0.9361702  57.33064  
10394      0.8980039  0.9386529  57.26567  
10394.5    0.8882374  0.9458345  57.19383  
10395      0.8784709  0.9505152  57.0309   
10395.5    0.8769449  0.9668338  56.79985  
10396      0.8769449  1.029414   56.79005  
10396.5    0.8769449  1.171202   56.86189  
10397      0.8769449  1.31456    56.99573  
10397.5    0.8769449  1.460056   57.1496   
10398      0.8776009  1.484756   57.23335  
10398.5    0.8910366  1.466961   57.30969  
10399      0.9044724  1.383336   57.377    
10399.5    0.9178964  1.280574   57.44431  
10400      0.9313197  1.214514   57.51598  
10400.5    0.9223009  1.191327   57.5878   
10401      0.9088776  1.173167   57.6855   
10401.5    0.8984303  1.159694   57.76935  
10402      0.889092   1.142904   57.84119  
10402.5    0.8797537  1.119359   57.56718  
10403      0.8669277  1.079509   57.11823  
10403.5    0.8526016  1.055319   56.93869  
10404      0.8486563  1.058753   56.9697   
10404.5    0.8486563  1.114485   56.45149  
10405      0.8597891  1.188003   55.94545  
10405.5    0.8724276  1.241726   55.71326  
10406      0.8868039  1.266734   55.63036  
10406.5    0.9021468  1.273427   55.60283  
10407      0.9481382  1.2565     55.71429  
10407.5    0.9973243  1.242553   55.94533  
10408      1.030354   1.273602   56.33495  
10408.5    1.06996    1.344716   56.59573  
10409      1.115989   1.403365   56.6835   
10409.5    1.131541   1.407036   57.00674  
10410      1.131541   1.392678   57.47835  
10410.5    1.12527    1.408769   58.18066  
10411      1.113963   1.492743   58.88818  
10411.5    1.102714   1.592227   59.27969  
10412      1.092484   1.628368   59.51472  
10412.5    1.082256   1.612708   59.53159  
10413      1.071536   1.570052   59.45457  
10413.5    1.059596   1.494684   59.15276  
10414      1.047655   1.392767   58.75392  
10414.5    1.036819   1.276114   58.33482  
10415      1.026083   1.181865   57.91573  
10415.5    1.018387   1.106401   57.87233  
10416      1.018387   1.053323   57.93231  
10416.5    1.018387   1.018413   58.25557  
10417      1.018387   0.997193   58.64919  
10417.5    1.018387   0.9936022  58.56358  
10418      1.010889   0.9929078  58.5811   
10418.5    0.9840429  0.9975293  58.96617  
10419      0.9597583  1.010939   59.33751  
10419.5    0.9478178  1.033907   59.51811  
10420      0.9358774  1.04468    59.35231  
10420.5    0.933522   1.062916   59.14029  
10421      0.933522   1.117923   59.18629  
10421.5    0.9507565  1.239304   59.50284  
10422      0.9755433  1.303954   59.46646  
10422.5    1.00033    1.377035   59.28899  
10423      1.025249   1.394482   59.20609  
10423.5    1.050527   1.377666   59.14893  
10424      1.075384   1.375227   59.14893  
10424.5    1.088022   1.423085   59.41122  
10425      1.100661   1.543768   59.75685  
10425.5    1.094265   1.62862    60.0265   
10426      1.082958   1.637416   60.42189  
10426.5    1.077824   1.619497   60.89529  
10427      1.087584   1.56061    61.25482  
10427.5    1.097343   1.4887     60.97292  
10428      1.103252   1.411347   60.85106  
10428.5    1.103252   1.345891   60.9411   
10429      1.103252   1.297486   61.23473  
10429.5    1.097623   1.249629   61.07108  
10430      1.088672   1.159609   60.81143  
10430.5    1.07972    1.08775    60.53629  
10431      1.074965   1.037013   60.20467  
10431.5    1.074965   1.027249   59.8625   
10432      1.074965   1.042271   59.50333  
10432.5    1.074965   1.059511   59.2028   
10433      1.074965   1.068871   58.99187  
10433.5    1.072447   1.07234    58.82605  
10434      1.03664    1.084373   58.68921  
10434.5    1.005226   1.138453   58.59944  
10435      0.9783798  1.269508   59.25221  
10435.5    0.9618105  1.404736   59.87595  
10436      0.9618105  1.533333   60.33537  
10436.5    0.9650788  1.684181   60.6431   
10437      0.987692   1.812101   60.85106  
10437.5    1.010304   1.786152   60.85316  
10438      1.03678    1.64337    61.12263  
10438.5    1.065404   1.501896   61.39212  
10439      1.085976   1.414405   61.33011  
10439.5    1.10251    1.4058     60.92725  
10440      1.083714   1.48277    60.13712  
10440.5    1.063257   1.65888    59.71631  
10441      1.044281   1.814641   59.71631  
10441.5    1.031643   1.879961   59.71631  
10442      1.019004   1.801682   59.71631  
10442.5    1.031155   1.652955   59.71631  
10443      1.044579   1.556795   59.71631  
10443.5    1.070851   1.414026   59.79628  
10444      1.099504   1.304997   59.93994  
10444.5    1.131541   1.275221   60.41782  
10445      1.131541   1.262016   60.85106  
10445.5    1.131541   1.243167   60.85106  
10446      1.107005   1.214353   60.87718  
10446.5    1.081728   1.157605   60.96695  
10447      1.051355   1.116664   60.91629  
10447.5    1.019121   1.102301   60.70935  
10448      0.9880613  1.067664   60.35019  
10448.5    0.967604   0.9903237  59.99104  
10449      0.9471468  0.9420121  59.63197  
10449.5    0.9224904  0.9257855  59.30298  
10450      0.8894602  0.9306803  59.14893  
10450.5    0.8483566  0.9424412  59.23999  
10451      0.8023279  0.9393643  59.46057  
10451.5    0.7841281  0.9074649  59.55858  
10452      0.7738994  0.8698535  59.34866  
10452.5    0.7638839  0.8624114  59.40358  
10453      0.771842   0.8730518  59.54724  
10453.5    0.7798002  0.8902919  59.57446  
10454      0.7877582  0.9075321  59.55673  
10454.5    0.7958554  0.9502004  59.4798   
10455      0.8041176  1.004928   59.40056  
10455.5    0.8123798  1.095324   59.31766  
10456      0.8200705  1.230724   59.53374  
10456.5    0.811119   1.369948   59.89297  
10457      0.8021673  1.530249   60.14183  
10457.5    0.7932156  1.58882    60.0766   
10458      0.8037984  1.615968   59.53784  
10458.5    0.8172216  1.559711   58.99893  
10459      0.8438617  1.423132   59.04547  
10459.5    0.8745475  1.322512   59.25098  
10460      0.8665216  1.244957   59.43051  
10460.5    0.8552151  1.148587   59.49525  
10461      0.8486563  1.051598   59.55862  
10461.5    0.8486563  0.9832413  59.77644  
