~Version
 VERS              .         3.0                           : CWLS LOG ASCII STANDARD - VERSION 3.0
 WRAP              .         NO                            : ONE LINE PER DEPTH STEP
 DLM               .         SPACE                         : DELIMITING CHARACTER(SPACE TAB OR COMMA)
~Well Information
#_______________________________________________________________________________
#
#PARAMETER_NAME    .UNIT     VALUE                         : DESCRIPTION
#_______________________________________________________________________________
STRT               .ft       3000                          : First reference value
STOP               .ft       10476                         : Last reference value
STEP               .ft       0.5                           : Step increment
NULL               .         -9999                         : Missing value
COMP               .                                       : Company
WELL               .         EGBM-001                      : Well name
FLD                .         EGBEMA                        : Field
LOC                .                                       : Location
SRVC               .                                       : Service Company
CTRY               .                                       : Country
DATE               .         1960/10/25                    : Service Date
X                  .                                       : X or East-West coordinate
Y                  .                                       : Y or North South coordinate
GDAT               .                                       : Geodetic Datum
HZCS               .                                       : Horizontal Co-ordinate System
APIN               .         10801/01                      : 
BHT                .degC     -999.25                       : 
BLI                .ft       7010                          : 
BS                 .in       12.25                         : 
CREATION-TIME      .         2060/10/25 0_0                : 
DFD                .g/cm3    -999.25                       : 
DFT                .         CLAY BASE                     : 
DFV                .s        -999.25                       : 
ELZ                .         -999.25                       : 
FIELD-NAME         .         EGBEMA                        : 
FILE-ID            .         SOH20 .1                      : 
FILE-NUMBER        .         0                             : 
FILE-SET-NAME      .                                       : 
FILE-SET-NUMBER    .         0                             : 
FILE-TYPE          .         PTF                           : 
HIDE               .         Well/Hole_ EGBM-1  Service Name_ ES  Run Number_ 1: 
LCC                .         0                             : 
LMF                .         1                             : 
MST                .degC     -999.25                       : 
NAME-SPACE-NAME    .         LIS                           : 
NAME-SPACE-VERSION .         0                             : 
PRODUC             .         SHELL(PARASOL)                : 
PRODUCER-CODE      .         0                             : 
PRODUCER-NAME      .         Schlumberger                  : 
PRODUCT            .                                       : 
PROGRAMS           .         INC                           : 
R1                 .         LONG NORMAL GALVONOMETER 6 (1/10 BACK UP) NOT WORKING THEREFORE USED<_techsia_br_>: 
R2                 .         GALVONOMETER 5 (DOTTED) AS 1/10 BACK UP WITH GALVONOMETER 7 CONTINUOUS LINE<_techsia_br_>: 
R3                 .         AS USUAL GALVONOMETER<_techsia_br_>: 
R4                 .         <_techsia_br_>                : 
R5                 .         SHELL LAB MEASUREMENT<_techsia_br_>: 
R6                 .         <_techsia_br_>                : 
R7                 .         MUD      7.89 OHMS AT 75 DEG F<_techsia_br_>: 
R8                 .         FILTRATE 7.?8 OHMS AT 75 DEG F: 
RMCS               .ohm.m    -999.25                       : 
RMFS               .ohm.m    -999.25                       : 
RMS                .ohm.m    -999.25                       : 
TCS                .h        -999.25                       : 
TDD                .         -999.25                       : 
TDL                .         -999.25                       : 
TLI                .ft       1498                          : 
VERSION            .         2P01                          : 
WELL-ID            .         10801/01                      : 
WELL-NAME          .         EGBM-001                      : 
WN                 .         EGBM-001                      : 
~Parameter Information Block
#_______________________________________________________________________________
#
#PARAMETER_NAME    .UNIT     VALUE                         : DESCRIPTION
#_______________________________________________________________________________
SET                .         SOH11 _4_1                    : 
ACQUISITION-PRODUCT .         DLIS/U                        : 
CREATION-TIME      .         2026/5/13 8_57                : 
DLIS_FRAME_DIRECTION .         INCREASING                    : 
DLIS_FRAME_NAME    .         1                             : 
DLIS_FRAME_SPACING .ft       0.5                           : 
FIELD-NAME         .         EGBEMA                        : 
FILE-ID            .         SOH11 .4                      : 
FILE-NUMBER        .         4                             : 
FILE-SET-NAME      .         LIS-TO-DLIS-CONVERSION        : 
FILE-SET-NUMBER    .         14905                         : 
FILE-TYPE          .         PTF                           : 
INDEX-TYPE         .         BOREHOLE-DEPTH                : 
NAME-SPACE-NAME    .                                       : 
NAME-SPACE-VERSION .         0                             : 
OriginalDatasetName .         1                             : 
PRODUCER-CODE      .         440                           : 
PRODUCER-NAME      .         Schlumberger                  : 
PRODUCT            .         DLIS/U                        : 
PROGRAMS           .         LIS-TO-DLIS                   : 
TLFamily_DEPT      .         Measured Depth                : 
TLFamily_LN        .                                       : 
TLFamily_SN        .         Resistivity - Shallow         : 
TLFamily_SP        .         Spontaneous Potential         : 
VERSION            .         0.1                           : 
WELL-ID            .         10801/01                      : 
WELL-NAME          .         EGBM-001                      : 
~Curve Information
#_______________________________________________________________________________
#
#LOGNAME           .UNIT     LOG_ID                        : DESCRIPTION
#_______________________________________________________________________________
DEPT               .ft                                     :  {F}
LN                 .ohm.m                                  :  {F}
SN                 .ohm.m                                  :  {F}
SP                 .mV                                     :  {F}
~Ascii
# ...
9370       1.216407   1.567096   33.9427   
9370.5     1.219369   1.563785   33.75096  
9371       1.244646   1.551003   33.47066  
9371.5     1.269923   1.533647   33.39914  
9372       1.285576   1.519278   33.34505  
9372.5     1.299902   1.523192   33.49133  
9373       1.288318   1.537395   33.63762  
9373.5     1.273992   1.555478   33.80629  
9374       1.261234   1.581072   34.07446  
9374.5     1.248595   1.62201    34.34283  
9375       1.235415   1.660039   34.60905  
9375.5     1.221992   1.677053   34.78784  
9376       1.195497   1.664071   34.78467  
9376.5     1.15969    1.597349   34.55484  
9377       1.123883   1.495301   34.36395  
9377.5     1.088077   1.368587   34.19885  
9378       1.052271   1.286892   33.83965  
9378.5     1.018775   1.240793   33.46199  
9379       0.9835113  1.242697   33.19348  
9379.5     0.9339094  1.257034   32.97354  
9380       0.9004635  1.25779    32.80862  
9380.5     0.8891568  1.25779    32.68726  
9381       0.8778503  1.256949   32.65332  
9381.5     0.8885713  1.240392   32.71294  
9382       0.9012098  1.226721   32.77374  
9382.5     0.9052334  1.218655   32.85036  
9383       0.9052334  1.211287   32.94435  
9383.5     0.9052334  1.206225   33.09773  
9384       0.8948764  1.201162   33.12856  
9384.5     0.8835698  1.192575   32.96346  
9385       0.8750519  1.184188   32.95212  
9385.5     0.8704799  1.186876   33.01523  
9386       0.865908   1.189565   33.12276  
9386.5     0.8613361  1.192607   33.28786  
9387       0.8567643  1.195234   33.21384  
9387.5     0.8521924  1.191927   33.04666  
9388       0.8509737  1.185956   32.6891   
9388.5     0.8612024  1.1752     32.40862  
9389       0.871431   1.170573   32.22961  
9389.5     0.8722268  1.167705   32.08128  
9390       0.8619909  1.167138   31.93822  
9390.5     0.851755   1.176435   31.9209   
9391       0.8486563  1.197895   31.92719  
9391.5     0.8486563  1.219197   32.10597  
9392       0.8486563  1.223501   32.27318  
9392.5     0.8486563  1.20098    32.42656  
9393       0.8486563  1.185342   32.61748  
9393.5     0.8388149  1.17847    32.83206  
9394       0.8268744  1.19303    32.96669  
9394.5     0.8203678  1.220404   33.06227  
9395       0.8203678  1.226481   33.25719  
9395.5     0.8203678  1.199151   33.47878  
9396       0.8203678  1.160088   33.61581  
9396.5     0.8203678  1.128822   33.48689  
9397       0.8203678  1.117966   32.98389  
9397.5     0.8204278  1.122476   32.74472  
9398       0.8357706  1.137733   32.6851   
9398.5     0.8535708  1.160117   32.62035  
9399       0.8842567  1.190078   32.37268  
9399.5     0.9104649  1.251075   32.20338  
9400       0.9269989  1.328643   32.20338  
9400.5     0.9361702  1.336991   31.82959  
9401       0.9361702  1.379733   32.00999  
9401.5     0.9521759  1.417189   32.34123  
9402       0.9701146  1.397633   32.48227  
9402.5     0.9880686  1.344989   32.45236  
9403       0.9929078  1.328903   32.37543  
9403.5     0.9802259  1.346118   32.38554  
9404       0.949453   1.346291   32.46835  
9404.5     0.944906   1.331258   32.61028  
9405       0.9602762  1.288699   32.76414  
9405.5     0.9775137  1.209184   32.64771  
9406       0.9929078  1.121029   32.23126  
9406.5     0.9929078  1.110253   31.80061  
9407       0.9843775  1.172161   31.50266  
9407.5     0.9556439  1.310386   31.8613   
9408       0.9477278  1.450712   32.22008  
9408.5     0.9835917  1.526282   32.41777  
9409       1.017426   1.527911   32.22324  
9409.5     1.050715   1.502201   32.51686  
9410       1.089866   1.459165   32.776    
9410.5     1.127142   1.398392   32.96832  
9411       1.16305    1.387255   33.12724  
9411.5     1.189965   1.420351   33.323    
9412       1.216864   1.463341   33.59972  
9412.5     1.219858   1.465405   33.5399   
9413       1.219858   1.443527   33.48007  
9413.5     1.219858   1.422297   33.6727   
9414       1.219858   1.407933   33.69424  
9414.5     1.225052   1.394919   33.46466  
9415       1.237715   1.384089   33.0118   
9415.5     1.250666   1.380614   32.84618  
9416       1.265018   1.383818   32.76595  
9416.5     1.281492   1.379031   32.76595  
9417       1.306819   1.378723   32.88658  
9417.5     1.332146   1.387229   33.08005  
9418       1.347998   1.414412   33.41129  
9418.5     1.361702   1.460775   33.69867  
9419       1.361702   1.517086   33.91751  
9419.5     1.367396   1.566293   34.18755  
9420       1.378156   1.609344   34.591    
9420.5     1.388915   1.628368   34.68893  
9421       1.390071   1.628368   34.75177  
9421.5     1.383341   1.62275    34.75177  
9422       1.361807   1.617021   34.68063  
9422.5     1.340273   1.617021   34.48654  
9423       1.315104   1.629475   34.12779  
9423.5     1.280572   1.672569   33.49551  
9424       1.241421   1.694019   32.87521  
9424.5     1.202271   1.628649   32.65125  
9425       1.152508   1.502637   32.35762  
9425.5     1.101466   1.421969   32.08688  
9426       1.05178    1.306085   31.88896  
9426.5     1.001126   1.19088    31.8172   
9427       0.9504288  1.084423   31.77304  
9427.5     0.8975046  1.088731   31.77304  
9428       0.843709   1.114048   32.27737  
9428.5     0.7913806  1.12123    32.92758  
9429       0.7554725  1.134657   33.14308  
9429.5     0.7375886  1.173659   33.34383  
9430       0.7375886  1.185815   33.43349  
9430.5     0.7375886  1.181563   33.43085  
9431       0.7416795  1.165903   33.34804  
9431.5     0.7612548  1.156033   33.19699  
9432       0.7557395  1.157222   33.01695  
9432.5     0.7422905  1.167994   32.72333  
9433       0.7282538  1.168794   32.55287  
9433.5     0.7139013  1.156051   32.50871  
9434       0.7092198  1.146099   32.58565  
9434.5     0.7092198  1.146099   32.54718  
9435       0.6998161  1.145916   32.39331  
9435.5     0.6863673  1.142325   32.4581   
9436       0.670261   1.137723   32.62982  
9436.5     0.6524823  1.131982   32.70674  
9437       0.6524823  1.129078   32.77901  
9437.5     0.6524823  1.118511   32.83571  
9438       0.6524823  1.092463   32.8924   
9438.5     0.6524823  1.064166   32.94907  
9439       0.6524823  1.039548   33.00571  
9439.5     0.6524823  1.023127   33.03621  
9440       0.6710634  1.015434   32.97638  
9440.5     0.697413   1.011124   32.91655  
9441       0.7305369  1.018416   33.06097  
9441.5     0.7375886  1.035776   33.24043  
9442       0.7385868  1.064133   33.28134  
9442.5     0.7520357  1.077584   33.17361  
9443       0.7654847  1.064654   33.06593  
9443.5     0.7659575  1.056244   32.95827  
9444       0.762922   1.049561   32.95979  
9444.5     0.7509675  1.02801    33.03983  
9445       0.739013   1.01705    32.92018  
9445.5     0.7494463  1.010901   33.10071  
9446       0.7629076  1.007137   33.32982  
9446.5     0.7567037  1.004688   33.52802  
9447       0.7447393  1.008      33.66263  
9447.5     0.7375886  1.011428   33.77805  
9448       0.7375886  1.015014   33.84537  
9448.5     0.7375886  1.010058   33.88943  
9449       0.7375886  1.00291    33.82607  
9449.5     0.7375886  0.9921513  33.7627   
9450       0.7375886  0.9890325  33.67462  
9450.5     0.7251761  0.992345   33.48868  
9451       0.7046753  0.9994161  33.12959  
9451.5     0.6841744  1.001653   32.87022  
9452       0.6808511  0.9948552  32.63943  
9452.5     0.6808511  0.9880573  32.565    
9453       0.6808511  0.9788215  32.50168  
9453.5     0.6808511  0.9740199  32.37558  
9454       0.6793801  0.9713275  32.22171  
9454.5     0.6640099  0.9660048  32.56421  
9455       0.6524823  0.9588059  33.02019  
9455.5     0.6524823  0.9486753  33.48233  
9456       0.6524823  0.9385445  33.90334  
9456.5     0.6524823  0.9317747  33.99298  
9457       0.6524823  0.9260337  34.04254  
9457.5     0.6524823  0.9248227  34.04254  
9458       0.6524823  0.9248227  34.40147  
9458.5     0.6524823  0.9249289  34.13947  
9459       0.6524823  0.9294609  33.72797  
9459.5     0.6524823  0.9339927  33.32071  
9460       0.6524823  0.9371879  33.05147  
9460.5     0.6524823  0.9391468  32.78224  
