~Version
 VERS              .         3.0                           : CWLS LOG ASCII STANDARD - VERSION 3.0
 WRAP              .         NO                            : ONE LINE PER DEPTH STEP
 DLM               .         SPACE                         : DELIMITING CHARACTER(SPACE TAB OR COMMA)
~Well Information
#_______________________________________________________________________________
#
#PARAMETER_NAME    .UNIT     VALUE                         : DESCRIPTION
#_______________________________________________________________________________
STRT               .ft       3000                          : First reference value
STOP               .ft       10476                         : Last reference value
STEP               .ft       0.5                           : Step increment
NULL               .         -9999                         : Missing value
COMP               .                                       : Company
WELL               .         EGBM-001                      : Well name
FLD                .         EGBEMA                        : Field
LOC                .                                       : Location
SRVC               .                                       : Service Company
CTRY               .                                       : Country
DATE               .         1960/10/25                    : Service Date
X                  .                                       : X or East-West coordinate
Y                  .                                       : Y or North South coordinate
GDAT               .                                       : Geodetic Datum
HZCS               .                                       : Horizontal Co-ordinate System
APIN               .         10801/01                      : 
BHT                .degC     -999.25                       : 
BLI                .ft       7010                          : 
BS                 .in       12.25                         : 
CREATION-TIME      .         2060/10/25 0_0                : 
DFD                .g/cm3    -999.25                       : 
DFT                .         CLAY BASE                     : 
DFV                .s        -999.25                       : 
ELZ                .         -999.25                       : 
FIELD-NAME         .         EGBEMA                        : 
FILE-ID            .         SOH20 .1                      : 
FILE-NUMBER        .         0                             : 
FILE-SET-NAME      .                                       : 
FILE-SET-NUMBER    .         0                             : 
FILE-TYPE          .         PTF                           : 
HIDE               .         Well/Hole_ EGBM-1  Service Name_ ES  Run Number_ 1: 
LCC                .         0                             : 
LMF                .         1                             : 
MST                .degC     -999.25                       : 
NAME-SPACE-NAME    .         LIS                           : 
NAME-SPACE-VERSION .         0                             : 
PRODUC             .         SHELL(PARASOL)                : 
PRODUCER-CODE      .         0                             : 
PRODUCER-NAME      .         Schlumberger                  : 
PRODUCT            .                                       : 
PROGRAMS           .         INC                           : 
R1                 .         LONG NORMAL GALVONOMETER 6 (1/10 BACK UP) NOT WORKING THEREFORE USED<_techsia_br_>: 
R2                 .         GALVONOMETER 5 (DOTTED) AS 1/10 BACK UP WITH GALVONOMETER 7 CONTINUOUS LINE<_techsia_br_>: 
R3                 .         AS USUAL GALVONOMETER<_techsia_br_>: 
R4                 .         <_techsia_br_>                : 
R5                 .         SHELL LAB MEASUREMENT<_techsia_br_>: 
R6                 .         <_techsia_br_>                : 
R7                 .         MUD      7.89 OHMS AT 75 DEG F<_techsia_br_>: 
R8                 .         FILTRATE 7.?8 OHMS AT 75 DEG F: 
RMCS               .ohm.m    -999.25                       : 
RMFS               .ohm.m    -999.25                       : 
RMS                .ohm.m    -999.25                       : 
TCS                .h        -999.25                       : 
TDD                .         -999.25                       : 
TDL                .         -999.25                       : 
TLI                .ft       1498                          : 
VERSION            .         2P01                          : 
WELL-ID            .         10801/01                      : 
WELL-NAME          .         EGBM-001                      : 
WN                 .         EGBM-001                      : 
~Parameter Information Block
#_______________________________________________________________________________
#
#PARAMETER_NAME    .UNIT     VALUE                         : DESCRIPTION
#_______________________________________________________________________________
SET                .         SOH11 _4_1                    : 
ACQUISITION-PRODUCT .         DLIS/U                        : 
CREATION-TIME      .         2026/5/13 8_57                : 
DLIS_FRAME_DIRECTION .         INCREASING                    : 
DLIS_FRAME_NAME    .         1                             : 
DLIS_FRAME_SPACING .ft       0.5                           : 
FIELD-NAME         .         EGBEMA                        : 
FILE-ID            .         SOH11 .4                      : 
FILE-NUMBER        .         4                             : 
FILE-SET-NAME      .         LIS-TO-DLIS-CONVERSION        : 
FILE-SET-NUMBER    .         14905                         : 
FILE-TYPE          .         PTF                           : 
INDEX-TYPE         .         BOREHOLE-DEPTH                : 
NAME-SPACE-NAME    .                                       : 
NAME-SPACE-VERSION .         0                             : 
OriginalDatasetName .         1                             : 
PRODUCER-CODE      .         440                           : 
PRODUCER-NAME      .         Schlumberger                  : 
PRODUCT            .         DLIS/U                        : 
PROGRAMS           .         LIS-TO-DLIS                   : 
TLFamily_DEPT      .         Measured Depth                : 
TLFamily_LN        .                                       : 
TLFamily_SN        .         Resistivity - Shallow         : 
TLFamily_SP        .         Spontaneous Potential         : 
VERSION            .         0.1                           : 
WELL-ID            .         10801/01                      : 
WELL-NAME          .         EGBM-001                      : 
~Curve Information
#_______________________________________________________________________________
#
#LOGNAME           .UNIT     LOG_ID                        : DESCRIPTION
#_______________________________________________________________________________
DEPT               .ft                                     :  {F}
LN                 .ohm.m                                  :  {F}
SN                 .ohm.m                                  :  {F}
SP                 .mV                                     :  {F}
~Ascii
# ...
9916       0.9014727  1.172112   42.45842  
9916.5     0.9159669  1.162187   42.81699  
9917       0.9272966  1.152968   43.02086  
9917.5     0.9471612  1.155562   43.16418  
9918       0.9978586  1.16803    43.20113  
9918.5     1.048555   1.190616   43.20113  
9919       1.049644   1.194913   43.20113  
9919.5     1.011695   1.206697   43.14444  
9920       0.9102055  1.236243   42.98131  
9920.5     0.8071332  1.290896   42.38394  
9921       0.7532977  1.339251   42.28773  
9921.5     0.6994622  1.368801   42.22052  
9922       0.6707944  1.302906   42.2547   
9922.5     0.6554242  1.158535   42.3085   
9923       0.6524823  1.048359   42.32533  
9923.5     0.6524823  1.084607   42.19888  
9924       0.6602057  1.188668   42.07243  
9924.5     0.6855545  1.175381   42.12563  
9925       0.7117426  1.119592   42.18535  
9925.5     0.7497326  1.068365   42.31602  
9926       0.7877226  1.042493   42.49524  
9926.5     0.7943263  1.042493   42.64952  
9927       0.7943263  1.039247   42.71674  
9927.5     0.7943263  1.032084   42.78505  
9928       0.7943263  1.014509   42.86188  
9928.5     0.7943263  1.015863   42.89131  
9929       0.794613   1.028328   42.79356  
9929.5     0.8044007  1.055695   42.58669  
9930       0.8141882  1.093274   42.35622  
9930.5     0.822695   1.125965   42.35127  
9931       0.822695   1.147518   42.35127  
9931.5     0.822695   1.151439   42.35127  
9932       0.8183447  1.130836   42.33818  
9932.5     0.7996271  1.077116   42.25549  
9933       0.7809095  1.039324   42.30545  
9933.5     0.7678413  1.041288   42.51024  
9934       0.7772062  1.062585   42.64467  
9934.5     0.786571   1.08572    42.7762   
9935       0.7958683  1.093484   42.7762   
9935.5     0.8048397  1.088169   42.75728  
9936       0.8138112  1.076497   42.64969  
9936.5     0.8228568  1.079026   42.51392  
9937       0.8394188  1.081554   42.81915  
9937.5     0.8559806  1.084888   43.11237  
9938       0.8725426  1.086353   43.1261   
9938.5     0.8844607  1.078288   42.90201  
9939       0.8930705  1.070821   42.48856  
9939.5     0.9016804  1.070821   42.37604  
9940       0.909948   1.072881   42.41312  
9940.5     0.9173737  1.0944     42.45018  
9941       0.9247994  1.110304   42.48726  
9941.5     0.9322252  1.105959   42.4929   
9942       0.9361702  1.091331   42.4929   
9942.5     0.9361702  1.083511   42.65221  
9943       0.9361702  1.096947   42.8674   
9943.5     0.946128   1.115727   42.95526  
9944       0.9687877  1.137215   43.00412  
9944.5     0.9914473  1.155874   43.05299  
9945       0.9929078  1.176689   43.17606  
9945.5     0.9929078  1.204316   43.31047  
9946       0.9442756  1.244989   43.15428  
9946.5     0.8874179  1.299666   42.90344  
9947       0.8336223  1.352541   42.59615  
9947.5     0.8083879  1.383801   42.33672  
9948       0.7943263  1.394402   42.26505  
9948.5     0.7943263  1.36095    42.19528  
9949       0.7973684  1.242757   42.132    
9949.5     0.8100318  1.126987   42.06873  
9950       0.822695   1.188159   42.20084  
9950.5     0.8534679  1.340258   42.33525  
9951       0.8928815  1.435973   42.54054  
9951.5     0.9789546  1.402981   42.90944  
9952       1.091319   1.349256   43.36494  
9952.5     1.179847   1.331348   43.56068  
9953       1.218814   1.36679    43.67378  
9953.5     1.203962   1.422974   43.74544  
9954       1.189111   1.480433   43.81711  
9954.5     1.174259   1.543172   43.88876  
9955       1.152355   1.610242   43.80707  
9955.5     1.109298   1.643849   43.6636   
9956       1.074089   1.645517   43.43933  
9956.5     1.059736   1.62988    43.18643  
9957       1.040509   1.557426   42.99644  
9957.5     1.009736   1.435143   42.86989  
9958       0.9799007  1.307053   42.7762   
9958.5     0.9511956  1.216454   42.7762   
9959       0.9469689  1.207113   42.81473  
9959.5     0.9696286  1.233973   43.06763  
9960       0.9922882  1.282614   43.32054  
9960.5     1.004544   1.340353   43.56071  
9961       1.016509   1.368979   43.69119  
9961.5     1.033051   1.366122   43.7677   
9962       1.052628   1.336281   43.7677   
9962.5     1.072203   1.320418   43.7677   
9963       1.091778   1.316792   43.7677   
9963.5     1.111353   1.326715   43.76289  
9964       1.130928   1.334908   43.68607  
9964.5     1.141684   1.341522   43.56725  
9965       1.150299   1.337414   43.2984   
9965.5     1.158914   1.331767   43.04752  
9966       1.168365   1.335075   42.94008  
9966.5     1.178616   1.338383   42.96274  
9967       1.188867   1.34169    43.01935  
9967.5     1.181472   1.348548   43.07904  
9968       1.168011   1.357139   43.14626  
9968.5     1.146995   1.359773   43.21347  
9969       1.121668   1.349769   43.28067  
9969.5     1.086683   1.334664   43.36322  
9970       1.036997   1.321753   43.63182  
9970.5     0.9873117  1.320113   43.81606  
9971       0.9376259  1.319427   43.90935  
9971.5     0.8804418  1.294358   43.90935  
9972       0.8230314  1.266082   43.86917  
9972.5     0.822695   1.23381    43.80196  
9973       0.822695   1.167438   43.52812  
9973.5     0.8123761  1.121107   43.04478  
9974       0.7958143  1.093174   42.68648  
9974.5     0.7803222  1.076635   42.33528  
9975       0.7650644  1.068034   42.0872   
9975.5     0.7516154  1.072248   41.88852  
9976       0.7381666  1.093556   41.79729  
9976.5     0.7572224  1.099697   42.15559  
9977       0.7777377  1.105839   42.49864  
9977.5     0.8011965  1.106443   42.59645  
9978       0.8370898  1.089905   42.69424  
9978.5     0.8729831  1.075623   42.7762   
9979       0.8794327  1.063331   42.7762   
9979.5     0.8794327  1.050626   42.87277  
9980       0.8794327  1.040906   43.08775  
9980.5     0.8794327  1.0371     43.2793   
9981       0.8711058  1.042472   43.44469  
9981.5     0.8597671  1.02641    43.44139  
9982       0.8460588  0.9849877  43.38478  
9982.5     0.8245246  0.9745042  43.30811  
9983       0.8029904  0.9785511  43.17369  
9983.5     0.7807837  0.9877603  43.03638  
9984       0.758124   0.9915015  42.88274  
9984.5     0.736467   0.9899226  42.75084  
9985       0.7245026  0.9841897  42.66815  
9985.5     0.7125381  0.98017    42.67711  
9986       0.693658   0.98017    42.74876  
9986.5     0.6721238  0.9723471  42.95741  
9987       0.653342   0.9561504  43.2272   
9987.5     0.663123   0.9462273  43.38069  
9988       0.672904   0.9417248  43.53093  
9988.5     0.6808511  0.9445913  43.67439  
9989       0.6808511  0.9449743  43.7677   
9989.5     0.6808511  0.9422884  43.7677   
9990       0.6760713  0.9372804  43.65895  
9990.5     0.6647415  0.9277225  43.44395  
9991       0.6534117  0.9181644  43.24788  
9991.5     0.6524823  0.9095373  43.06859  
9992       0.6524823  0.9009422  43.02023  
9992.5     0.6524823  0.8945084  42.9789   
9993       0.6524823  0.8924612  42.93755  
9993.5     0.6524823  0.890414   43.03848  
9994       0.6524823  0.8864939  43.26895  
9994.5     0.6524823  0.881117   43.44019  
9995       0.6524823  0.8781869  43.58351  
9995.5     0.6524823  0.8781869  43.71504  
9996       0.6524823  0.8811247  43.84161  
9996.5     0.6524823  0.8872641  43.90935  
9997       0.6524823  0.8856333  43.90935  
9997.5     0.6524823  0.879494   43.95204  
9998       0.6524823  0.880303   44.02635  
9998.5     0.6524823  0.8829916  43.88303  
9999       0.6524823  0.8838527  43.74298  
9999.5     0.6473927  0.8838527  43.61641  
10000      0.6360629  0.8839948  43.48985  
10000.5    0.6247331  0.8873025  43.14761  
10001      0.6325943  0.8904645  42.8253   
10001.5    0.6415658  0.8933311  42.7762   
10002      0.6505373  0.8934947  42.91907  
10002.5    0.6524823  0.8887157  43.188    
10003      0.6524823  0.8839366  43.42035  
10003.5    0.6524823  0.8866688  43.65491  
10004      0.6524823  0.8896099  43.92351  
10004.5    0.6524823  0.9052269  44.13171  
10005      0.6524823  0.9227847  44.28535  
10005.5    0.6524823  0.9372256  44.38008  
10006      0.6524823  0.9436767  44.4473   
10006.5    0.6524823  0.9501278  44.52002  
