~Version
 VERS              .         3.0                           : CWLS LOG ASCII STANDARD - VERSION 3.0
 WRAP              .         NO                            : ONE LINE PER DEPTH STEP
 DLM               .         SPACE                         : DELIMITING CHARACTER(SPACE TAB OR COMMA)
~Well Information
#_______________________________________________________________________________
#
#PARAMETER_NAME    .UNIT     VALUE                         : DESCRIPTION
#_______________________________________________________________________________
STRT               .ft       3000                          : First reference value
STOP               .ft       10476                         : Last reference value
STEP               .ft       0.5                           : Step increment
NULL               .         -9999                         : Missing value
COMP               .                                       : Company
WELL               .         EGBM-001                      : Well name
FLD                .         EGBEMA                        : Field
LOC                .                                       : Location
SRVC               .                                       : Service Company
CTRY               .                                       : Country
DATE               .         1960/10/25                    : Service Date
X                  .                                       : X or East-West coordinate
Y                  .                                       : Y or North South coordinate
GDAT               .                                       : Geodetic Datum
HZCS               .                                       : Horizontal Co-ordinate System
APIN               .         10801/01                      : 
BHT                .degC     -999.25                       : 
BLI                .ft       7010                          : 
BS                 .in       12.25                         : 
CREATION-TIME      .         2060/10/25 0_0                : 
DFD                .g/cm3    -999.25                       : 
DFT                .         CLAY BASE                     : 
DFV                .s        -999.25                       : 
ELZ                .         -999.25                       : 
FIELD-NAME         .         EGBEMA                        : 
FILE-ID            .         SOH20 .1                      : 
FILE-NUMBER        .         0                             : 
FILE-SET-NAME      .                                       : 
FILE-SET-NUMBER    .         0                             : 
FILE-TYPE          .         PTF                           : 
HIDE               .         Well/Hole_ EGBM-1  Service Name_ ES  Run Number_ 1: 
LCC                .         0                             : 
LMF                .         1                             : 
MST                .degC     -999.25                       : 
NAME-SPACE-NAME    .         LIS                           : 
NAME-SPACE-VERSION .         0                             : 
PRODUC             .         SHELL(PARASOL)                : 
PRODUCER-CODE      .         0                             : 
PRODUCER-NAME      .         Schlumberger                  : 
PRODUCT            .                                       : 
PROGRAMS           .         INC                           : 
R1                 .         LONG NORMAL GALVONOMETER 6 (1/10 BACK UP) NOT WORKING THEREFORE USED<_techsia_br_>: 
R2                 .         GALVONOMETER 5 (DOTTED) AS 1/10 BACK UP WITH GALVONOMETER 7 CONTINUOUS LINE<_techsia_br_>: 
R3                 .         AS USUAL GALVONOMETER<_techsia_br_>: 
R4                 .         <_techsia_br_>                : 
R5                 .         SHELL LAB MEASUREMENT<_techsia_br_>: 
R6                 .         <_techsia_br_>                : 
R7                 .         MUD      7.89 OHMS AT 75 DEG F<_techsia_br_>: 
R8                 .         FILTRATE 7.?8 OHMS AT 75 DEG F: 
RMCS               .ohm.m    -999.25                       : 
RMFS               .ohm.m    -999.25                       : 
RMS                .ohm.m    -999.25                       : 
TCS                .h        -999.25                       : 
TDD                .         -999.25                       : 
TDL                .         -999.25                       : 
TLI                .ft       1498                          : 
VERSION            .         2P01                          : 
WELL-ID            .         10801/01                      : 
WELL-NAME          .         EGBM-001                      : 
WN                 .         EGBM-001                      : 
~Parameter Information Block
#_______________________________________________________________________________
#
#PARAMETER_NAME    .UNIT     VALUE                         : DESCRIPTION
#_______________________________________________________________________________
SET                .         SOH11 _4_1                    : 
ACQUISITION-PRODUCT .         DLIS/U                        : 
CREATION-TIME      .         2026/5/13 8_57                : 
DLIS_FRAME_DIRECTION .         INCREASING                    : 
DLIS_FRAME_NAME    .         1                             : 
DLIS_FRAME_SPACING .ft       0.5                           : 
FIELD-NAME         .         EGBEMA                        : 
FILE-ID            .         SOH11 .4                      : 
FILE-NUMBER        .         4                             : 
FILE-SET-NAME      .         LIS-TO-DLIS-CONVERSION        : 
FILE-SET-NUMBER    .         14905                         : 
FILE-TYPE          .         PTF                           : 
INDEX-TYPE         .         BOREHOLE-DEPTH                : 
NAME-SPACE-NAME    .                                       : 
NAME-SPACE-VERSION .         0                             : 
OriginalDatasetName .         1                             : 
PRODUCER-CODE      .         440                           : 
PRODUCER-NAME      .         Schlumberger                  : 
PRODUCT            .         DLIS/U                        : 
PROGRAMS           .         LIS-TO-DLIS                   : 
TLFamily_DEPT      .         Measured Depth                : 
TLFamily_LN        .                                       : 
TLFamily_SN        .         Resistivity - Shallow         : 
TLFamily_SP        .         Spontaneous Potential         : 
VERSION            .         0.1                           : 
WELL-ID            .         10801/01                      : 
WELL-NAME          .         EGBM-001                      : 
~Curve Information
#_______________________________________________________________________________
#
#LOGNAME           .UNIT     LOG_ID                        : DESCRIPTION
#_______________________________________________________________________________
DEPT               .ft                                     :  {F}
LN                 .ohm.m                                  :  {F}
SN                 .ohm.m                                  :  {F}
SP                 .mV                                     :  {F}
~Ascii
3000.0     19.51909   14.76662   113.7464  
3000.5     19.57607   15.23076   113.5319  
3001       19.74184   16.03271   114.2005  
3001.5     20.03079   17.06958   114.9401  
3002       20.38989   17.88113   115.7205  
3002.5     20.68535   18.67548   115.7746  
3003       20.81213   19.00989   115.3591  
3003.5     20.93352   18.82191   114.1885  
3004       20.93352   18.45189   114.3853  
3004.5     20.93352   18.29333   114.7357  
3005       20.29829   18.55186   115.1648  
3005.5     19.31569   18.65027   115.493   
3006       17.98956   18.4209    115.493   
3006.5     16.50452   17.9577    116.1413  
3007       14.75265   17.28711   116.1164  
3007.5     12.33341   16.62097   115.291   
3008       9.938414   15.75775   115.0073  
3008.5     9.017357   14.6259    114.7814  
3009       8.119583   12.87482   114.911   
3009.5     7.221645   11.15993   115.5547  
3010       7.072136   9.251932   116.1985  
3010.5     7.072136   7.612173   117.5604  
3011       6.765652   5.7696     119.8859  
3011.5     6.457814   4.525806   123.1832  
3012       6.149977   3.797098   123.8349  
3012.5     5.891367   3.559412   125.3746  
3013       5.737449   3.486175   125.7646  
3013.5     5.592792   3.434393   126.118   
3014       5.45809    3.386513   126.4481  
3014.5     5.244925   3.338633   126.8437  
3015       4.904732   3.338048   127.246   
3015.5     4.564538   3.338048   127.0094  
3016       4.526167   3.338048   126.4496  
3016.5     4.543865   3.359281   125.6094  
3017       4.641828   3.427333   125.1142  
3017.5     4.73979    3.495385   125.0952  
3018       4.844121   3.558133   125.9894  
3018.5     4.963821   3.6197     126.1105  
3019       5.083521   3.819665   125.9975  
3019.5     5.258898   4.022456   125.7688  
3020       5.438485   4.659794   125.2324  
3020.5     5.618073   5.841869   124.5527  
3021       6.217343   7.700539   123.187   
3021.5     7.028607   9.243467   119.3802  
3022       8.204157   11.01079   115.0382  
3022.5     9.577894   12.23797   112.4096  
3023       11.11829   12.90411   111.0255  
3023.5     12.733     13.39312   110.2592  
3024       13.81053   13.81907   109.9874  
3024.5     14.93916   14.21801   110.2556  
3025       16.17299   14.72742   110.8725  
3025.5     17.33273   15.4447    112.0647  
3026       17.72458   16.59972   113.2529  
3026.5     17.82178   18.08218   114.1725  
3027       17.82178   19.23154   115.0921  
3027.5     17.32564   20.14694   115.9959  
3028       16.69179   20.82767   116.8542  
3028.5     16.06795   20.99692   117.5975  
3029       15.45228   20.66115   118.0573  
3029.5     14.83661   19.57503   118.095   
3030       14.07608   18.27541   117.5688  
3030.5     13.27808   16.91635   116.9086  
3031       12.48008   15.44176   115.8654  
3031.5     11.66608   13.69007   114.5832  
3032       10.80395   11.83467   114.2803  
3032.5     10.44677   10.32651   114.6105  
3033       10.12353   8.582644   115.9163  
3033.5     9.775133   7.202777   117.3467  
3034       9.371122   6.330321   118.7304  
3034.5     8.9874     5.994244   120.0311  
3035       8.679564   6.150984   120.4212  
3035.5     8.218618   6.609418   120.2224  
3036       7.500357   7.42843    119.5812  
3036.5     6.885674   8.377804   116.5018  
3037       6.42392    10.1763    112.5539  
3037.5     6.12967    10.58659   108.6444  
3038       5.963904   10.41416   108.1718  
3038.5     5.648183   9.68969    108.0028  
3039       5.307923   8.628792   109.6123  
3039.5     5.039471   7.442032   112.0695  
3040       4.895819   6.232545   115.8144  
3040.5     4.903873   5.331596   122.5365  
3041       5.143323   4.690299   123.0729  
3041.5     5.379294   4.313929   122.4858  
3042       5.513964   4.170277   122.6276  
3042.5     5.648634   4.055188   123.2129  
3043       6.121495   3.998977   123.7982  
3043.5     6.546965   3.942766   124.1586  
3044       6.726552   3.934365   124.4447  
3044.5     6.40681    4.033825   124.2488  
3045       5.749849   4.221457   123.8846  
3045.5     4.936943   4.467726   123.1045  
3046       3.987228   5.18349    121.7329  
3046.5     3.578304   6.653549   118.9222  
3047       3.47094    7.86674    114.5446  
3047.5     3.614593   8.156641   109.7792  
3048       3.850518   7.583193   109.2944  
3048.5     4.158356   6.442032   110.9631  
3049       4.438315   5.455281   114.2791  
3049.5     4.707655   4.745029   116.7651  
3050       4.976995   4.313986   119.0448  
3050.5     5.246334   3.93827    120.3797  
3051       5.374823   3.815135   121.3184  
3051.5     5.374823   3.795451   122.0142  
3052       5.374823   3.974982   122.5507  
3052.5     5.181428   4.072006   122.4842  
3053       4.965936   4.143842   121.8239  
3053.5     4.85594    4.169322   121.4763  
3054       5.02834    4.126224   121.2081  
3054.5     5.20074    4.083125   121.5818  
3055       5.373139   4.023265   122.2348  
3055.5     5.374823   3.958617   122.8878  
3056       5.374823   3.906445   123.4861  
3056.5     5.374823   3.923682   124.0583  
3057       5.229497   3.94092    124.4041  
3057.5     5.024236   3.958157   124.6566  
3058       4.818974   3.997896   124.7887  
3058.5     4.493638   4.040995   124.7887  
3059       4.14566    4.09698    124.422   
3059.5     3.746605   4.19276    123.4465  
3060       3.347548   4.288541   121.3802  
3060.5     2.948493   4.268185   119.2347  
3061       2.765981   4.111116   117.0889  
3061.5     2.676188   3.680106   117.3367  
3062       2.586393   3.392445   119.8189  
3062.5     2.545969   3.224894   122.3063  
3063       2.545969   3.224894   124.3488  
3063.5     2.545969   3.277572   125.5194  
3064       2.545969   3.368308   125.9155  
3064.5     2.532933   3.451202   125.1671  
3065       2.473077   3.451202   122.9292  
3065.5     2.41322    3.363137   121.9789  
3066       2.353365   3.231466   123.4521  
3066.5     2.293509   3.264619   124.5252  
3067       2.336154   3.330375   125.1622  
3067.5     2.484762   3.429833   125.6338  
3068       2.63337    3.5527     125.6338  
3068.5     2.781979   3.722679   125.1949  
3069       2.981453   3.938165   123.8568  
3069.5     3.204366   4.097382   121.0387  
3070       3.427279   4.224154   120.3508  
3070.5     3.65019    4.380873   121.5214  
3071       3.812565   4.581986   122.3678  
3071.5     3.966483   4.90946    122.9791  
3072       4.120402   5.547689   122.5855  
3072.5     4.284667   6.297319   121.8072  
3073       4.489892   6.940349   119.466   
3073.5     4.695116   7.56279    116.9113  
3074       5.064715   7.436871   115.5686  
3074.5     5.639467   6.826272   115.2125  
3075       6.130574   6.198671   116.4386  
3075.5     6.52963    5.552357   117.7118  
3076       6.928686   5.276286   119.2267  
3076.5     7.327742   5.200295   120.7415  
3077       7.455383   5.313716   121.6447  
3077.5     7.563108   5.427135   122.5029  
3078       7.637906   5.901454   122.5352  
3078.5     7.548482   6.389872   122.3895  
3079       6.83028    8.470209   121.2193  
3079.5     6.112079   10.12751   117.6826  
3080       5.75828    11.15984   109.8259  
3080.5     5.657708   11.61835   108.261   
3081       5.657708   11.1919    107.7098  
3081.5     5.657708   10.12971   108.1     
3082       5.736183   8.988161   108.7924  
3082.5     5.849603   8.047722   109.5497  
3083       5.907823   6.859402   111.0304  
3083.5     5.742105   6.637614   113.0112  
3084       5.499088   7.021747   113.999   
3084.5     5.175851   7.668267   113.002   
3085       4.852613   8.314623   110.4716  
3085.5     4.902278   8.477882   108.4519  
3086       5.010023   8.231571   107.5167  
3086.5     5.069473   7.265375   107.6225  
3087       4.975773   5.80862    109.5457  
3087.5     4.882072   4.847527   114.33    
3088       4.792653   4.387731   119.9466  
3088.5     4.718349   4.315918   123.3952  
3089       4.644045   4.417965   124.1816  
3089.5     4.56974    4.570091   122.385   
3090       4.561817   4.639321   117.6906  
3090.5     4.648017   4.621068   115.493   
