~Version
 VERS              .         3.0                           : CWLS LOG ASCII STANDARD - VERSION 3.0
 WRAP              .         NO                            : ONE LINE PER DEPTH STEP
 DLM               .         SPACE                         : DELIMITING CHARACTER(SPACE TAB OR COMMA)
~Well Information
#_______________________________________________________________________________
#
#PARAMETER_NAME    .UNIT     VALUE                         : DESCRIPTION
#_______________________________________________________________________________
STRT               .ft       3000                          : First reference value
STOP               .ft       10476                         : Last reference value
STEP               .ft       0.5                           : Step increment
NULL               .         -9999                         : Missing value
COMP               .                                       : Company
WELL               .         EGBM-001                      : Well name
FLD                .         EGBEMA                        : Field
LOC                .                                       : Location
SRVC               .                                       : Service Company
CTRY               .                                       : Country
DATE               .         1960/10/25                    : Service Date
X                  .                                       : X or East-West coordinate
Y                  .                                       : Y or North South coordinate
GDAT               .                                       : Geodetic Datum
HZCS               .                                       : Horizontal Co-ordinate System
APIN               .         10801/01                      : 
BHT                .degC     -999.25                       : 
BLI                .ft       7010                          : 
BS                 .in       12.25                         : 
CREATION-TIME      .         2060/10/25 0_0                : 
DFD                .g/cm3    -999.25                       : 
DFT                .         CLAY BASE                     : 
DFV                .s        -999.25                       : 
ELZ                .         -999.25                       : 
FIELD-NAME         .         EGBEMA                        : 
FILE-ID            .         SOH20 .1                      : 
FILE-NUMBER        .         0                             : 
FILE-SET-NAME      .                                       : 
FILE-SET-NUMBER    .         0                             : 
FILE-TYPE          .         PTF                           : 
HIDE               .         Well/Hole_ EGBM-1  Service Name_ ES  Run Number_ 1: 
LCC                .         0                             : 
LMF                .         1                             : 
MST                .degC     -999.25                       : 
NAME-SPACE-NAME    .         LIS                           : 
NAME-SPACE-VERSION .         0                             : 
PRODUC             .         SHELL(PARASOL)                : 
PRODUCER-CODE      .         0                             : 
PRODUCER-NAME      .         Schlumberger                  : 
PRODUCT            .                                       : 
PROGRAMS           .         INC                           : 
R1                 .         LONG NORMAL GALVONOMETER 6 (1/10 BACK UP) NOT WORKING THEREFORE USED<_techsia_br_>: 
R2                 .         GALVONOMETER 5 (DOTTED) AS 1/10 BACK UP WITH GALVONOMETER 7 CONTINUOUS LINE<_techsia_br_>: 
R3                 .         AS USUAL GALVONOMETER<_techsia_br_>: 
R4                 .         <_techsia_br_>                : 
R5                 .         SHELL LAB MEASUREMENT<_techsia_br_>: 
R6                 .         <_techsia_br_>                : 
R7                 .         MUD      7.89 OHMS AT 75 DEG F<_techsia_br_>: 
R8                 .         FILTRATE 7.?8 OHMS AT 75 DEG F: 
RMCS               .ohm.m    -999.25                       : 
RMFS               .ohm.m    -999.25                       : 
RMS                .ohm.m    -999.25                       : 
TCS                .h        -999.25                       : 
TDD                .         -999.25                       : 
TDL                .         -999.25                       : 
TLI                .ft       1498                          : 
VERSION            .         2P01                          : 
WELL-ID            .         10801/01                      : 
WELL-NAME          .         EGBM-001                      : 
WN                 .         EGBM-001                      : 
~Parameter Information Block
#_______________________________________________________________________________
#
#PARAMETER_NAME    .UNIT     VALUE                         : DESCRIPTION
#_______________________________________________________________________________
SET                .         SOH11 _4_1                    : 
ACQUISITION-PRODUCT .         DLIS/U                        : 
CREATION-TIME      .         2026/5/13 8_57                : 
DLIS_FRAME_DIRECTION .         INCREASING                    : 
DLIS_FRAME_NAME    .         1                             : 
DLIS_FRAME_SPACING .ft       0.5                           : 
FIELD-NAME         .         EGBEMA                        : 
FILE-ID            .         SOH11 .4                      : 
FILE-NUMBER        .         4                             : 
FILE-SET-NAME      .         LIS-TO-DLIS-CONVERSION        : 
FILE-SET-NUMBER    .         14905                         : 
FILE-TYPE          .         PTF                           : 
INDEX-TYPE         .         BOREHOLE-DEPTH                : 
NAME-SPACE-NAME    .                                       : 
NAME-SPACE-VERSION .         0                             : 
OriginalDatasetName .         1                             : 
PRODUCER-CODE      .         440                           : 
PRODUCER-NAME      .         Schlumberger                  : 
PRODUCT            .         DLIS/U                        : 
PROGRAMS           .         LIS-TO-DLIS                   : 
TLFamily_DEPT      .         Measured Depth                : 
TLFamily_LN        .                                       : 
TLFamily_SN        .         Resistivity - Shallow         : 
TLFamily_SP        .         Spontaneous Potential         : 
VERSION            .         0.1                           : 
WELL-ID            .         10801/01                      : 
WELL-NAME          .         EGBM-001                      : 
~Curve Information
#_______________________________________________________________________________
#
#LOGNAME           .UNIT     LOG_ID                        : DESCRIPTION
#_______________________________________________________________________________
DEPT               .ft                                     :  {F}
LN                 .ohm.m                                  :  {F}
SN                 .ohm.m                                  :  {F}
SP                 .mV                                     :  {F}
~Ascii
# ...
7914       8.05151    12.92698   27.01076  
7914.5     8.403467   13.16522   26.45319  
7915       8.864702   13.3088    26.38298  
7915.5     9.321356   13.54742   26.77484  
7916       9.532494   13.81127   28.54556  
7916.5     9.590878   14.17413   29.28427  
7917       9.632965   14.67087   29.36169  
7917.5     9.69169    15.20154   28.26729  
7918       9.798704   15.7419    27.20531  
7918.5     9.936607   15.93011   27.19946  
7919       10.10648   15.50695   27.71741  
7919.5     10.23569   14.59393   28.70946  
7920       10.30922   13.43546   30.43008  
7920.5     10.32624   12.38377   33.48315  
7921       10.32624   11.6186    37.81088  
7921.5     10.25657   11.34256   40.53633  
7922       10.15682   11.18217   41.71501  
7922.5     10.01858   11.00998   40.42468  
7923       9.901131   10.84623   37.55101  
7923.5     9.791046   10.79226   37.75642  
7924       9.713568   10.82202   39.18103  
7924.5     9.692112   10.93579   43.74319  
7925       9.753666   11.11804   46.01074  
7925.5     9.871117   11.58203   44.6698   
7926       10.00811   12.13956   42.66843  
7926.5     10.14016   12.49254   41.08571  
7927       10.1647    12.45285   39.09598  
7927.5     10.07172   12.19513   36.26225  
7928       9.976919   11.28783   34.34886  
7928.5     9.943796   10.6549    36.46916  
7929       9.955671   10.14353   41.39612  
7929.5     10.00755   9.774588   45.41464  
7930       10.06628   9.469503   44.92664  
7930.5     10.07092   9.46652    40.91278  
7931       10.0536    9.617147   39.76753  
7931.5     10.02489   9.664833   41.83949  
7932       10.06819   9.712345   42.82762  
7932.5     10.17951   9.947241   41.13159  
7933       10.33958   10.3122    38.23726  
7933.5     10.4427    10.49645   36.75711  
7934       10.48577   10.49645   36.47679  
7934.5     10.48566   10.58875   37.45732  
7935       10.4713    10.84217   39.00708  
7935.5     10.42629   11.1116    37.93307  
7936       10.36546   11.31152   34.84592  
7936.5     10.27574   11.5429    32.56898  
7937       10.19705   11.65003   33.54251  
7937.5     10.12256   11.67288   36.18311  
7938       9.956078   11.6051    37.14102  
7938.5     9.533949   11.58502   37.30119  
7939       8.792593   11.70958   38.85579  
7939.5     8.328621   11.85073   40.9735   
7940       7.996595   12.10213   42.23187  
7940.5     7.805346   12.75869   42.80299  
7941       7.722931   13.09587   41.35028  
7941.5     7.77022    13.22917   36.91901  
7942       7.902378   13.08417   33.19778  
7942.5     8.22485    12.62639   32.65128  
7943       8.933859   11.71736   34.04938  
7943.5     9.716734   10.95423   36.37308  
7944       10.54337   10.25583   40.82263  
7944.5     11.29204   9.806524   46.04668  
7945       11.67731   9.531916   50.0217   
7945.5     11.75936   9.558067   52.14938  
7946       11.7581    9.675518   52.42657  
7946.5     11.70842   9.850187   51.13518  
7947       11.68794   10.11897   47.33376  
7947.5     11.68794   10.42945   43.03976  
7948       11.64607   10.71691   42.90421  
7948.5     11.56762   11.03105   43.67793  
7949       11.32588   11.5046    42.08839  
7949.5     11.01562   12.39857   39.74275  
7950       10.60999   13.49869   36.77574  
7950.5     10.14071   14.63405   32.85771  
7951       9.84325    15.87694   29.33223  
7951.5     9.824715   17.57141   27.80124  
7952       9.914429   18.26166   27.50903  
7952.5     10.03591   18.23503   29.74323  
7953       10.19349   17.75655   32.6544   
7953.5     10.35643   17.6586    36.91258  
7954       10.41987   17.80363   39.5192   
7954.5     9.910917   17.97115   36.12817  
7955       8.911844   18.05721   30.30618  
7955.5     7.567113   17.78786   28.09592  
7956       6.43746    17.00624   27.08798  
7956.5     5.522234   15.09349   28.16591  
7957       5.008406   12.97744   30.89099  
7957.5     4.699885   10.03479   35.83363  
7958       4.46975    7.479948   43.1595   
7958.5     4.274861   5.393144   50.39497  
7959       4.08432    3.97801    56.98531  
7959.5     3.891638   3.250951   62.90762  
7960       3.715486   2.792245   65.56505  
7960.5     3.592459   2.571536   65.99242  
7961       3.44621    2.400441   66.66258  
7961.5     3.264029   2.269361   66.95035  
7962       3.09593    2.149849   66.95035  
7962.5     2.934468   2.094808   66.95035  
7963       2.768557   2.104484   67.09067  
7963.5     2.599305   2.177723   67.27719  
7964       2.480894   2.236933   66.80658  
7964.5     2.381627   2.258345   66.71681  
7965       2.289357   2.271265   66.59874  
7965.5     2.197087   2.286429   66.44489  
7966       2.104817   2.306043   66.38298  
7966.5     2.025043   2.288222   66.38676  
7967       1.971197   2.223271   66.60226  
7967.5     1.908251   2.103393   66.84096  
7968       1.81392    1.968701   67.08952  
7968.5     1.760092   1.904263   67.25613  
7969       1.713386   1.868936   67.37589  
7969.5     1.675379   1.818368   67.37589  
7970       1.643227   1.754326   67.42787  
7970.5     1.632973   1.701063   67.48792  
7971       1.622719   1.668498   67.38167  
7971.5     1.605063   1.680122   67.47144  
7972       1.578154   1.723623   67.51773  
7972.5     1.560284   1.771576   67.51773  
7973       1.560284   1.777164   67.43449  
7973.5     1.560284   1.743374   67.37589  
7974       1.560284   1.695098   67.37483  
7974.5     1.538113   1.675736   67.24022  
7975       1.495033   1.687138   67.02843  
7975.5     1.462283   1.739145   67.08778  
7976       1.438364   1.787605   66.98686  
7976.5     1.416324   1.797932   66.52483  
7977       1.403655   1.776685   66.52483  
7977.5     1.390986   1.713787   66.63521  
7978       1.38099    1.636855   66.87312  
7978.5     1.371202   1.58508    67.13857  
7979       1.361351   1.595268   67.38713  
7979.5     1.349392   1.612406   67.51773  
7980       1.337432   1.629693   67.513    
7980.5     1.32547    1.63687    67.33345  
7981       1.313505   1.64838    67.26837  
7981.5     1.308587   1.661234   67.34531  
7982       1.321251   1.657653   67.52019  
7982.5     1.333992   1.63098    67.40233  
7983       1.348344   1.613752   66.75798  
7983.5     1.359213   1.608259   66.54211  
7984       1.323319   1.601664   66.87025  
7984.5     1.287426   1.584618   67.09219  
7985       1.257806   1.541578   67.08168  
7985.5     1.230895   1.513119   66.66666  
7986       1.219858   1.528779   66.69839  
7986.5     1.219858   1.547571   66.87794  
7987       1.219858   1.567833   66.99626  
7987.5     1.219858   1.588811   67.0732   
7988       1.219858   1.593593   67.16594  
7988.5     1.219858   1.570014   67.30701  
7989       1.219873   1.5318     67.51012  
7989.5     1.225256   1.511477   67.44675  
7990       1.230639   1.524293   67.38338  
7990.5     1.236021   1.584041   67.66074  
7991       1.241404   1.654284   67.86224  
7991.5     1.246786   1.68229    67.87038  
7992       1.272487   1.671357   67.57655  
7992.5     1.304964   1.653115   67.45619  
7993       1.304964   1.629187   67.37926  
7993.5     1.304964   1.597165   67.10355  
7994       1.290135   1.592015   67.42656  
7994.5     1.26143    1.589483   67.25989  
7995       1.241385   1.617659   66.87686  
7995.5     1.228716   1.650743   66.76059  
7996       1.216775   1.614736   66.95784  
7996.5     1.206524   1.530953   67.19733  
7997       1.196274   1.426761   67.38605  
7997.5     1.191489   1.402187   67.58952  
7998       1.191489   1.36373    67.85884  
7998.5     1.204584   1.300901   68.01723  
7999       1.235341   1.292089   68.02377  
7999.5     1.239887   1.330344   67.85806  
8000       1.225534   1.373044   67.87234  
8000.5     1.219858   1.41247    68.07353  
8001       1.219858   1.462359   68.05721  
8001.5     1.219858   1.566445   67.88318  
8002       1.219858   1.695106   67.43497  
8002.5     1.233983   1.815008   67.28046  
8003       1.260919   1.831868   67.11201  
8003.5     1.290456   1.871911   66.63136  
8004       1.323618   1.886633   66.543    
8004.5     1.352377   1.777935   66.72229  
